[{"id":472,"Name":"Bosnian Podrinje Canton","country_id":28,"country_code":"BA","country_name":"Bosnia and Herzegovina","state_code":"05","type":null,"latitude":"43.68749000","longitude":"18.82443940"},{"id":460,"Name":"Brƒçko District","country_id":28,"country_code":"BA","country_name":"Bosnia and Herzegovina","state_code":"BRC","type":null,"latitude":"44.84059440","longitude":"18.74215300"},{"id":471,"Name":"Canton 10","country_id":28,"country_code":"BA","country_name":"Bosnia and Herzegovina","state_code":"10","type":null,"latitude":"43.95341550","longitude":"16.94251870"},{"id":462,"Name":"Central Bosnia Canton","country_id":28,"country_code":"BA","country_name":"Bosnia and Herzegovina","state_code":"06","type":null,"latitude":"44.13818560","longitude":"17.68667140"},{"id":467,"Name":"Federation of Bosnia and Herzegovina","country_id":28,"country_code":"BA","country_name":"Bosnia and Herzegovina","state_code":"BIH","type":null,"latitude":"43.88748970","longitude":"17.84279300"},{"id":463,"Name":"Herzegovina-Neretva Canton","country_id":28,"country_code":"BA","country_name":"Bosnia and Herzegovina","state_code":"07","type":null,"latitude":"43.52651590","longitude":"17.76362100"},{"id":464,"Name":"Posavina Canton","country_id":28,"country_code":"BA","country_name":"Bosnia and Herzegovina","state_code":"02","type":null,"latitude":"45.07520940","longitude":"18.37763040"},{"id":470,"Name":"Republika Srpska","country_id":28,"country_code":"BA","country_name":"Bosnia and Herzegovina","state_code":"SRP","type":null,"latitude":"44.72801860","longitude":"17.31481360"},{"id":466,"Name":"Sarajevo Canton","country_id":28,"country_code":"BA","country_name":"Bosnia and Herzegovina","state_code":"09","type":null,"latitude":"43.85125640","longitude":"18.29534420"},{"id":461,"Name":"Tuzla Canton","country_id":28,"country_code":"BA","country_name":"Bosnia and Herzegovina","state_code":"03","type":null,"latitude":"44.53434630","longitude":"18.69727970"},{"id":465,"Name":"Una-Sana Canton","country_id":28,"country_code":"BA","country_name":"Bosnia and Herzegovina","state_code":"01","type":null,"latitude":"44.65031160","longitude":"16.31716290"},{"id":469,"Name":"West Herzegovina Canton","country_id":28,"country_code":"BA","country_name":"Bosnia and Herzegovina","state_code":"08","type":null,"latitude":"43.43692440","longitude":"17.38488310"},{"id":468,"Name":"Zenica-Doboj Canton","country_id":28,"country_code":"BA","country_name":"Bosnia and Herzegovina","state_code":"04","type":null,"latitude":"44.21271090","longitude":"18.16046250"}]