[{"id":240,"Name":"Bumthang District","country_id":26,"country_code":"BT","country_name":"Bhutan","state_code":"33","type":null,"latitude":"27.64183900","longitude":"90.67730460"},{"id":239,"Name":"Chukha District","country_id":26,"country_code":"BT","country_name":"Bhutan","state_code":"12","type":null,"latitude":"27.07843040","longitude":"89.47421770"},{"id":238,"Name":"Dagana District","country_id":26,"country_code":"BT","country_name":"Bhutan","state_code":"22","type":null,"latitude":"27.03228610","longitude":"89.88793040"},{"id":229,"Name":"Gasa District","country_id":26,"country_code":"BT","country_name":"Bhutan","state_code":"GA","type":null,"latitude":"28.01858860","longitude":"89.92532330"},{"id":232,"Name":"Haa District","country_id":26,"country_code":"BT","country_name":"Bhutan","state_code":"13","type":null,"latitude":"27.26516690","longitude":"89.17059980"},{"id":234,"Name":"Lhuntse District","country_id":26,"country_code":"BT","country_name":"Bhutan","state_code":"44","type":null,"latitude":"27.82649890","longitude":"91.13530200"},{"id":242,"Name":"Mongar District","country_id":26,"country_code":"BT","country_name":"Bhutan","state_code":"42","type":null,"latitude":"27.26170590","longitude":"91.28910360"},{"id":237,"Name":"Paro District","country_id":26,"country_code":"BT","country_name":"Bhutan","state_code":"11","type":null,"latitude":"27.42859490","longitude":"89.41665160"},{"id":244,"Name":"Pemagatshel District","country_id":26,"country_code":"BT","country_name":"Bhutan","state_code":"43","type":null,"latitude":"27.00238200","longitude":"91.34692470"},{"id":235,"Name":"Punakha District","country_id":26,"country_code":"BT","country_name":"Bhutan","state_code":"23","type":null,"latitude":"27.69037160","longitude":"89.88793040"},{"id":243,"Name":"Samdrup Jongkhar District","country_id":26,"country_code":"BT","country_name":"Bhutan","state_code":"45","type":null,"latitude":"26.80356820","longitude":"91.50392070"},{"id":246,"Name":"Samtse District","country_id":26,"country_code":"BT","country_name":"Bhutan","state_code":"14","type":null,"latitude":"27.02918320","longitude":"89.05615320"},{"id":247,"Name":"Sarpang District","country_id":26,"country_code":"BT","country_name":"Bhutan","state_code":"31","type":null,"latitude":"26.93730410","longitude":"90.48799160"},{"id":241,"Name":"Thimphu District","country_id":26,"country_code":"BT","country_name":"Bhutan","state_code":"15","type":null,"latitude":"27.47122160","longitude":"89.63390410"},{"id":236,"Name":"Trashigang District","country_id":26,"country_code":"BT","country_name":"Bhutan","state_code":"41","type":null,"latitude":"27.25667950","longitude":"91.75388170"},{"id":245,"Name":"Trongsa District","country_id":26,"country_code":"BT","country_name":"Bhutan","state_code":"32","type":null,"latitude":"27.50022690","longitude":"90.50806340"},{"id":230,"Name":"Tsirang District","country_id":26,"country_code":"BT","country_name":"Bhutan","state_code":"21","type":null,"latitude":"27.03220700","longitude":"90.18696440"},{"id":231,"Name":"Wangdue Phodrang District","country_id":26,"country_code":"BT","country_name":"Bhutan","state_code":"24","type":null,"latitude":"27.45260460","longitude":"90.06749280"},{"id":233,"Name":"Zhemgang District","country_id":26,"country_code":"BT","country_name":"Bhutan","state_code":"34","type":null,"latitude":"27.07697500","longitude":"90.82940020"}]