[{"id":2828,"Name":"Aisén del General Carlos Ibañez del Campo","country_id":44,"country_code":"CL","country_name":"Chile","state_code":"AI","type":null,"latitude":"-46.37834500","longitude":"-72.30076230"},{"id":2832,"Name":"Antofagasta","country_id":44,"country_code":"CL","country_name":"Chile","state_code":"AN","type":null,"latitude":"-23.83691040","longitude":"-69.28775350"},{"id":2829,"Name":"Arica y Parinacota","country_id":44,"country_code":"CL","country_name":"Chile","state_code":"AP","type":null,"latitude":"-18.59404850","longitude":"-69.47845410"},{"id":2823,"Name":"Atacama","country_id":44,"country_code":"CL","country_name":"Chile","state_code":"AT","type":null,"latitude":"-27.56605580","longitude":"-70.05031400"},{"id":2827,"Name":"Biobío","country_id":44,"country_code":"CL","country_name":"Chile","state_code":"BI","type":null,"latitude":"-37.44644280","longitude":"-72.14161320"},{"id":2825,"Name":"Coquimbo","country_id":44,"country_code":"CL","country_name":"Chile","state_code":"CO","type":null,"latitude":"-30.54018100","longitude":"-70.81199530"},{"id":2826,"Name":"La Araucanía","country_id":44,"country_code":"CL","country_name":"Chile","state_code":"AR","type":null,"latitude":"-38.94892100","longitude":"-72.33111300"},{"id":2838,"Name":"Libertador General Bernardo O'Higgins","country_id":44,"country_code":"CL","country_name":"Chile","state_code":"LI","type":null,"latitude":"-34.57553740","longitude":"-71.00223110"},{"id":2835,"Name":"Los Lagos","country_id":44,"country_code":"CL","country_name":"Chile","state_code":"LL","type":null,"latitude":"-41.91977790","longitude":"-72.14161320"},{"id":2834,"Name":"Los Ríos","country_id":44,"country_code":"CL","country_name":"Chile","state_code":"LR","type":null,"latitude":"-40.23102170","longitude":"-72.33111300"},{"id":2836,"Name":"Magallanes y de la Antártica Chilena","country_id":44,"country_code":"CL","country_name":"Chile","state_code":"MA","type":null,"latitude":"-52.20643160","longitude":"-72.16850010"},{"id":2833,"Name":"Maule","country_id":44,"country_code":"CL","country_name":"Chile","state_code":"ML","type":null,"latitude":"-35.51636030","longitude":"-71.57239530"},{"id":2831,"Name":"Ñuble","country_id":44,"country_code":"CL","country_name":"Chile","state_code":"NB","type":null,"latitude":"-36.72257430","longitude":"-71.76224810"},{"id":2824,"Name":"Región Metropolitana de Santiago","country_id":44,"country_code":"CL","country_name":"Chile","state_code":"RM","type":null,"latitude":"-33.43755450","longitude":"-70.65048960"},{"id":2837,"Name":"Tarapacá","country_id":44,"country_code":"CL","country_name":"Chile","state_code":"TA","type":null,"latitude":"-20.20287990","longitude":"-69.28775350"},{"id":2830,"Name":"Valparaíso","country_id":44,"country_code":"CL","country_name":"Chile","state_code":"VS","type":null,"latitude":"-33.04723800","longitude":"-71.61268850"}]