[{"id":2251,"Name":"Anhui","country_id":45,"country_code":"CN","country_name":"China","state_code":"AH","type":"province","latitude":"30.60067730","longitude":"117.92490020"},{"id":2257,"Name":"Beijing","country_id":45,"country_code":"CN","country_name":"China","state_code":"BJ","type":"municipality","latitude":"39.90419990","longitude":"116.40739630"},{"id":2271,"Name":"Chongqing","country_id":45,"country_code":"CN","country_name":"China","state_code":"CQ","type":"municipality","latitude":"29.43158610","longitude":"106.91225100"},{"id":2248,"Name":"Fujian","country_id":45,"country_code":"CN","country_name":"China","state_code":"FJ","type":"province","latitude":"26.48368420","longitude":"117.92490020"},{"id":2275,"Name":"Gansu","country_id":45,"country_code":"CN","country_name":"China","state_code":"GS","type":"province","latitude":"35.75183260","longitude":"104.28611160"},{"id":2279,"Name":"Guangdong","country_id":45,"country_code":"CN","country_name":"China","state_code":"GD","type":"province","latitude":"23.37903330","longitude":"113.76328280"},{"id":2278,"Name":"Guangxi Zhuang","country_id":45,"country_code":"CN","country_name":"China","state_code":"GX","type":"autonomous region","latitude":"23.72475990","longitude":"108.80761950"},{"id":2261,"Name":"Guizhou","country_id":45,"country_code":"CN","country_name":"China","state_code":"GZ","type":"province","latitude":"26.84296450","longitude":"107.29028390"},{"id":2273,"Name":"Hainan","country_id":45,"country_code":"CN","country_name":"China","state_code":"HI","type":"province","latitude":"19.56639470","longitude":"109.94968600"},{"id":2280,"Name":"Hebei","country_id":45,"country_code":"CN","country_name":"China","state_code":"HE","type":"province","latitude":"37.89565940","longitude":"114.90422080"},{"id":2265,"Name":"Heilongjiang","country_id":45,"country_code":"CN","country_name":"China","state_code":"HL","type":"province","latitude":"47.12164720","longitude":"128.73823100"},{"id":2259,"Name":"Henan","country_id":45,"country_code":"CN","country_name":"China","state_code":"HA","type":"province","latitude":"34.29043020","longitude":"113.38235450"},{"id":2267,"Name":"Hong Kong SAR","country_id":45,"country_code":"CN","country_name":"China","state_code":"HK","type":"special administrative region","latitude":"22.31930390","longitude":"114.16936110"},{"id":2274,"Name":"Hubei","country_id":45,"country_code":"CN","country_name":"China","state_code":"HB","type":"province","latitude":"30.73781180","longitude":"112.23840170"},{"id":2258,"Name":"Hunan","country_id":45,"country_code":"CN","country_name":"China","state_code":"HN","type":"province","latitude":"36.73412940","longitude":"-95.93449020"},{"id":2269,"Name":"Inner Mongolia","country_id":45,"country_code":"CN","country_name":"China","state_code":"NM","type":"autonomous region","latitude":"43.37822000","longitude":"115.05948150"},{"id":2250,"Name":"Jiangsu","country_id":45,"country_code":"CN","country_name":"China","state_code":"JS","type":"province","latitude":"33.14017150","longitude":"119.78892480"},{"id":2256,"Name":"Jiangxi","country_id":45,"country_code":"CN","country_name":"China","state_code":"JX","type":"province","latitude":"27.08745640","longitude":"114.90422080"},{"id":2253,"Name":"Jilin","country_id":45,"country_code":"CN","country_name":"China","state_code":"JL","type":"province","latitude":"43.83788300","longitude":"126.54957200"},{"id":2268,"Name":"Liaoning","country_id":45,"country_code":"CN","country_name":"China","state_code":"LN","type":"province","latitude":"41.94365430","longitude":"122.52903760"},{"id":2266,"Name":"Macau SAR","country_id":45,"country_code":"CN","country_name":"China","state_code":"MO","type":"special administrative region","latitude":"22.19874500","longitude":"113.54387300"},{"id":2262,"Name":"Ningxia Huizu","country_id":45,"country_code":"CN","country_name":"China","state_code":"NX","type":"autonomous region","latitude":"37.19873100","longitude":"106.15809370"},{"id":2270,"Name":"Qinghai","country_id":45,"country_code":"CN","country_name":"China","state_code":"QH","type":"province","latitude":"35.74479800","longitude":"96.40773580"},{"id":2272,"Name":"Shaanxi","country_id":45,"country_code":"CN","country_name":"China","state_code":"SN","type":"province","latitude":"35.39399080","longitude":"109.18800470"},{"id":2252,"Name":"Shandong","country_id":45,"country_code":"CN","country_name":"China","state_code":"SD","type":"province","latitude":"37.80060640","longitude":"-122.26999180"},{"id":2249,"Name":"Shanghai","country_id":45,"country_code":"CN","country_name":"China","state_code":"SH","type":"municipality","latitude":"31.23041600","longitude":"121.47370100"},{"id":2254,"Name":"Shanxi","country_id":45,"country_code":"CN","country_name":"China","state_code":"SX","type":"province","latitude":"37.24256490","longitude":"111.85685860"},{"id":2277,"Name":"Sichuan","country_id":45,"country_code":"CN","country_name":"China","state_code":"SC","type":"province","latitude":"30.26380320","longitude":"102.80547530"},{"id":2255,"Name":"Taiwan","country_id":45,"country_code":"CN","country_name":"China","state_code":"TW","type":"province","latitude":"23.69781000","longitude":"120.96051500"},{"id":2276,"Name":"Tianjin","country_id":45,"country_code":"CN","country_name":"China","state_code":"TJ","type":"municipality","latitude":"39.12522910","longitude":"117.01534350"},{"id":2263,"Name":"Xinjiang","country_id":45,"country_code":"CN","country_name":"China","state_code":"XJ","type":"autonomous region","latitude":"42.52463570","longitude":"87.53958550"},{"id":2264,"Name":"Xizang","country_id":45,"country_code":"CN","country_name":"China","state_code":"XZ","type":"autonomous region","latitude":"30.15336050","longitude":"88.78786780"},{"id":2260,"Name":"Yunnan","country_id":45,"country_code":"CN","country_name":"China","state_code":"YN","type":"province","latitude":"24.47528470","longitude":"101.34310580"},{"id":2247,"Name":"Zhejiang","country_id":45,"country_code":"CN","country_name":"China","state_code":"ZJ","type":"province","latitude":"29.14164320","longitude":"119.78892480"}]