[{"id":4627,"Name":"Benešov","country_id":58,"country_code":"CZ","country_name":"Czech Republic","state_code":"201","type":null,"latitude":"49.69008280","longitude":"14.77643990"},{"id":4620,"Name":"Beroun","country_id":58,"country_code":"CZ","country_name":"Czech Republic","state_code":"202","type":null,"latitude":"49.95734280","longitude":"13.98407150"},{"id":4615,"Name":"Blansko","country_id":58,"country_code":"CZ","country_name":"Czech Republic","state_code":"641","type":null,"latitude":"49.36485020","longitude":"16.64775520"},{"id":4542,"Name":"Břeclav","country_id":58,"country_code":"CZ","country_name":"Czech Republic","state_code":"644","type":null,"latitude":"48.75314000","longitude":"16.88251690"},{"id":4568,"Name":"Brno-město","country_id":58,"country_code":"CZ","country_name":"Czech Republic","state_code":"642","type":null,"latitude":"49.19506020","longitude":"16.60683710"},{"id":4545,"Name":"Brno-venkov","country_id":58,"country_code":"CZ","country_name":"Czech Republic","state_code":"643","type":null,"latitude":"49.12501380","longitude":"16.45588240"},{"id":4644,"Name":"Bruntál","country_id":58,"country_code":"CZ","country_name":"Czech Republic","state_code":"801","type":null,"latitude":"49.98817670","longitude":"17.46369410"},{"id":4633,"Name":"Česká Lípa","country_id":58,"country_code":"CZ","country_name":"Czech Republic","state_code":"511","type":null,"latitude":"50.67852010","longitude":"14.53969910"},{"id":4556,"Name":"České Budějovice","country_id":58,"country_code":"CZ","country_name":"Czech Republic","state_code":"311","type":null,"latitude":"48.97755530","longitude":"14.51507470"},{"id":4543,"Name":"Český Krumlov","country_id":58,"country_code":"CZ","country_name":"Czech Republic","state_code":"312","type":null,"latitude":"48.81273540","longitude":"14.31746570"},{"id":4573,"Name":"Cheb","country_id":58,"country_code":"CZ","country_name":"Czech Republic","state_code":"411","type":null,"latitude":"50.07953340","longitude":"12.36986360"},{"id":4553,"Name":"Chomutov","country_id":58,"country_code":"CZ","country_name":"Czech Republic","state_code":"422","type":null,"latitude":"50.45838720","longitude":"13.30179100"},{"id":4634,"Name":"Chrudim","country_id":58,"country_code":"CZ","country_name":"Czech Republic","state_code":"531","type":null,"latitude":"49.88302160","longitude":"15.82908660"},{"id":4609,"Name":"Děčín","country_id":58,"country_code":"CZ","country_name":"Czech Republic","state_code":"421","type":null,"latitude":"50.77255630","longitude":"14.21276120"},{"id":4641,"Name":"Domažlice","country_id":58,"country_code":"CZ","country_name":"Czech Republic","state_code":"321","type":null,"latitude":"49.43970270","longitude":"12.93114350"},{"id":4559,"Name":"Frýdek-Místek","country_id":58,"country_code":"CZ","country_name":"Czech Republic","state_code":"802","type":null,"latitude":"49.68193050","longitude":"18.36732160"},{"id":4611,"Name":"Havlíčkův Brod","country_id":58,"country_code":"CZ","country_name":"Czech Republic","state_code":"631","type":null,"latitude":"49.60433640","longitude":"15.57965520"},{"id":4561,"Name":"Hodonín","country_id":58,"country_code":"CZ","country_name":"Czech Republic","state_code":"645","type":null,"latitude":"48.85293910","longitude":"17.12600250"},{"id":4580,"Name":"Hradec Králové","country_id":58,"country_code":"CZ","country_name":"Czech Republic","state_code":"521","type":null,"latitude":"50.24148050","longitude":"15.67430000"},{"id":4612,"Name":"Jablonec nad Nisou","country_id":58,"country_code":"CZ","country_name":"Czech Republic","state_code":"512","type":null,"latitude":"50.72205280","longitude":"15.17031350"},{"id":4625,"Name":"Jeseník","country_id":58,"country_code":"CZ","country_name":"Czech Republic","state_code":"711","type":null,"latitude":"50.22462490","longitude":"17.19804710"},{"id":4640,"Name":"Jičín","country_id":58,"country_code":"CZ","country_name":"Czech Republic","state_code":"522","type":null,"latitude":"50.43533250","longitude":"15.36104400"},{"id":4613,"Name":"Jihlava","country_id":58,"country_code":"CZ","country_name":"Czech Republic","state_code":"632","type":null,"latitude":"49.39837820","longitude":"15.58704150"},{"id":4639,"Name":"Jihočeský kraj","country_id":58,"country_code":"CZ","country_name":"Czech Republic","state_code":"31","type":null,"latitude":"48.94577890","longitude":"14.44160550"},{"id":4602,"Name":"Jihomoravský kraj","country_id":58,"country_code":"CZ","country_name":"Czech Republic","state_code":"64","type":null,"latitude":"48.95445280","longitude":"16.76768990"},{"id":4624,"Name":"Jindřichův Hradec","country_id":58,"country_code":"CZ","country_name":"Czech Republic","state_code":"313","type":null,"latitude":"49.14448230","longitude":"15.00613890"},{"id":4581,"Name":"Karlovarský kraj","country_id":58,"country_code":"CZ","country_name":"Czech Republic","state_code":"41","type":null,"latitude":"50.14350000","longitude":"12.75018990"},{"id":4604,"Name":"Karlovy Vary","country_id":58,"country_code":"CZ","country_name":"Czech Republic","state_code":"412","type":null,"latitude":"50.14350000","longitude":"12.75018990"},{"id":4586,"Name":"Karviná","country_id":58,"country_code":"CZ","country_name":"Czech Republic","state_code":"803","type":null,"latitude":"49.85665240","longitude":"18.54321860"},{"id":4631,"Name":"Kladno","country_id":58,"country_code":"CZ","country_name":"Czech Republic","state_code":"203","type":null,"latitude":"50.19402580","longitude":"14.10436570"},{"id":4591,"Name":"Klatovy","country_id":58,"country_code":"CZ","country_name":"Czech Republic","state_code":"322","type":null,"latitude":"49.39555490","longitude":"13.29509370"},{"id":4618,"Name":"Kolín","country_id":58,"country_code":"CZ","country_name":"Czech Republic","state_code":"204","type":null,"latitude":"49.98832930","longitude":"15.05519770"},{"id":4575,"Name":"Kraj Vysočina","country_id":58,"country_code":"CZ","country_name":"Czech Republic","state_code":"63","type":null,"latitude":"49.44900520","longitude":"15.64059340"},{"id":4614,"Name":"Královéhradecký kraj","country_id":58,"country_code":"CZ","country_name":"Czech Republic","state_code":"52","type":null,"latitude":"50.35124840","longitude":"15.79764590"},{"id":4593,"Name":"Kroměříž","country_id":58,"country_code":"CZ","country_name":"Czech Republic","state_code":"721","type":null,"latitude":"49.29165820","longitude":"17.39938000"},{"id":4923,"Name":"Kutná Hora","country_id":58,"country_code":"CZ","country_name":"Czech Republic","state_code":"205","type":null,"latitude":"49.94920890","longitude":"15.24704400"},{"id":4590,"Name":"Liberec","country_id":58,"country_code":"CZ","country_name":"Czech Republic","state_code":"513","type":null,"latitude":"50.75641010","longitude":"14.99650410"},{"id":4601,"Name":"Liberecký kraj","country_id":58,"country_code":"CZ","country_name":"Czech Republic","state_code":"51","type":null,"latitude":"50.65942400","longitude":"14.76324240"},{"id":4605,"Name":"Litoměřice","country_id":58,"country_code":"CZ","country_name":"Czech Republic","state_code":"423","type":null,"latitude":"50.53841970","longitude":"14.13054580"},{"id":4617,"Name":"Louny","country_id":58,"country_code":"CZ","country_name":"Czech Republic","state_code":"424","type":null,"latitude":"50.35398120","longitude":"13.80335510"},{"id":4638,"Name":"Mělník","country_id":58,"country_code":"CZ","country_name":"Czech Republic","state_code":"206","type":null,"latitude":"50.31044150","longitude":"14.51792230"},{"id":4643,"Name":"Mladá Boleslav","country_id":58,"country_code":"CZ","country_name":"Czech Republic","state_code":"207","type":null,"latitude":"50.42523170","longitude":"14.93624770"},{"id":4600,"Name":"Moravskoslezský kraj","country_id":58,"country_code":"CZ","country_name":"Czech Republic","state_code":"80","type":null,"latitude":"49.73053270","longitude":"18.23326370"},{"id":4629,"Name":"Most","country_id":58,"country_code":"CZ","country_name":"Czech Republic","state_code":"425","type":null,"latitude":"37.15540830","longitude":"-94.29488840"},{"id":4550,"Name":"Náchod","country_id":58,"country_code":"CZ","country_name":"Czech Republic","state_code":"523","type":null,"latitude":"50.41457220","longitude":"16.16563470"},{"id":4548,"Name":"Nový Jičín","country_id":58,"country_code":"CZ","country_name":"Czech Republic","state_code":"804","type":null,"latitude":"49.59432510","longitude":"18.01353560"},{"id":4582,"Name":"Nymburk","country_id":58,"country_code":"CZ","country_name":"Czech Republic","state_code":"208","type":null,"latitude":"50.18558160","longitude":"15.04366040"},{"id":4574,"Name":"Olomouc","country_id":58,"country_code":"CZ","country_name":"Czech Republic","state_code":"712","type":null,"latitude":"49.59377800","longitude":"17.25087870"},{"id":4589,"Name":"Olomoucký kraj","country_id":58,"country_code":"CZ","country_name":"Czech Republic","state_code":"71","type":null,"latitude":"49.65865490","longitude":"17.08114060"},{"id":4623,"Name":"Opava","country_id":58,"country_code":"CZ","country_name":"Czech Republic","state_code":"805","type":null,"latitude":"49.90837570","longitude":"17.91633800"},{"id":4584,"Name":"Ostrava-město","country_id":58,"country_code":"CZ","country_name":"Czech Republic","state_code":"806","type":null,"latitude":"49.82092260","longitude":"18.26252430"},{"id":4547,"Name":"Pardubice","country_id":58,"country_code":"CZ","country_name":"Czech Republic","state_code":"532","type":null,"latitude":"49.94444790","longitude":"16.28569160"},{"id":4588,"Name":"Pardubický kraj","country_id":58,"country_code":"CZ","country_name":"Czech Republic","state_code":"53","type":null,"latitude":"49.94444790","longitude":"16.28569160"},{"id":4645,"Name":"Pelhřimov","country_id":58,"country_code":"CZ","country_name":"Czech Republic","state_code":"633","type":null,"latitude":"49.43062070","longitude":"15.22298300"},{"id":4560,"Name":"Písek","country_id":58,"country_code":"CZ","country_name":"Czech Republic","state_code":"314","type":null,"latitude":"49.34199380","longitude":"14.24697600"},{"id":4608,"Name":"Plzeň-jih","country_id":58,"country_code":"CZ","country_name":"Czech Republic","state_code":"324","type":null,"latitude":"49.59048850","longitude":"13.57158610"},{"id":4544,"Name":"Plzeň-město","country_id":58,"country_code":"CZ","country_name":"Czech Republic","state_code":"323","type":null,"latitude":"49.73843140","longitude":"13.37363710"},{"id":4564,"Name":"Plzeň-sever","country_id":58,"country_code":"CZ","country_name":"Czech Republic","state_code":"325","type":null,"latitude":"49.87748930","longitude":"13.25374280"},{"id":4607,"Name":"Plzeňský kraj","country_id":58,"country_code":"CZ","country_name":"Czech Republic","state_code":"32","type":null,"latitude":"49.41348120","longitude":"13.31572460"},{"id":4578,"Name":"Prachatice","country_id":58,"country_code":"CZ","country_name":"Czech Republic","state_code":"315","type":null,"latitude":"49.01091000","longitude":"14.00000050"},{"id":4606,"Name":"Praha-východ","country_id":58,"country_code":"CZ","country_name":"Czech Republic","state_code":"209","type":null,"latitude":"49.93893070","longitude":"14.79244720"},{"id":4619,"Name":"Praha-západ","country_id":58,"country_code":"CZ","country_name":"Czech Republic","state_code":"20A","type":null,"latitude":"49.89352350","longitude":"14.32937790"},{"id":4598,"Name":"Praha, Hlavní město","country_id":58,"country_code":"CZ","country_name":"Czech Republic","state_code":"10","type":null,"latitude":"50.07553810","longitude":"14.43780050"},{"id":4626,"Name":"Přerov","country_id":58,"country_code":"CZ","country_name":"Czech Republic","state_code":"714","type":null,"latitude":"49.46713560","longitude":"17.50773320"},{"id":4546,"Name":"Příbram","country_id":58,"country_code":"CZ","country_name":"Czech Republic","state_code":"20B","type":null,"latitude":"49.69479590","longitude":"14.08238100"},{"id":4551,"Name":"Prostějov","country_id":58,"country_code":"CZ","country_name":"Czech Republic","state_code":"713","type":null,"latitude":"49.44184010","longitude":"17.12779040"},{"id":4558,"Name":"Rakovník","country_id":58,"country_code":"CZ","country_name":"Czech Republic","state_code":"20C","type":null,"latitude":"50.10612300","longitude":"13.73966230"},{"id":4583,"Name":"Rokycany","country_id":58,"country_code":"CZ","country_name":"Czech Republic","state_code":"326","type":null,"latitude":"49.82628270","longitude":"13.68749430"},{"id":4636,"Name":"Rychnov nad Kněžnou","country_id":58,"country_code":"CZ","country_name":"Czech Republic","state_code":"524","type":null,"latitude":"50.16596510","longitude":"16.27768420"},{"id":4596,"Name":"Semily","country_id":58,"country_code":"CZ","country_name":"Czech Republic","state_code":"514","type":null,"latitude":"50.60515760","longitude":"15.32814090"},{"id":4595,"Name":"Sokolov","country_id":58,"country_code":"CZ","country_name":"Czech Republic","state_code":"413","type":null,"latitude":"50.20134340","longitude":"12.60546360"},{"id":4628,"Name":"Strakonice","country_id":58,"country_code":"CZ","country_name":"Czech Republic","state_code":"316","type":null,"latitude":"49.26040430","longitude":"13.91030850"},{"id":4554,"Name":"Středočeský kraj","country_id":58,"country_code":"CZ","country_name":"Czech Republic","state_code":"20","type":null,"latitude":"49.87822230","longitude":"14.93629550"},{"id":4642,"Name":"Šumperk","country_id":58,"country_code":"CZ","country_name":"Czech Republic","state_code":"715","type":null,"latitude":"49.97784070","longitude":"16.97177540"},{"id":4571,"Name":"Svitavy","country_id":58,"country_code":"CZ","country_name":"Czech Republic","state_code":"533","type":null,"latitude":"49.75516290","longitude":"16.46918610"},{"id":4565,"Name":"Tábor","country_id":58,"country_code":"CZ","country_name":"Czech Republic","state_code":"317","type":null,"latitude":"49.36462930","longitude":"14.71912930"},{"id":4646,"Name":"Tachov","country_id":58,"country_code":"CZ","country_name":"Czech Republic","state_code":"327","type":null,"latitude":"49.79878030","longitude":"12.63619210"},{"id":4621,"Name":"Teplice","country_id":58,"country_code":"CZ","country_name":"Czech Republic","state_code":"426","type":null,"latitude":"50.65846050","longitude":"13.75132270"},{"id":4597,"Name":"Třebíč","country_id":58,"country_code":"CZ","country_name":"Czech Republic","state_code":"634","type":null,"latitude":"49.21478690","longitude":"15.87955160"},{"id":4579,"Name":"Trutnov","country_id":58,"country_code":"CZ","country_name":"Czech Republic","state_code":"525","type":null,"latitude":"50.56538380","longitude":"15.90909230"},{"id":4592,"Name":"Uherské Hradiště","country_id":58,"country_code":"CZ","country_name":"Czech Republic","state_code":"722","type":null,"latitude":"49.05979690","longitude":"17.49585010"},{"id":4576,"Name":"Ústecký kraj","country_id":58,"country_code":"CZ","country_name":"Czech Republic","state_code":"42","type":null,"latitude":"50.61190370","longitude":"13.78700860"},{"id":4599,"Name":"Ústí nad Labem","country_id":58,"country_code":"CZ","country_name":"Czech Republic","state_code":"427","type":null,"latitude":"50.61190370","longitude":"13.78700860"},{"id":4647,"Name":"Ústí nad Orlicí","country_id":58,"country_code":"CZ","country_name":"Czech Republic","state_code":"534","type":null,"latitude":"49.97218010","longitude":"16.39966170"},{"id":4572,"Name":"Vsetín","country_id":58,"country_code":"CZ","country_name":"Czech Republic","state_code":"723","type":null,"latitude":"49.37932500","longitude":"18.06181620"},{"id":4622,"Name":"Vyškov","country_id":58,"country_code":"CZ","country_name":"Czech Republic","state_code":"646","type":null,"latitude":"49.21274450","longitude":"16.98559270"},{"id":4648,"Name":"Žďár nad Sázavou","country_id":58,"country_code":"CZ","country_name":"Czech Republic","state_code":"635","type":null,"latitude":"49.56430120","longitude":"15.93910300"},{"id":4563,"Name":"Zlín","country_id":58,"country_code":"CZ","country_name":"Czech Republic","state_code":"724","type":null,"latitude":"49.16960520","longitude":"17.80252200"},{"id":4552,"Name":"Zlínský kraj","country_id":58,"country_code":"CZ","country_name":"Czech Republic","state_code":"72","type":null,"latitude":"49.21622960","longitude":"17.77203530"},{"id":4630,"Name":"Znojmo","country_id":58,"country_code":"CZ","country_name":"Czech Republic","state_code":"647","type":null,"latitude":"48.92723270","longitude":"16.10378080"}]