[{"id":1509,"Name":"Åland Islands","country_id":74,"country_code":"FI","country_name":"Finland","state_code":"01","type":null,"latitude":"60.17852470","longitude":"19.91561050"},{"id":1511,"Name":"Central Finland","country_id":74,"country_code":"FI","country_name":"Finland","state_code":"08","type":null,"latitude":"62.56667430","longitude":"25.55494450"},{"id":1494,"Name":"Central Ostrobothnia","country_id":74,"country_code":"FI","country_name":"Finland","state_code":"07","type":null,"latitude":"63.56217350","longitude":"24.00136310"},{"id":1492,"Name":"Eastern Finland Province","country_id":74,"country_code":"FI","country_name":"Finland","state_code":"IS","type":null,"latitude":"62.56338910","longitude":"28.50240420"},{"id":1507,"Name":"Finland Proper","country_id":74,"country_code":"FI","country_name":"Finland","state_code":"19","type":null,"latitude":"60.36279140","longitude":"22.44393690"},{"id":1496,"Name":"Kainuu","country_id":74,"country_code":"FI","country_name":"Finland","state_code":"05","type":null,"latitude":"64.37365640","longitude":"28.74374750"},{"id":1512,"Name":"Kymenlaakso","country_id":74,"country_code":"FI","country_name":"Finland","state_code":"09","type":null,"latitude":"60.78051200","longitude":"26.88293360"},{"id":1500,"Name":"Lapland","country_id":74,"country_code":"FI","country_name":"Finland","state_code":"LL","type":null,"latitude":"67.92223040","longitude":"26.50464380"},{"id":1504,"Name":"North Karelia","country_id":74,"country_code":"FI","country_name":"Finland","state_code":"13","type":null,"latitude":"62.80620780","longitude":"30.15538870"},{"id":1505,"Name":"Northern Ostrobothnia","country_id":74,"country_code":"FI","country_name":"Finland","state_code":"14","type":null,"latitude":"65.27949300","longitude":"26.28904170"},{"id":1503,"Name":"Northern Savonia","country_id":74,"country_code":"FI","country_name":"Finland","state_code":"15","type":null,"latitude":"63.08448000","longitude":"27.02535040"},{"id":1508,"Name":"Ostrobothnia","country_id":74,"country_code":"FI","country_name":"Finland","state_code":"12","type":null,"latitude":"63.11817570","longitude":"21.90610620"},{"id":1499,"Name":"Oulu Province","country_id":74,"country_code":"FI","country_name":"Finland","state_code":"OL","type":null,"latitude":"65.01207480","longitude":"25.46504960"},{"id":1502,"Name":"Päijänne Tavastia","country_id":74,"country_code":"FI","country_name":"Finland","state_code":"16","type":null,"latitude":"61.32300410","longitude":"25.73224960"},{"id":1506,"Name":"Pirkanmaa","country_id":74,"country_code":"FI","country_name":"Finland","state_code":"11","type":null,"latitude":"61.69869180","longitude":"23.78955980"},{"id":1501,"Name":"Satakunta","country_id":74,"country_code":"FI","country_name":"Finland","state_code":"17","type":null,"latitude":"61.59327580","longitude":"22.14830810"},{"id":1497,"Name":"South Karelia","country_id":74,"country_code":"FI","country_name":"Finland","state_code":"02","type":null,"latitude":"61.11819490","longitude":"28.10243720"},{"id":1498,"Name":"Southern Ostrobothnia","country_id":74,"country_code":"FI","country_name":"Finland","state_code":"03","type":null,"latitude":"62.94330990","longitude":"23.52852670"},{"id":1495,"Name":"Southern Savonia","country_id":74,"country_code":"FI","country_name":"Finland","state_code":"04","type":null,"latitude":"61.69451480","longitude":"27.80050150"},{"id":1493,"Name":"Tavastia Proper","country_id":74,"country_code":"FI","country_name":"Finland","state_code":"06","type":null,"latitude":"60.90701500","longitude":"24.30054980"},{"id":1510,"Name":"Uusimaa","country_id":74,"country_code":"FI","country_name":"Finland","state_code":"18","type":null,"latitude":"60.21872000","longitude":"25.27162100"}]