[{"id":4889,"Name":"Central and Western District","country_id":98,"country_code":"HK","country_name":"Hong Kong S.A.R.","state_code":"HCW","type":null,"latitude":"22.28666000","longitude":"114.15497000"},{"id":4891,"Name":"Eastern","country_id":98,"country_code":"HK","country_name":"Hong Kong S.A.R.","state_code":"HEA","type":null,"latitude":"22.28411000","longitude":"114.22414000"},{"id":4888,"Name":"Islands District","country_id":98,"country_code":"HK","country_name":"Hong Kong S.A.R.","state_code":"NIS","type":null,"latitude":"22.26114000","longitude":"113.94608000"},{"id":4895,"Name":"Kowloon City","country_id":98,"country_code":"HK","country_name":"Hong Kong S.A.R.","state_code":"KKC","type":null,"latitude":"22.32820000","longitude":"114.19155000"},{"id":4898,"Name":"Kwai Tsing","country_id":98,"country_code":"HK","country_name":"Hong Kong S.A.R.","state_code":"NKT","type":null,"latitude":"22.35488000","longitude":"114.08401000"},{"id":4897,"Name":"Kwun Tong","country_id":98,"country_code":"HK","country_name":"Hong Kong S.A.R.","state_code":"KKT","type":null,"latitude":"22.31326000","longitude":"114.22581000"},{"id":4900,"Name":"North","country_id":98,"country_code":"HK","country_name":"Hong Kong S.A.R.","state_code":"NNO","type":null,"latitude":"22.49471000","longitude":"114.13812000"},{"id":4887,"Name":"Sai Kung District","country_id":98,"country_code":"HK","country_name":"Hong Kong S.A.R.","state_code":"NSK","type":null,"latitude":"22.38143000","longitude":"114.27052000"},{"id":4901,"Name":"Sha Tin","country_id":98,"country_code":"HK","country_name":"Hong Kong S.A.R.","state_code":"NST","type":null,"latitude":"22.38715000","longitude":"114.19534000"},{"id":4894,"Name":"Sham Shui Po","country_id":98,"country_code":"HK","country_name":"Hong Kong S.A.R.","state_code":"KSS","type":null,"latitude":"22.33074000","longitude":"114.16220000"},{"id":4892,"Name":"Southern","country_id":98,"country_code":"HK","country_name":"Hong Kong S.A.R.","state_code":"HSO","type":null,"latitude":"22.24725000","longitude":"114.15884000"},{"id":4885,"Name":"Tai Po District","country_id":98,"country_code":"KH","country_name":"Hong Kong S.A.R.","state_code":"NTP","type":null,"latitude":"22.45085000","longitude":"114.16422000"},{"id":4884,"Name":"Tsuen Wan District","country_id":98,"country_code":"HK","country_name":"Hong Kong S.A.R.","state_code":"NTW","type":null,"latitude":"22.36281000","longitude":"114.12907000"},{"id":4899,"Name":"Tuen Mun","country_id":98,"country_code":"HK","country_name":"Hong Kong S.A.R.","state_code":"NTM","type":null,"latitude":"22.39163000","longitude":"113.97708850"},{"id":4890,"Name":"Wan Chai","country_id":98,"country_code":"HK","country_name":"Hong Kong S.A.R.","state_code":"HWC","type":null,"latitude":"22.27968000","longitude":"114.17168000"},{"id":4896,"Name":"Wong Tai Sin","country_id":98,"country_code":"HK","country_name":"Hong Kong S.A.R.","state_code":"KWT","type":null,"latitude":"22.33353000","longitude":"114.19686000"},{"id":4893,"Name":"Yau Tsim Mong","country_id":98,"country_code":"HK","country_name":"Hong Kong S.A.R.","state_code":"KYT","type":null,"latitude":"22.32138000","longitude":"114.17260000"},{"id":4883,"Name":"Yuen Long District","country_id":98,"country_code":"HK","country_name":"Hong Kong S.A.R.","state_code":"NYL","type":null,"latitude":"22.44559000","longitude":"114.02218000"}]