[{"id":1048,"Name":"Bács-Kiskun County","country_id":99,"country_code":"HU","country_name":"Hungary","state_code":"BK","type":null,"latitude":"46.56614370","longitude":"19.42724640"},{"id":1055,"Name":"Baranya County","country_id":99,"country_code":"HU","country_name":"Hungary","state_code":"BA","type":null,"latitude":"46.04845850","longitude":"18.27191730"},{"id":1060,"Name":"Békés County","country_id":99,"country_code":"HU","country_name":"Hungary","state_code":"BE","type":null,"latitude":"46.67048990","longitude":"21.04349960"},{"id":1036,"Name":"Békéscsaba","country_id":99,"country_code":"HU","country_name":"Hungary","state_code":"BC","type":null,"latitude":"46.67359390","longitude":"21.08773090"},{"id":1058,"Name":"Borsod-Abaúj-Zemplén County","country_id":99,"country_code":"HU","country_name":"Hungary","state_code":"BZ","type":null,"latitude":"48.29394010","longitude":"20.69341120"},{"id":1064,"Name":"Budapest","country_id":99,"country_code":"HU","country_name":"Hungary","state_code":"BU","type":null,"latitude":"47.49791200","longitude":"19.04023500"},{"id":1031,"Name":"Csongrád County","country_id":99,"country_code":"HU","country_name":"Hungary","state_code":"CS","type":null,"latitude":"46.41670500","longitude":"20.25661610"},{"id":1032,"Name":"Debrecen","country_id":99,"country_code":"HU","country_name":"Hungary","state_code":"DE","type":null,"latitude":"47.53160490","longitude":"21.62731240"},{"id":1049,"Name":"Dunaújváros","country_id":99,"country_code":"HU","country_name":"Hungary","state_code":"DU","type":null,"latitude":"46.96190590","longitude":"18.93552270"},{"id":1037,"Name":"Eger","country_id":99,"country_code":"HU","country_name":"Hungary","state_code":"EG","type":null,"latitude":"47.90253480","longitude":"20.37722840"},{"id":1028,"Name":"Érd","country_id":99,"country_code":"HU","country_name":"Hungary","state_code":"ER","type":null,"latitude":"47.39197180","longitude":"18.90454400"},{"id":1044,"Name":"Fejér County","country_id":99,"country_code":"HU","country_name":"Hungary","state_code":"FE","type":null,"latitude":"47.12179320","longitude":"18.52948150"},{"id":1041,"Name":"Győr","country_id":99,"country_code":"HU","country_name":"Hungary","state_code":"GY","type":null,"latitude":"47.68745690","longitude":"17.65039740"},{"id":1042,"Name":"Győr-Moson-Sopron County","country_id":99,"country_code":"HU","country_name":"Hungary","state_code":"GS","type":null,"latitude":"47.65092850","longitude":"17.25058830"},{"id":1063,"Name":"Hajdú-Bihar County","country_id":99,"country_code":"HU","country_name":"Hungary","state_code":"HB","type":null,"latitude":"47.46883550","longitude":"21.54532270"},{"id":1040,"Name":"Heves County","country_id":99,"country_code":"HU","country_name":"Hungary","state_code":"HE","type":null,"latitude":"47.80576170","longitude":"20.20385590"},{"id":1027,"Name":"Hódmezővásárhely","country_id":99,"country_code":"HU","country_name":"Hungary","state_code":"HV","type":null,"latitude":"46.41812620","longitude":"20.33003150"},{"id":1043,"Name":"Jász-Nagykun-Szolnok County","country_id":99,"country_code":"HU","country_name":"Hungary","state_code":"JN","type":null,"latitude":"47.25555790","longitude":"20.52324560"},{"id":1067,"Name":"Kaposvár","country_id":99,"country_code":"HU","country_name":"Hungary","state_code":"KV","type":null,"latitude":"46.35936060","longitude":"17.79676390"},{"id":1056,"Name":"Kecskemét","country_id":99,"country_code":"HU","country_name":"Hungary","state_code":"KM","type":null,"latitude":"46.89637110","longitude":"19.68968610"},{"id":1065,"Name":"Miskolc","country_id":99,"country_code":"HU","country_name":"Hungary","state_code":"MI","type":null,"latitude":"48.10347750","longitude":"20.77843840"},{"id":1030,"Name":"Nagykanizsa","country_id":99,"country_code":"HU","country_name":"Hungary","state_code":"NK","type":null,"latitude":"46.45902180","longitude":"16.98967960"},{"id":1051,"Name":"Nógrád County","country_id":99,"country_code":"HU","country_name":"Hungary","state_code":"NO","type":null,"latitude":"47.90410310","longitude":"19.04985040"},{"id":1034,"Name":"Nyíregyháza","country_id":99,"country_code":"HU","country_name":"Hungary","state_code":"NY","type":null,"latitude":"47.94953240","longitude":"21.72440530"},{"id":1053,"Name":"Pécs","country_id":99,"country_code":"HU","country_name":"Hungary","state_code":"PS","type":null,"latitude":"46.07273450","longitude":"18.23226600"},{"id":1059,"Name":"Pest County","country_id":99,"country_code":"HU","country_name":"Hungary","state_code":"PE","type":null,"latitude":"47.44800010","longitude":"19.46181280"},{"id":1068,"Name":"Salgótarján","country_id":99,"country_code":"HU","country_name":"Hungary","state_code":"ST","type":null,"latitude":"48.09352370","longitude":"19.79998130"},{"id":1035,"Name":"Somogy County","country_id":99,"country_code":"HU","country_name":"Hungary","state_code":"SO","type":null,"latitude":"46.55485900","longitude":"17.58667320"},{"id":1057,"Name":"Sopron","country_id":99,"country_code":"HU","country_name":"Hungary","state_code":"SN","type":null,"latitude":"47.68166190","longitude":"16.58447950"},{"id":1045,"Name":"Szabolcs-Szatmár-Bereg County","country_id":99,"country_code":"HU","country_name":"Hungary","state_code":"SZ","type":null,"latitude":"48.03949540","longitude":"22.00333000"},{"id":1029,"Name":"Szeged","country_id":99,"country_code":"HU","country_name":"Hungary","state_code":"SD","type":null,"latitude":"46.25301020","longitude":"20.14142530"},{"id":1033,"Name":"Székesfehérvár","country_id":99,"country_code":"HU","country_name":"Hungary","state_code":"SF","type":null,"latitude":"47.18602620","longitude":"18.42213580"},{"id":1061,"Name":"Szekszárd","country_id":99,"country_code":"HU","country_name":"Hungary","state_code":"SS","type":null,"latitude":"46.34743260","longitude":"18.70622930"},{"id":1047,"Name":"Szolnok","country_id":99,"country_code":"HU","country_name":"Hungary","state_code":"SK","type":null,"latitude":"47.16213550","longitude":"20.18247120"},{"id":1052,"Name":"Szombathely","country_id":99,"country_code":"HU","country_name":"Hungary","state_code":"SH","type":null,"latitude":"47.23068510","longitude":"16.62184410"},{"id":1066,"Name":"Tatabánya","country_id":99,"country_code":"HU","country_name":"Hungary","state_code":"TB","type":null,"latitude":"47.56924600","longitude":"18.40481800"},{"id":1038,"Name":"Tolna County","country_id":99,"country_code":"HU","country_name":"Hungary","state_code":"TO","type":null,"latitude":"46.47627540","longitude":"18.55706270"},{"id":1039,"Name":"Vas County","country_id":99,"country_code":"HU","country_name":"Hungary","state_code":"VA","type":null,"latitude":"47.09291110","longitude":"16.68121830"},{"id":1062,"Name":"Veszprém","country_id":99,"country_code":"HU","country_name":"Hungary","state_code":"VM","type":null,"latitude":"47.10280870","longitude":"17.90930190"},{"id":1054,"Name":"Veszprém County","country_id":99,"country_code":"HU","country_name":"Hungary","state_code":"VE","type":null,"latitude":"47.09309740","longitude":"17.91007630"},{"id":1046,"Name":"Zala County","country_id":99,"country_code":"HU","country_name":"Hungary","state_code":"ZA","type":null,"latitude":"46.73844040","longitude":"16.91522520"},{"id":1050,"Name":"Zalaegerszeg","country_id":99,"country_code":"HU","country_name":"Hungary","state_code":"ZE","type":null,"latitude":"46.84169360","longitude":"16.84163220"}]