[{"id":1822,"Name":"Aceh","country_id":102,"country_code":"ID","country_name":"Indonesia","state_code":"AC","type":null,"latitude":"4.69513500","longitude":"96.74939930"},{"id":1826,"Name":"Bali","country_id":102,"country_code":"ID","country_name":"Indonesia","state_code":"BA","type":null,"latitude":"-8.34053890","longitude":"115.09195090"},{"id":1810,"Name":"Banten","country_id":102,"country_code":"ID","country_name":"Indonesia","state_code":"BT","type":null,"latitude":"-6.40581720","longitude":"106.06401790"},{"id":1793,"Name":"Bengkulu","country_id":102,"country_code":"ID","country_name":"Indonesia","state_code":"BE","type":null,"latitude":"-3.79284510","longitude":"102.26076410"},{"id":1829,"Name":"DI Yogyakarta","country_id":102,"country_code":"ID","country_name":"Indonesia","state_code":"YO","type":null,"latitude":"-7.87538490","longitude":"110.42620880"},{"id":1805,"Name":"DKI Jakarta","country_id":102,"country_code":"ID","country_name":"Indonesia","state_code":"JK","type":null,"latitude":"-6.20876340","longitude":"106.84559900"},{"id":1812,"Name":"Gorontalo","country_id":102,"country_code":"ID","country_name":"Indonesia","state_code":"GO","type":null,"latitude":"0.54354420","longitude":"123.05676930"},{"id":1815,"Name":"Jambi","country_id":102,"country_code":"ID","country_name":"Indonesia","state_code":"JA","type":null,"latitude":"-1.61012290","longitude":"103.61312030"},{"id":1825,"Name":"Jawa Barat","country_id":102,"country_code":"ID","country_name":"Indonesia","state_code":"JB","type":null,"latitude":"-7.09091100","longitude":"107.66888700"},{"id":1802,"Name":"Jawa Tengah","country_id":102,"country_code":"ID","country_name":"Indonesia","state_code":"JT","type":null,"latitude":"-7.15097500","longitude":"110.14025940"},{"id":1827,"Name":"Jawa Timur","country_id":102,"country_code":"ID","country_name":"Indonesia","state_code":"JI","type":null,"latitude":"-7.53606390","longitude":"112.23840170"},{"id":1806,"Name":"Kalimantan Barat","country_id":102,"country_code":"ID","country_name":"Indonesia","state_code":"KA","type":null,"latitude":"0.96188340","longitude":"114.55484950"},{"id":1819,"Name":"Kalimantan Selatan","country_id":102,"country_code":"ID","country_name":"Indonesia","state_code":"KS","type":null,"latitude":"-3.09264150","longitude":"115.28375850"},{"id":1794,"Name":"Kalimantan Tengah","country_id":102,"country_code":"ID","country_name":"Indonesia","state_code":"KT","type":null,"latitude":"-1.68148780","longitude":"113.38235450"},{"id":1804,"Name":"Kalimantan Timur","country_id":102,"country_code":"ID","country_name":"Indonesia","state_code":"KI","type":null,"latitude":"0.53865860","longitude":"116.41938900"},{"id":1824,"Name":"Kalimantan Utara","country_id":102,"country_code":"ID","country_name":"Indonesia","state_code":"KU","type":null,"latitude":"3.07309290","longitude":"116.04138890"},{"id":1820,"Name":"Kepulauan Bangka Belitung","country_id":102,"country_code":"ID","country_name":"Indonesia","state_code":"BB","type":null,"latitude":"-2.74105130","longitude":"106.44058720"},{"id":1807,"Name":"Kepulauan Riau","country_id":102,"country_code":"ID","country_name":"Indonesia","state_code":"KR","type":null,"latitude":"3.94565140","longitude":"108.14286690"},{"id":1811,"Name":"Lampung","country_id":102,"country_code":"ID","country_name":"Indonesia","state_code":"LA","type":null,"latitude":"-4.55858490","longitude":"105.40680790"},{"id":1800,"Name":"Maluku","country_id":102,"country_code":"ID","country_name":"Indonesia","state_code":"MA","type":null,"latitude":"-3.23846160","longitude":"130.14527340"},{"id":1801,"Name":"Maluku Utara","country_id":102,"country_code":"ID","country_name":"Indonesia","state_code":"MU","type":null,"latitude":"1.57099930","longitude":"127.80876930"},{"id":1814,"Name":"Nusa Tenggara Barat","country_id":102,"country_code":"ID","country_name":"Indonesia","state_code":"NB","type":null,"latitude":"-8.65293340","longitude":"117.36164760"},{"id":1818,"Name":"Nusa Tenggara Timur","country_id":102,"country_code":"ID","country_name":"Indonesia","state_code":"NT","type":null,"latitude":"-8.65738190","longitude":"121.07937050"},{"id":1798,"Name":"Papua","country_id":102,"country_code":"ID","country_name":"Indonesia","state_code":"PA","type":null,"latitude":"-5.01222020","longitude":"141.34701590"},{"id":1799,"Name":"Papua Barat","country_id":102,"country_code":"ID","country_name":"Indonesia","state_code":"PB","type":null,"latitude":"-1.33611540","longitude":"133.17471620"},{"id":1809,"Name":"Riau","country_id":102,"country_code":"ID","country_name":"Indonesia","state_code":"RI","type":null,"latitude":"0.29334690","longitude":"101.70682940"},{"id":1817,"Name":"Sulawesi Barat","country_id":102,"country_code":"ID","country_name":"Indonesia","state_code":"SR","type":null,"latitude":"-2.84413710","longitude":"119.23207840"},{"id":1795,"Name":"Sulawesi Selatan","country_id":102,"country_code":"ID","country_name":"Indonesia","state_code":"SN","type":null,"latitude":"-3.66879940","longitude":"119.97405340"},{"id":1813,"Name":"Sulawesi Tengah","country_id":102,"country_code":"ID","country_name":"Indonesia","state_code":"ST","type":null,"latitude":"-1.43002540","longitude":"121.44561790"},{"id":1796,"Name":"Sulawesi Tenggara","country_id":102,"country_code":"ID","country_name":"Indonesia","state_code":"SG","type":null,"latitude":"-4.14491000","longitude":"122.17460500"},{"id":1808,"Name":"Sulawesi Utara","country_id":102,"country_code":"ID","country_name":"Indonesia","state_code":"SA","type":null,"latitude":"0.62469320","longitude":"123.97500180"},{"id":1828,"Name":"Sumatera Barat","country_id":102,"country_code":"ID","country_name":"Indonesia","state_code":"SB","type":null,"latitude":"-0.73993970","longitude":"100.80000510"},{"id":1816,"Name":"Sumatera Selatan","country_id":102,"country_code":"ID","country_name":"Indonesia","state_code":"SS","type":null,"latitude":"-3.31943740","longitude":"103.91439900"},{"id":1792,"Name":"Sumatera Utara","country_id":102,"country_code":"ID","country_name":"Indonesia","state_code":"SU","type":null,"latitude":"2.11535470","longitude":"99.54509740"}]