[{"id":827,"Name":"Aichi Prefecture","country_id":109,"country_code":"JP","country_name":"Japan","state_code":"23","type":null,"latitude":"35.01825050","longitude":"137.29238930"},{"id":829,"Name":"Akita Prefecture","country_id":109,"country_code":"JP","country_name":"Japan","state_code":"05","type":null,"latitude":"40.13762930","longitude":"140.33434100"},{"id":839,"Name":"Aomori Prefecture","country_id":109,"country_code":"JP","country_name":"Japan","state_code":"02","type":null,"latitude":"40.76570770","longitude":"140.91758790"},{"id":821,"Name":"Chiba Prefecture","country_id":109,"country_code":"JP","country_name":"Japan","state_code":"12","type":null,"latitude":"35.33541550","longitude":"140.18325160"},{"id":865,"Name":"Ehime Prefecture","country_id":109,"country_code":"JP","country_name":"Japan","state_code":"38","type":null,"latitude":"33.60253060","longitude":"132.78575830"},{"id":848,"Name":"Fukui Prefecture","country_id":109,"country_code":"JP","country_name":"Japan","state_code":"18","type":null,"latitude":"35.89622700","longitude":"136.21115790"},{"id":861,"Name":"Fukuoka Prefecture","country_id":109,"country_code":"JP","country_name":"Japan","state_code":"40","type":null,"latitude":"33.56625590","longitude":"130.71585700"},{"id":847,"Name":"Fukushima Prefecture","country_id":109,"country_code":"JP","country_name":"Japan","state_code":"07","type":null,"latitude":"37.38343730","longitude":"140.18325160"},{"id":858,"Name":"Gifu Prefecture","country_id":109,"country_code":"JP","country_name":"Japan","state_code":"21","type":null,"latitude":"35.74374910","longitude":"136.98051030"},{"id":862,"Name":"Gunma Prefecture","country_id":109,"country_code":"JP","country_name":"Japan","state_code":"10","type":null,"latitude":"36.56053880","longitude":"138.87999720"},{"id":828,"Name":"Hiroshima Prefecture","country_id":109,"country_code":"JP","country_name":"Japan","state_code":"34","type":null,"latitude":"34.88234080","longitude":"133.01948970"},{"id":832,"Name":"Hokkaidō Prefecture","country_id":109,"country_code":"JP","country_name":"Japan","state_code":"01","type":null,"latitude":"43.22032660","longitude":"142.86347370"},{"id":831,"Name":"Hyōgo Prefecture","country_id":109,"country_code":"JP","country_name":"Japan","state_code":"28","type":null,"latitude":"34.85795180","longitude":"134.54537870"},{"id":851,"Name":"Ibaraki Prefecture","country_id":109,"country_code":"JP","country_name":"Japan","state_code":"08","type":null,"latitude":"36.21935710","longitude":"140.18325160"},{"id":830,"Name":"Ishikawa Prefecture","country_id":109,"country_code":"JP","country_name":"Japan","state_code":"17","type":null,"latitude":"36.32603170","longitude":"136.52896530"},{"id":856,"Name":"Iwate Prefecture","country_id":109,"country_code":"JP","country_name":"Japan","state_code":"03","type":null,"latitude":"39.58329890","longitude":"141.25345740"},{"id":864,"Name":"Kagawa Prefecture","country_id":109,"country_code":"JP","country_name":"Japan","state_code":"37","type":null,"latitude":"34.22259150","longitude":"134.01991520"},{"id":840,"Name":"Kagoshima Prefecture","country_id":109,"country_code":"JP","country_name":"Japan","state_code":"46","type":null,"latitude":"31.39119580","longitude":"130.87785860"},{"id":842,"Name":"Kanagawa Prefecture","country_id":109,"country_code":"JP","country_name":"Japan","state_code":"14","type":null,"latitude":"35.49135350","longitude":"139.28414300"},{"id":4924,"Name":"Kōchi Prefecture","country_id":109,"country_code":"JP","country_name":"Japan","state_code":"39","type":null,"latitude":"33.28791610","longitude":"132.27592620"},{"id":846,"Name":"Kumamoto Prefecture","country_id":109,"country_code":"JP","country_name":"Japan","state_code":"43","type":null,"latitude":"32.85944270","longitude":"130.79691490"},{"id":834,"Name":"Kyōto Prefecture","country_id":109,"country_code":"JP","country_name":"Japan","state_code":"26","type":null,"latitude":"35.15666090","longitude":"135.52519820"},{"id":833,"Name":"Mie Prefecture","country_id":109,"country_code":"JP","country_name":"Japan","state_code":"24","type":null,"latitude":"33.81439010","longitude":"136.04870470"},{"id":857,"Name":"Miyagi Prefecture","country_id":109,"country_code":"JP","country_name":"Japan","state_code":"04","type":null,"latitude":"38.63061200","longitude":"141.11930480"},{"id":855,"Name":"Miyazaki Prefecture","country_id":109,"country_code":"JP","country_name":"Japan","state_code":"45","type":null,"latitude":"32.60360220","longitude":"131.44125100"},{"id":843,"Name":"Nagano Prefecture","country_id":109,"country_code":"JP","country_name":"Japan","state_code":"20","type":null,"latitude":"36.15439410","longitude":"137.92182040"},{"id":849,"Name":"Nagasaki Prefecture","country_id":109,"country_code":"JP","country_name":"Japan","state_code":"42","type":null,"latitude":"33.24885250","longitude":"129.69309120"},{"id":824,"Name":"Nara Prefecture","country_id":109,"country_code":"JP","country_name":"Japan","state_code":"29","type":null,"latitude":"34.29755280","longitude":"135.82797340"},{"id":841,"Name":"Niigata Prefecture","country_id":109,"country_code":"JP","country_name":"Japan","state_code":"15","type":null,"latitude":"37.51783860","longitude":"138.92697940"},{"id":822,"Name":"Ōita Prefecture","country_id":109,"country_code":"JP","country_name":"Japan","state_code":"44","type":null,"latitude":"33.15892990","longitude":"131.36111210"},{"id":820,"Name":"Okayama Prefecture","country_id":109,"country_code":"JP","country_name":"Japan","state_code":"33","type":null,"latitude":"34.89634070","longitude":"133.63753140"},{"id":853,"Name":"Okinawa Prefecture","country_id":109,"country_code":"JP","country_name":"Japan","state_code":"47","type":null,"latitude":"26.12019110","longitude":"127.70250120"},{"id":859,"Name":"Ōsaka Prefecture","country_id":109,"country_code":"JP","country_name":"Japan","state_code":"27","type":null,"latitude":"34.64133150","longitude":"135.56293940"},{"id":863,"Name":"Saga Prefecture","country_id":109,"country_code":"JP","country_name":"Japan","state_code":"41","type":null,"latitude":"33.30783710","longitude":"130.22712430"},{"id":860,"Name":"Saitama Prefecture","country_id":109,"country_code":"JP","country_name":"Japan","state_code":"11","type":null,"latitude":"35.99625130","longitude":"139.44660050"},{"id":845,"Name":"Shiga Prefecture","country_id":109,"country_code":"JP","country_name":"Japan","state_code":"25","type":null,"latitude":"35.32920140","longitude":"136.05632120"},{"id":826,"Name":"Shimane Prefecture","country_id":109,"country_code":"JP","country_name":"Japan","state_code":"32","type":null,"latitude":"35.12440940","longitude":"132.62934460"},{"id":825,"Name":"Shizuoka Prefecture","country_id":109,"country_code":"JP","country_name":"Japan","state_code":"22","type":null,"latitude":"35.09293970","longitude":"138.31902760"},{"id":854,"Name":"Tochigi Prefecture","country_id":109,"country_code":"JP","country_name":"Japan","state_code":"09","type":null,"latitude":"36.67147390","longitude":"139.85472660"},{"id":836,"Name":"Tokushima Prefecture","country_id":109,"country_code":"JP","country_name":"Japan","state_code":"36","type":null,"latitude":"33.94196550","longitude":"134.32365570"},{"id":823,"Name":"Tokyo","country_id":109,"country_code":"JP","country_name":"Japan","state_code":"13","type":null,"latitude":"35.67619190","longitude":"139.65031060"},{"id":850,"Name":"Tottori Prefecture","country_id":109,"country_code":"JP","country_name":"Japan","state_code":"31","type":null,"latitude":"35.35731610","longitude":"133.40666180"},{"id":838,"Name":"Toyama Prefecture","country_id":109,"country_code":"JP","country_name":"Japan","state_code":"16","type":null,"latitude":"36.69582660","longitude":"137.21370710"},{"id":844,"Name":"Wakayama Prefecture","country_id":109,"country_code":"JP","country_name":"Japan","state_code":"30","type":null,"latitude":"33.94809140","longitude":"135.37453580"},{"id":837,"Name":"Yamagata Prefecture","country_id":109,"country_code":"JP","country_name":"Japan","state_code":"06","type":null,"latitude":"38.53705640","longitude":"140.14351980"},{"id":835,"Name":"Yamaguchi Prefecture","country_id":109,"country_code":"JP","country_name":"Japan","state_code":"35","type":null,"latitude":"34.27967690","longitude":"131.52127420"},{"id":852,"Name":"Yamanashi Prefecture","country_id":109,"country_code":"JP","country_name":"Japan","state_code":"19","type":null,"latitude":"35.66351130","longitude":"138.63888790"}]