[{"id":3030,"Name":"Berea District","country_id":122,"country_code":"LS","country_name":"Lesotho","state_code":"D","type":null,"latitude":"41.36616140","longitude":"-81.85430260"},{"id":3029,"Name":"Butha-Buthe District","country_id":122,"country_code":"LS","country_name":"Lesotho","state_code":"B","type":null,"latitude":"-28.76537540","longitude":"28.24681480"},{"id":3026,"Name":"Leribe District","country_id":122,"country_code":"LS","country_name":"Lesotho","state_code":"C","type":null,"latitude":"-28.86380650","longitude":"28.04788260"},{"id":3022,"Name":"Mafeteng District","country_id":122,"country_code":"LS","country_name":"Lesotho","state_code":"E","type":null,"latitude":"-29.80410080","longitude":"27.50261740"},{"id":3028,"Name":"Maseru District","country_id":122,"country_code":"LS","country_name":"Lesotho","state_code":"A","type":null,"latitude":"-29.51656500","longitude":"27.83114280"},{"id":3023,"Name":"Mohale's Hoek District","country_id":122,"country_code":"LS","country_name":"Lesotho","state_code":"F","type":null,"latitude":"-30.14259170","longitude":"27.46738450"},{"id":3024,"Name":"Mokhotlong District","country_id":122,"country_code":"LS","country_name":"Lesotho","state_code":"J","type":null,"latitude":"-29.25731930","longitude":"28.95286450"},{"id":3025,"Name":"Qacha's Nek District","country_id":122,"country_code":"LS","country_name":"Lesotho","state_code":"H","type":null,"latitude":"-30.11145650","longitude":"28.67897900"},{"id":3027,"Name":"Quthing District","country_id":122,"country_code":"LS","country_name":"Lesotho","state_code":"G","type":null,"latitude":"-30.40156870","longitude":"27.70801330"},{"id":3031,"Name":"Thaba-Tseka District","country_id":122,"country_code":"LS","country_name":"Lesotho","state_code":"K","type":null,"latitude":"-29.52389750","longitude":"28.60897520"}]