[{"id":4928,"Name":"Agadir-Ida-Ou-Tanane","country_id":149,"country_code":"MA","country_name":"Morocco","state_code":"AGD","type":null,"latitude":"30.64620910","longitude":"-9.83390610"},{"id":3320,"Name":"Al Haouz","country_id":149,"country_code":"MA","country_name":"Morocco","state_code":"HAO","type":null,"latitude":"31.29567290","longitude":"-7.87216000"},{"id":3267,"Name":"Al Hoceïma","country_id":149,"country_code":"MA","country_name":"Morocco","state_code":"HOC","type":null,"latitude":"35.24455890","longitude":"-3.93174680"},{"id":3266,"Name":"Aousserd (EH)","country_id":149,"country_code":"MA","country_name":"Morocco","state_code":"AOU","type":null,"latitude":"22.55215380","longitude":"-14.32973530"},{"id":3297,"Name":"Assa-Zag (EH-partial)","country_id":149,"country_code":"MA","country_name":"Morocco","state_code":"ASZ","type":null,"latitude":"28.14023950","longitude":"-9.72326730"},{"id":3321,"Name":"Azilal","country_id":149,"country_code":"MA","country_name":"Morocco","state_code":"AZI","type":null,"latitude":"32.00426200","longitude":"-6.57833870"},{"id":3272,"Name":"Béni Mellal","country_id":149,"country_code":"MA","country_name":"Morocco","state_code":"BEM","type":null,"latitude":"32.34244300","longitude":"-6.37579900"},{"id":3278,"Name":"Béni Mellal-Khénifra","country_id":149,"country_code":"MA","country_name":"Morocco","state_code":"05","type":null,"latitude":"32.57191840","longitude":"-6.06791940"},{"id":3304,"Name":"Benslimane","country_id":149,"country_code":"MA","country_name":"Morocco","state_code":"BES","type":null,"latitude":"33.61896980","longitude":"-7.13055360"},{"id":3285,"Name":"Berkane","country_id":149,"country_code":"MA","country_name":"Morocco","state_code":"BER","type":null,"latitude":"34.88408760","longitude":"-2.34188700"},{"id":4929,"Name":"Berrechid","country_id":149,"country_code":"MA","country_name":"Morocco","state_code":"BRR","type":null,"latitude":"33.26025230","longitude":"-7.59848370"},{"id":3275,"Name":"Boujdour (EH)","country_id":149,"country_code":"MA","country_name":"Morocco","state_code":"BOD","type":null,"latitude":"26.12524930","longitude":"-14.48473470"},{"id":3270,"Name":"Boulemane","country_id":149,"country_code":"MA","country_name":"Morocco","state_code":"BOM","type":null,"latitude":"33.36251590","longitude":"-4.73033970"},{"id":4930,"Name":"Casablanca","country_id":149,"country_code":"MA","country_name":"Morocco","state_code":"CAS","type":null,"latitude":"33.57226780","longitude":"-7.65703260"},{"id":3303,"Name":"Casablanca-Settat","country_id":149,"country_code":"MA","country_name":"Morocco","state_code":"06","type":null,"latitude":"33.21608720","longitude":"-7.43813550"},{"id":3310,"Name":"Chefchaouen","country_id":149,"country_code":"MA","country_name":"Morocco","state_code":"CHE","type":null,"latitude":"35.01817200","longitude":"-5.14320680"},{"id":3274,"Name":"Chichaoua","country_id":149,"country_code":"MA","country_name":"Morocco","state_code":"CHI","type":null,"latitude":"31.53835810","longitude":"-8.76463880"},{"id":3302,"Name":"Chtouka-Ait Baha","country_id":149,"country_code":"MA","country_name":"Morocco","state_code":"CHT","type":null,"latitude":"30.10724220","longitude":"-9.27855830"},{"id":3306,"Name":"Dakhla-Oued Ed-Dahab (EH)","country_id":149,"country_code":"MA","country_name":"Morocco","state_code":"12","type":null,"latitude":"22.73378920","longitude":"-14.28611160"},{"id":3290,"Name":"Drâa-Tafilalet","country_id":149,"country_code":"MA","country_name":"Morocco","state_code":"08","type":null,"latitude":"31.14995380","longitude":"-5.39395510"},{"id":4931,"Name":"Driouch","country_id":149,"country_code":"MA","country_name":"Morocco","state_code":"DRI","type":null,"latitude":"34.97603200","longitude":"-3.39644930"},{"id":3291,"Name":"El Hajeb","country_id":149,"country_code":"MA","country_name":"Morocco","state_code":"HAJ","type":null,"latitude":"33.68573500","longitude":"-5.36778440"},{"id":3280,"Name":"El Jadida","country_id":149,"country_code":"MA","country_name":"Morocco","state_code":"JDI","type":null,"latitude":"33.23163260","longitude":"-8.50071160"},{"id":3309,"Name":"El Kelâa des Sraghna","country_id":149,"country_code":"MA","country_name":"Morocco","state_code":"KES","type":null,"latitude":"32.05227670","longitude":"-7.35165580"},{"id":3299,"Name":"Errachidia","country_id":149,"country_code":"MA","country_name":"Morocco","state_code":"ERR","type":null,"latitude":"31.90512750","longitude":"-4.72775280"},{"id":3292,"Name":"Es-Semara (EH-partial)","country_id":149,"country_code":"MA","country_name":"Morocco","state_code":"ESM","type":null,"latitude":"26.74185600","longitude":"-11.67836710"},{"id":3316,"Name":"Essaouira","country_id":149,"country_code":"MA","country_name":"Morocco","state_code":"ESI","type":null,"latitude":"31.50849260","longitude":"-9.75950410"},{"id":3300,"Name":"Fahs-Anjra","country_id":149,"country_code":"MA","country_name":"Morocco","state_code":"FAH","type":null,"latitude":"35.76019920","longitude":"-5.66683060"},{"id":4932,"Name":"Fès","country_id":149,"country_code":"MA","country_name":"Morocco","state_code":"FES","type":null,"latitude":"34.02395790","longitude":"-5.03675990"},{"id":3313,"Name":"Fès-Meknès","country_id":149,"country_code":"MA","country_name":"Morocco","state_code":"03","type":null,"latitude":"34.06252900","longitude":"-4.72775280"},{"id":3301,"Name":"Figuig","country_id":149,"country_code":"MA","country_name":"Morocco","state_code":"FIG","type":null,"latitude":"32.10926130","longitude":"-1.22980600"},{"id":4933,"Name":"Fquih Ben Salah","country_id":149,"country_code":"MA","country_name":"Morocco","state_code":"FQH","type":null,"latitude":"32.50016800","longitude":"-6.71007170"},{"id":3265,"Name":"Guelmim","country_id":149,"country_code":"MA","country_name":"Morocco","state_code":"GUE","type":null,"latitude":"28.98836590","longitude":"-10.05274980"},{"id":3305,"Name":"Guelmim-Oued Noun (EH-partial)","country_id":149,"country_code":"MA","country_name":"Morocco","state_code":"10","type":null,"latitude":"28.48442810","longitude":"-10.08072980"},{"id":4934,"Name":"Guercif","country_id":149,"country_code":"MA","country_name":"Morocco","state_code":"GUF","type":null,"latitude":"34.23450360","longitude":"-3.38130050"},{"id":3325,"Name":"Ifrane","country_id":149,"country_code":"MA","country_name":"Morocco","state_code":"IFR","type":null,"latitude":"33.52280620","longitude":"-5.11095520"},{"id":3294,"Name":"Inezgane-Ait Melloul","country_id":149,"country_code":"MA","country_name":"Morocco","state_code":"INE","type":null,"latitude":"30.35090980","longitude":"-9.38951100"},{"id":3307,"Name":"Jerada","country_id":149,"country_code":"MA","country_name":"Morocco","state_code":"JRA","type":null,"latitude":"34.30617910","longitude":"-2.17941360"},{"id":3308,"Name":"Kénitra","country_id":149,"country_code":"MA","country_name":"Morocco","state_code":"KEN","type":null,"latitude":"34.25405030","longitude":"-6.58901660"},{"id":3276,"Name":"Khémisset","country_id":149,"country_code":"MA","country_name":"Morocco","state_code":"KHE","type":null,"latitude":"33.81537040","longitude":"-6.05733020"},{"id":3317,"Name":"Khénifra","country_id":149,"country_code":"MA","country_name":"Morocco","state_code":"KHN","type":null,"latitude":"32.93404710","longitude":"-5.66157100"},{"id":3326,"Name":"Khouribga","country_id":149,"country_code":"MA","country_name":"Morocco","state_code":"KHO","type":null,"latitude":"32.88602300","longitude":"-6.92086550"},{"id":3271,"Name":"L'Oriental","country_id":149,"country_code":"MA","country_name":"Morocco","state_code":"02","type":null,"latitude":"37.06968300","longitude":"-94.51227700"},{"id":3293,"Name":"Laâyoune (EH)","country_id":149,"country_code":"MA","country_name":"Morocco","state_code":"LAA","type":null,"latitude":"27.15003840","longitude":"-13.19907580"},{"id":3298,"Name":"Laâyoune-Sakia El Hamra (EH-partial)","country_id":149,"country_code":"MA","country_name":"Morocco","state_code":"11","type":null,"latitude":"27.86831940","longitude":"-11.98046130"},{"id":3268,"Name":"Larache","country_id":149,"country_code":"MA","country_name":"Morocco","state_code":"LAR","type":null,"latitude":"35.17442710","longitude":"-6.14739640"},{"id":4936,"Name":"M’diq-Fnideq","country_id":149,"country_code":"MA","country_name":"Morocco","state_code":"MDF","type":null,"latitude":"35.77330190","longitude":"-5.51433000"},{"id":4935,"Name":"Marrakech","country_id":149,"country_code":"MA","country_name":"Morocco","state_code":"MAR","type":null,"latitude":"31.63460230","longitude":"-8.07789320"},{"id":3288,"Name":"Marrakesh-Safi","country_id":149,"country_code":"MA","country_name":"Morocco","state_code":"07","type":null,"latitude":"31.73308330","longitude":"-8.13385580"},{"id":3284,"Name":"Médiouna","country_id":149,"country_code":"MA","country_name":"Morocco","state_code":"MED","type":null,"latitude":"33.45409390","longitude":"-7.51660200"},{"id":4937,"Name":"Meknès","country_id":149,"country_code":"MA","country_name":"Morocco","state_code":"MEK","type":null,"latitude":"33.88100000","longitude":"-5.57303970"},{"id":4938,"Name":"Midelt","country_id":149,"country_code":"MA","country_name":"Morocco","state_code":"MID","type":null,"latitude":"32.68550790","longitude":"-4.75017090"},{"id":4939,"Name":"Mohammadia","country_id":149,"country_code":"MA","country_name":"Morocco","state_code":"MOH","type":null,"latitude":"33.68737490","longitude":"-7.42391420"},{"id":3315,"Name":"Moulay Yacoub","country_id":149,"country_code":"MA","country_name":"Morocco","state_code":"MOU","type":null,"latitude":"34.08744790","longitude":"-5.17840190"},{"id":3281,"Name":"Nador","country_id":149,"country_code":"MA","country_name":"Morocco","state_code":"NAD","type":null,"latitude":"34.91719260","longitude":"-2.85771050"},{"id":3287,"Name":"Nouaceur","country_id":149,"country_code":"MA","country_name":"Morocco","state_code":"NOU","type":null,"latitude":"33.36703930","longitude":"-7.57325370"},{"id":3269,"Name":"Ouarzazate","country_id":149,"country_code":"MA","country_name":"Morocco","state_code":"OUA","type":null,"latitude":"30.93354360","longitude":"-6.93701600"},{"id":3319,"Name":"Oued Ed-Dahab (EH)","country_id":149,"country_code":"MA","country_name":"Morocco","state_code":"OUD","type":null,"latitude":"22.73378920","longitude":"-14.28611160"},{"id":4941,"Name":"Ouezzane","country_id":149,"country_code":"MA","country_name":"Morocco","state_code":"OUZ","type":null,"latitude":"34.80634500","longitude":"-5.59145050"},{"id":4940,"Name":"Oujda-Angad","country_id":149,"country_code":"MA","country_name":"Morocco","state_code":"OUJ","type":null,"latitude":"34.68375040","longitude":"-2.29932390"},{"id":4942,"Name":"Rabat","country_id":149,"country_code":"MA","country_name":"Morocco","state_code":"RAB","type":null,"latitude":"33.96919900","longitude":"-6.92730290"},{"id":4927,"Name":"Rabat-Salé-Kénitra","country_id":149,"country_code":"MA","country_name":"Morocco","state_code":"04","type":null,"latitude":"34.07686400","longitude":"-7.34544760"},{"id":4943,"Name":"Rehamna","country_id":149,"country_code":"MA","country_name":"Morocco","state_code":"REH","type":null,"latitude":"32.20329050","longitude":"-8.56896710"},{"id":3311,"Name":"Safi","country_id":149,"country_code":"MA","country_name":"Morocco","state_code":"SAF","type":null,"latitude":"32.29898720","longitude":"-9.10134980"},{"id":4944,"Name":"Salé","country_id":149,"country_code":"MA","country_name":"Morocco","state_code":"SAL","type":null,"latitude":"34.03775700","longitude":"-6.84270730"},{"id":3289,"Name":"Sefrou","country_id":149,"country_code":"MA","country_name":"Morocco","state_code":"SEF","type":null,"latitude":"33.83052440","longitude":"-4.83531540"},{"id":3282,"Name":"Settat","country_id":149,"country_code":"MA","country_name":"Morocco","state_code":"SET","type":null,"latitude":"32.99242420","longitude":"-7.62226650"},{"id":4945,"Name":"Sidi Bennour","country_id":149,"country_code":"MA","country_name":"Morocco","state_code":"SIB","type":null,"latitude":"32.64926020","longitude":"-8.44714530"},{"id":4946,"Name":"Sidi Ifni","country_id":149,"country_code":"MA","country_name":"Morocco","state_code":"SIF","type":null,"latitude":"29.36657970","longitude":"-10.21084850"},{"id":3279,"Name":"Sidi Kacem","country_id":149,"country_code":"MA","country_name":"Morocco","state_code":"SIK","type":null,"latitude":"34.22601720","longitude":"-5.71291640"},{"id":4952,"Name":"Sidi Slimane","country_id":149,"country_code":"MA","country_name":"Morocco","state_code":"SIL","type":null,"latitude":"34.27378280","longitude":"-5.98059720"},{"id":4947,"Name":"Skhirate-Témara","country_id":149,"country_code":"MA","country_name":"Morocco","state_code":"SKH","type":null,"latitude":"33.76224250","longitude":"-7.04190520"},{"id":3295,"Name":"Souss-Massa","country_id":149,"country_code":"MA","country_name":"Morocco","state_code":"09","type":null,"latitude":"30.27506110","longitude":"-8.13385580"},{"id":3286,"Name":"Tan-Tan (EH-partial)","country_id":149,"country_code":"MA","country_name":"Morocco","state_code":"TNT","type":null,"latitude":"28.03012000","longitude":"-11.16173560"},{"id":4950,"Name":"Tanger-Assilah","country_id":149,"country_code":"MA","country_name":"Morocco","state_code":"TNG","type":null,"latitude":"35.76325390","longitude":"-5.90450980"},{"id":3324,"Name":"Tanger-Tétouan-Al Hoceïma","country_id":149,"country_code":"MA","country_name":"Morocco","state_code":"01","type":null,"latitude":"35.26295580","longitude":"-5.56172790"},{"id":3323,"Name":"Taounate","country_id":149,"country_code":"MA","country_name":"Morocco","state_code":"TAO","type":null,"latitude":"34.53691700","longitude":"-4.63986930"},{"id":3322,"Name":"Taourirt","country_id":149,"country_code":"MA","country_name":"Morocco","state_code":"TAI","type":null,"latitude":"34.21259800","longitude":"-2.69838680"},{"id":4948,"Name":"Tarfaya (EH-partial)","country_id":149,"country_code":"MA","country_name":"Morocco","state_code":"TAF","type":null,"latitude":"27.93777010","longitude":"-12.92940630"},{"id":3314,"Name":"Taroudannt","country_id":149,"country_code":"MA","country_name":"Morocco","state_code":"TAR","type":null,"latitude":"30.47271260","longitude":"-8.87487650"},{"id":3312,"Name":"Tata","country_id":149,"country_code":"MA","country_name":"Morocco","state_code":"TAT","type":null,"latitude":"29.75087700","longitude":"-7.97563430"},{"id":3296,"Name":"Taza","country_id":149,"country_code":"MA","country_name":"Morocco","state_code":"TAZ","type":null,"latitude":"34.27889530","longitude":"-3.58126920"},{"id":3318,"Name":"Tétouan","country_id":149,"country_code":"MA","country_name":"Morocco","state_code":"TET","type":null,"latitude":"35.58889950","longitude":"-5.36255160"},{"id":4949,"Name":"Tinghir","country_id":149,"country_code":"MA","country_name":"Morocco","state_code":"TIN","type":null,"latitude":"31.48507940","longitude":"-6.20192980"},{"id":3277,"Name":"Tiznit","country_id":149,"country_code":"MA","country_name":"Morocco","state_code":"TIZ","type":null,"latitude":"29.69339200","longitude":"-9.73215700"},{"id":4951,"Name":"Youssoufia","country_id":149,"country_code":"MA","country_name":"Morocco","state_code":"YUS","type":null,"latitude":"32.02006790","longitude":"-8.86926480"},{"id":3283,"Name":"Zagora","country_id":149,"country_code":"MA","country_name":"Morocco","state_code":"ZAG","type":null,"latitude":"30.57860930","longitude":"-5.89871390"}]