[{"id":4368,"Name":"Anenii Noi District","country_id":144,"country_code":"MD","country_name":"Moldova","state_code":"AN","type":null,"latitude":"46.87956630","longitude":"29.23121750"},{"id":4393,"Name":"Bălți Municipality","country_id":144,"country_code":"MD","country_name":"Moldova","state_code":"BA","type":null,"latitude":"47.75399470","longitude":"27.91841480"},{"id":4379,"Name":"Basarabeasca District","country_id":144,"country_code":"MD","country_name":"Moldova","state_code":"BS","type":null,"latitude":"46.42370600","longitude":"28.89354920"},{"id":4362,"Name":"Bender Municipality","country_id":144,"country_code":"MD","country_name":"Moldova","state_code":"BD","type":null,"latitude":"46.82275510","longitude":"29.46201010"},{"id":4375,"Name":"Briceni District","country_id":144,"country_code":"MD","country_name":"Moldova","state_code":"BR","type":null,"latitude":"48.36320220","longitude":"27.07503980"},{"id":4391,"Name":"Cahul District","country_id":144,"country_code":"MD","country_name":"Moldova","state_code":"CA","type":null,"latitude":"45.89394040","longitude":"28.18902750"},{"id":4366,"Name":"Călărași District","country_id":144,"country_code":"MD","country_name":"Moldova","state_code":"CL","type":null,"latitude":"47.28694600","longitude":"28.27453100"},{"id":4380,"Name":"Cantemir District","country_id":144,"country_code":"MD","country_name":"Moldova","state_code":"CT","type":null,"latitude":"46.27717420","longitude":"28.20096530"},{"id":4365,"Name":"Căușeni District","country_id":144,"country_code":"MD","country_name":"Moldova","state_code":"CS","type":null,"latitude":"46.65547150","longitude":"29.40912220"},{"id":4373,"Name":"Chișinău Municipality","country_id":144,"country_code":"MD","country_name":"Moldova","state_code":"CU","type":null,"latitude":"47.01045290","longitude":"28.86381020"},{"id":4360,"Name":"Cimișlia District","country_id":144,"country_code":"MD","country_name":"Moldova","state_code":"CM","type":null,"latitude":"46.52508510","longitude":"28.77218350"},{"id":4390,"Name":"Criuleni District","country_id":144,"country_code":"MD","country_name":"Moldova","state_code":"CR","type":null,"latitude":"47.21361140","longitude":"29.15575190"},{"id":4384,"Name":"Dondușeni District","country_id":144,"country_code":"MD","country_name":"Moldova","state_code":"DO","type":null,"latitude":"48.23383050","longitude":"27.59980870"},{"id":4392,"Name":"Drochia District","country_id":144,"country_code":"MD","country_name":"Moldova","state_code":"DR","type":null,"latitude":"48.07977880","longitude":"27.86041140"},{"id":4383,"Name":"Dubăsari District","country_id":144,"country_code":"MD","country_name":"Moldova","state_code":"DU","type":null,"latitude":"47.26439420","longitude":"29.15503480"},{"id":4387,"Name":"Edineț District","country_id":144,"country_code":"MD","country_name":"Moldova","state_code":"ED","type":null,"latitude":"48.16789910","longitude":"27.29361430"},{"id":4381,"Name":"Fălești District","country_id":144,"country_code":"MD","country_name":"Moldova","state_code":"FA","type":null,"latitude":"47.56477250","longitude":"27.72655930"},{"id":4370,"Name":"Florești District","country_id":144,"country_code":"MD","country_name":"Moldova","state_code":"FL","type":null,"latitude":"47.86678490","longitude":"28.33918640"},{"id":4385,"Name":"Gagauzia","country_id":144,"country_code":"MD","country_name":"Moldova","state_code":"GA","type":null,"latitude":"46.09794350","longitude":"28.63846450"},{"id":4367,"Name":"Glodeni District","country_id":144,"country_code":"MD","country_name":"Moldova","state_code":"GL","type":null,"latitude":"47.77901560","longitude":"27.51680100"},{"id":4382,"Name":"Hîncești District","country_id":144,"country_code":"MD","country_name":"Moldova","state_code":"HI","type":null,"latitude":"46.82811470","longitude":"28.58508890"},{"id":4369,"Name":"Ialoveni District","country_id":144,"country_code":"MD","country_name":"Moldova","state_code":"IA","type":null,"latitude":"46.86308600","longitude":"28.82342180"},{"id":4363,"Name":"Nisporeni District","country_id":144,"country_code":"MD","country_name":"Moldova","state_code":"NI","type":null,"latitude":"47.07513490","longitude":"28.17681550"},{"id":4389,"Name":"Ocnița District","country_id":144,"country_code":"MD","country_name":"Moldova","state_code":"OC","type":null,"latitude":"48.41104350","longitude":"27.47680920"},{"id":4361,"Name":"Orhei District","country_id":144,"country_code":"MD","country_name":"Moldova","state_code":"OR","type":null,"latitude":"47.38604000","longitude":"28.83030820"},{"id":4394,"Name":"Rezina District","country_id":144,"country_code":"MD","country_name":"Moldova","state_code":"RE","type":null,"latitude":"47.71804470","longitude":"28.88710240"},{"id":4376,"Name":"Rîșcani District","country_id":144,"country_code":"MD","country_name":"Moldova","state_code":"RI","type":null,"latitude":"47.90701530","longitude":"27.53749960"},{"id":4364,"Name":"Sîngerei District","country_id":144,"country_code":"MD","country_name":"Moldova","state_code":"SI","type":null,"latitude":"47.63891340","longitude":"28.13718160"},{"id":4388,"Name":"Șoldănești District","country_id":144,"country_code":"MD","country_name":"Moldova","state_code":"SD","type":null,"latitude":"47.81473890","longitude":"28.78895860"},{"id":4374,"Name":"Soroca District","country_id":144,"country_code":"MD","country_name":"Moldova","state_code":"SO","type":null,"latitude":"48.15497430","longitude":"28.28707830"},{"id":4378,"Name":"Ștefan Vodă District","country_id":144,"country_code":"MD","country_name":"Moldova","state_code":"SV","type":null,"latitude":"46.55404880","longitude":"29.70224200"},{"id":4377,"Name":"Strășeni District","country_id":144,"country_code":"MD","country_name":"Moldova","state_code":"ST","type":null,"latitude":"47.14502670","longitude":"28.61367360"},{"id":4372,"Name":"Taraclia District","country_id":144,"country_code":"MD","country_name":"Moldova","state_code":"TA","type":null,"latitude":"45.89865100","longitude":"28.66716440"},{"id":4371,"Name":"Telenești District","country_id":144,"country_code":"MD","country_name":"Moldova","state_code":"TE","type":null,"latitude":"47.49839620","longitude":"28.36760190"},{"id":4395,"Name":"Transnistria autonomous territorial unit","country_id":144,"country_code":"MD","country_name":"Moldova","state_code":"SN","type":null,"latitude":"47.21529720","longitude":"29.46380540"},{"id":4386,"Name":"Ungheni District","country_id":144,"country_code":"MD","country_name":"Moldova","state_code":"UN","type":null,"latitude":"47.23057670","longitude":"27.78926610"}]