[{"id":3456,"Name":"Aguascalientes","country_id":142,"country_code":"MX","country_name":"Mexico","state_code":"AGU","type":null,"latitude":"21.88525620","longitude":"-102.29156770"},{"id":3457,"Name":"Baja California","country_id":142,"country_code":"MX","country_name":"Mexico","state_code":"BCN","type":null,"latitude":"30.84063380","longitude":"-115.28375850"},{"id":3460,"Name":"Baja California Sur","country_id":142,"country_code":"MX","country_name":"Mexico","state_code":"BCS","type":null,"latitude":"26.04444460","longitude":"-111.66607250"},{"id":3475,"Name":"Campeche","country_id":142,"country_code":"MX","country_name":"Mexico","state_code":"CAM","type":null,"latitude":"19.83012510","longitude":"-90.53490870"},{"id":3451,"Name":"Chiapas","country_id":142,"country_code":"MX","country_name":"Mexico","state_code":"CHP","type":null,"latitude":"16.75693180","longitude":"-93.12923530"},{"id":3447,"Name":"Chihuahua","country_id":142,"country_code":"MX","country_name":"Mexico","state_code":"CHH","type":null,"latitude":"28.63299570","longitude":"-106.06910040"},{"id":3473,"Name":"Ciudad de México","country_id":142,"country_code":"MX","country_name":"Mexico","state_code":"CDMX","type":null,"latitude":"19.43260770","longitude":"-99.13320800"},{"id":3471,"Name":"Coahuila de Zaragoza","country_id":142,"country_code":"MX","country_name":"Mexico","state_code":"COA","type":null,"latitude":"27.05867600","longitude":"-101.70682940"},{"id":3472,"Name":"Colima","country_id":142,"country_code":"MX","country_name":"Mexico","state_code":"COL","type":null,"latitude":"19.24523420","longitude":"-103.72408680"},{"id":3453,"Name":"Durango","country_id":142,"country_code":"MX","country_name":"Mexico","state_code":"DUR","type":null,"latitude":"37.27528000","longitude":"-107.88006670"},{"id":3450,"Name":"Estado de México","country_id":142,"country_code":"MX","country_name":"Mexico","state_code":"MEX","type":null,"latitude":"23.63450100","longitude":"-102.55278400"},{"id":3469,"Name":"Guanajuato","country_id":142,"country_code":"MX","country_name":"Mexico","state_code":"GUA","type":null,"latitude":"21.01901450","longitude":"-101.25735860"},{"id":3459,"Name":"Guerrero","country_id":142,"country_code":"MX","country_name":"Mexico","state_code":"GRO","type":null,"latitude":"17.43919260","longitude":"-99.54509740"},{"id":3470,"Name":"Hidalgo","country_id":142,"country_code":"MX","country_name":"Mexico","state_code":"HID","type":null,"latitude":"26.10035470","longitude":"-98.26306840"},{"id":4857,"Name":"Jalisco","country_id":142,"country_code":"MX","country_name":"Mexico","state_code":"JAL","type":null,"latitude":"20.65953820","longitude":"-103.34943760"},{"id":3474,"Name":"Michoacán de Ocampo","country_id":142,"country_code":"MX","country_name":"Mexico","state_code":"MIC","type":null,"latitude":"19.56651920","longitude":"-101.70682940"},{"id":3465,"Name":"Morelos","country_id":142,"country_code":"MX","country_name":"Mexico","state_code":"MOR","type":null,"latitude":"18.68130490","longitude":"-99.10134980"},{"id":3477,"Name":"Nayarit","country_id":142,"country_code":"MX","country_name":"Mexico","state_code":"NAY","type":null,"latitude":"21.75138440","longitude":"-104.84546190"},{"id":3452,"Name":"Nuevo León","country_id":142,"country_code":"MX","country_name":"Mexico","state_code":"NLE","type":null,"latitude":"25.59217200","longitude":"-99.99619470"},{"id":3448,"Name":"Oaxaca","country_id":142,"country_code":"MX","country_name":"Mexico","state_code":"OAX","type":null,"latitude":"17.07318420","longitude":"-96.72658890"},{"id":3476,"Name":"Puebla","country_id":142,"country_code":"MX","country_name":"Mexico","state_code":"PUE","type":null,"latitude":"19.04143980","longitude":"-98.20627270"},{"id":3455,"Name":"Querétaro","country_id":142,"country_code":"MX","country_name":"Mexico","state_code":"QUE","type":null,"latitude":"20.58879320","longitude":"-100.38988810"},{"id":3467,"Name":"Quintana Roo","country_id":142,"country_code":"MX","country_name":"Mexico","state_code":"ROO","type":null,"latitude":"19.18173930","longitude":"-88.47913760"},{"id":3461,"Name":"San Luis Potosí","country_id":142,"country_code":"MX","country_name":"Mexico","state_code":"SLP","type":null,"latitude":"22.15646990","longitude":"-100.98554090"},{"id":3449,"Name":"Sinaloa","country_id":142,"country_code":"MX","country_name":"Mexico","state_code":"SIN","type":null,"latitude":"25.17210910","longitude":"-107.47951730"},{"id":3468,"Name":"Sonora","country_id":142,"country_code":"MX","country_name":"Mexico","state_code":"SON","type":null,"latitude":"37.98294960","longitude":"-120.38217240"},{"id":3454,"Name":"Tabasco","country_id":142,"country_code":"MX","country_name":"Mexico","state_code":"TAB","type":null,"latitude":"17.84091730","longitude":"-92.61892730"},{"id":3463,"Name":"Tamaulipas","country_id":142,"country_code":"MX","country_name":"Mexico","state_code":"TAM","type":null,"latitude":"24.26694000","longitude":"-98.83627550"},{"id":3458,"Name":"Tlaxcala","country_id":142,"country_code":"MX","country_name":"Mexico","state_code":"TLA","type":null,"latitude":"19.31815400","longitude":"-98.23749540"},{"id":3464,"Name":"Veracruz de Ignacio de la Llave","country_id":142,"country_code":"MX","country_name":"Mexico","state_code":"VER","type":null,"latitude":"19.17377300","longitude":"-96.13422410"},{"id":3466,"Name":"Yucatán","country_id":142,"country_code":"MX","country_name":"Mexico","state_code":"YUC","type":null,"latitude":"20.70987860","longitude":"-89.09433770"},{"id":3462,"Name":"Zacatecas","country_id":142,"country_code":"MX","country_name":"Mexico","state_code":"ZAC","type":null,"latitude":"22.77085550","longitude":"-102.58324260"}]