[{"id":2624,"Name":"Bonaire","country_id":156,"country_code":"NL","country_name":"Netherlands","state_code":"BQ1","type":null,"latitude":"12.20189020","longitude":"-68.26238220"},{"id":2613,"Name":"Drenthe","country_id":156,"country_code":"NL","country_name":"Netherlands","state_code":"DR","type":null,"latitude":"52.94760120","longitude":"6.62305860"},{"id":2619,"Name":"Flevoland","country_id":156,"country_code":"NL","country_name":"Netherlands","state_code":"FL","type":null,"latitude":"52.52797810","longitude":"5.59535080"},{"id":2622,"Name":"Friesland","country_id":156,"country_code":"NL","country_name":"Netherlands","state_code":"FR","type":null,"latitude":"53.16416420","longitude":"5.78175420"},{"id":2611,"Name":"Gelderland","country_id":156,"country_code":"NL","country_name":"Netherlands","state_code":"GE","type":null,"latitude":"52.04515500","longitude":"5.87182350"},{"id":2617,"Name":"Groningen","country_id":156,"country_code":"NL","country_name":"Netherlands","state_code":"GR","type":null,"latitude":"53.21938350","longitude":"6.56650170"},{"id":2615,"Name":"Limburg","country_id":156,"country_code":"NL","country_name":"Netherlands","state_code":"LI","type":null,"latitude":"51.44272380","longitude":"6.06087260"},{"id":2623,"Name":"North Brabant","country_id":156,"country_code":"NL","country_name":"Netherlands","state_code":"NB","type":null,"latitude":"51.48265370","longitude":"5.23216870"},{"id":2612,"Name":"North Holland","country_id":156,"country_code":"NL","country_name":"Netherlands","state_code":"NH","type":null,"latitude":"52.52058690","longitude":"4.78847400"},{"id":2618,"Name":"Overijssel","country_id":156,"country_code":"NL","country_name":"Netherlands","state_code":"OV","type":null,"latitude":"52.43878140","longitude":"6.50164110"},{"id":2621,"Name":"Saba","country_id":156,"country_code":"NL","country_name":"Netherlands","state_code":"BQ2","type":null,"latitude":"17.63546420","longitude":"-63.23267630"},{"id":2616,"Name":"Sint Eustatius","country_id":156,"country_code":"NL","country_name":"Netherlands","state_code":"BQ3","type":null,"latitude":"17.48903060","longitude":"-62.97355500"},{"id":2614,"Name":"South Holland","country_id":156,"country_code":"NL","country_name":"Netherlands","state_code":"ZH","type":null,"latitude":"41.60086810","longitude":"-87.60698940"},{"id":2610,"Name":"Utrecht","country_id":156,"country_code":"NL","country_name":"Netherlands","state_code":"UT","type":null,"latitude":"52.09073740","longitude":"5.12142010"},{"id":2620,"Name":"Zeeland","country_id":156,"country_code":"NL","country_name":"Netherlands","state_code":"ZE","type":null,"latitude":"51.49403090","longitude":"3.84968150"}]