[{"id":1017,"Name":"Akershus","country_id":165,"country_code":"NO","country_name":"Norway","state_code":"02","type":null,"latitude":"28.37042030","longitude":"-81.54680580"},{"id":1011,"Name":"Buskerud","country_id":165,"country_code":"NO","country_name":"Norway","state_code":"06","type":null,"latitude":"60.48460250","longitude":"8.69837640"},{"id":1016,"Name":"Finnmark","country_id":165,"country_code":"NO","country_name":"Norway","state_code":"20","type":null,"latitude":"70.48303880","longitude":"26.01351070"},{"id":1019,"Name":"Hedmark","country_id":165,"country_code":"NO","country_name":"Norway","state_code":"04","type":null,"latitude":"61.39673110","longitude":"11.56273690"},{"id":1023,"Name":"Hordaland","country_id":165,"country_code":"NO","country_name":"Norway","state_code":"12","type":null,"latitude":"60.27336740","longitude":"5.72201940"},{"id":1026,"Name":"Jan Mayen","country_id":165,"country_code":"NO","country_name":"Norway","state_code":"22","type":null,"latitude":"71.03181800","longitude":"-8.29203460"},{"id":1020,"Name":"Møre og Romsdal","country_id":165,"country_code":"NO","country_name":"Norway","state_code":"15","type":null,"latitude":"62.84068330","longitude":"7.00714300"},{"id":1012,"Name":"Nord-Trøndelag","country_id":165,"country_code":"NO","country_name":"Norway","state_code":"17","type":null,"latitude":"64.43707920","longitude":"11.74629500"},{"id":1025,"Name":"Nordland","country_id":165,"country_code":"NO","country_name":"Norway","state_code":"18","type":null,"latitude":"67.69305800","longitude":"12.70739360"},{"id":1009,"Name":"Oppland","country_id":165,"country_code":"NO","country_name":"Norway","state_code":"05","type":null,"latitude":"61.54227520","longitude":"9.71663150"},{"id":1007,"Name":"Oslo","country_id":165,"country_code":"NO","country_name":"Norway","state_code":"03","type":null,"latitude":"59.91386880","longitude":"10.75224540"},{"id":1022,"Name":"Østfold","country_id":165,"country_code":"NO","country_name":"Norway","state_code":"01","type":null,"latitude":"59.25582860","longitude":"11.32790060"},{"id":1021,"Name":"Rogaland","country_id":165,"country_code":"NO","country_name":"Norway","state_code":"11","type":null,"latitude":"59.14895440","longitude":"6.01434320"},{"id":1018,"Name":"Sogn og Fjordane","country_id":165,"country_code":"NO","country_name":"Norway","state_code":"14","type":null,"latitude":"61.55394350","longitude":"6.33258790"},{"id":1010,"Name":"Sør-Trøndelag","country_id":165,"country_code":"NO","country_name":"Norway","state_code":"16","type":null,"latitude":"63.01368230","longitude":"10.34871360"},{"id":1013,"Name":"Svalbard","country_id":165,"country_code":"NO","country_name":"Norway","state_code":"21","type":null,"latitude":"77.87497250","longitude":"20.97518210"},{"id":1024,"Name":"Telemark","country_id":165,"country_code":"NO","country_name":"Norway","state_code":"08","type":null,"latitude":"59.39139850","longitude":"8.32112090"},{"id":1015,"Name":"Troms","country_id":165,"country_code":"NO","country_name":"Norway","state_code":"19","type":null,"latitude":"69.81782420","longitude":"18.78193650"},{"id":1006,"Name":"Trøndelag","country_id":165,"country_code":"NO","country_name":"Norway","state_code":"50","type":null,"latitude":"63.54201250","longitude":"10.93692670"},{"id":1014,"Name":"Vest-Agder","country_id":165,"country_code":"NO","country_name":"Norway","state_code":"10","type":null,"latitude":"58.09990810","longitude":"6.58698090"},{"id":1008,"Name":"Vestfold","country_id":165,"country_code":"NO","country_name":"Norway","state_code":"07","type":null,"latitude":"59.17078620","longitude":"10.11443550"}]