[{"id":1393,"Name":"Bocas del Toro Province","country_id":170,"country_code":"PA","country_name":"Panama","state_code":"1","type":null,"latitude":"9.41655210","longitude":"-82.52077870"},{"id":1397,"Name":"Chiriquí Province","country_id":170,"country_code":"PA","country_name":"Panama","state_code":"4","type":null,"latitude":"8.58489800","longitude":"-82.38857830"},{"id":1387,"Name":"Coclé Province","country_id":170,"country_code":"PA","country_name":"Panama","state_code":"2","type":null,"latitude":"8.62660680","longitude":"-80.36586500"},{"id":1386,"Name":"Colón Province","country_id":170,"country_code":"PA","country_name":"Panama","state_code":"3","type":null,"latitude":"9.18519890","longitude":"-80.05349230"},{"id":1385,"Name":"Darién Province","country_id":170,"country_code":"PA","country_name":"Panama","state_code":"5","type":null,"latitude":"7.86817130","longitude":"-77.83672820"},{"id":1396,"Name":"Emberá-Wounaan Comarca","country_id":170,"country_code":"PA","country_name":"Panama","state_code":"EM","type":null,"latitude":"8.37669830","longitude":"-77.65361250"},{"id":1388,"Name":"Guna Yala","country_id":170,"country_code":"PA","country_name":"Panama","state_code":"KY","type":null,"latitude":"9.23443950","longitude":"-78.19262500"},{"id":1389,"Name":"Herrera Province","country_id":170,"country_code":"PA","country_name":"Panama","state_code":"6","type":null,"latitude":"7.77042820","longitude":"-80.72144170"},{"id":1390,"Name":"Los Santos Province","country_id":170,"country_code":"PA","country_name":"Panama","state_code":"7","type":null,"latitude":"7.59093020","longitude":"-80.36586500"},{"id":1391,"Name":"Ngöbe-Buglé Comarca","country_id":170,"country_code":"PA","country_name":"Panama","state_code":"NB","type":null,"latitude":"8.65958330","longitude":"-81.77870210"},{"id":1394,"Name":"Panamá Oeste Province","country_id":170,"country_code":"PA","country_name":"Panama","state_code":"10","type":null,"latitude":"9.11967510","longitude":"-79.29021330"},{"id":1395,"Name":"Panamá Province","country_id":170,"country_code":"PA","country_name":"Panama","state_code":"8","type":null,"latitude":"9.11967510","longitude":"-79.29021330"},{"id":1392,"Name":"Veraguas Province","country_id":170,"country_code":"PA","country_name":"Panama","state_code":"9","type":null,"latitude":"8.12310330","longitude":"-81.07546570"}]