[{"id":4183,"Name":"Ajdovščina Municipality","country_id":201,"country_code":"SI","country_name":"Slovenia","state_code":"001","type":null,"latitude":"45.88707760","longitude":"13.90428180"},{"id":4326,"Name":"Ankaran Municipality","country_id":201,"country_code":"SI","country_name":"Slovenia","state_code":"213","type":null,"latitude":"45.57845100","longitude":"13.73691740"},{"id":4301,"Name":"Beltinci Municipality","country_id":201,"country_code":"SI","country_name":"Slovenia","state_code":"002","type":null,"latitude":"46.60791530","longitude":"16.23651270"},{"id":4166,"Name":"Benedikt Municipality","country_id":201,"country_code":"SI","country_name":"Slovenia","state_code":"148","type":null,"latitude":"46.61558410","longitude":"15.89572810"},{"id":4179,"Name":"Bistrica ob Sotli Municipality","country_id":201,"country_code":"SI","country_name":"Slovenia","state_code":"149","type":null,"latitude":"46.05655790","longitude":"15.66259470"},{"id":4202,"Name":"Bled Municipality","country_id":201,"country_code":"SI","country_name":"Slovenia","state_code":"003","type":null,"latitude":"46.36832660","longitude":"14.11457980"},{"id":4278,"Name":"Bloke Municipality","country_id":201,"country_code":"SI","country_name":"Slovenia","state_code":"150","type":null,"latitude":"45.77281410","longitude":"14.50634590"},{"id":4282,"Name":"Bohinj Municipality","country_id":201,"country_code":"SI","country_name":"Slovenia","state_code":"004","type":null,"latitude":"46.30056520","longitude":"13.94271950"},{"id":4200,"Name":"Borovnica Municipality","country_id":201,"country_code":"SI","country_name":"Slovenia","state_code":"005","type":null,"latitude":"45.90445250","longitude":"14.38241890"},{"id":4181,"Name":"Bovec Municipality","country_id":201,"country_code":"SI","country_name":"Slovenia","state_code":"006","type":null,"latitude":"46.33804950","longitude":"13.55241740"},{"id":4141,"Name":"Braslovče Municipality","country_id":201,"country_code":"SI","country_name":"Slovenia","state_code":"151","type":null,"latitude":"46.28361920","longitude":"15.04183200"},{"id":4240,"Name":"Brda Municipality","country_id":201,"country_code":"SI","country_name":"Slovenia","state_code":"007","type":null,"latitude":"45.99756520","longitude":"13.52704740"},{"id":4215,"Name":"Brežice Municipality","country_id":201,"country_code":"SI","country_name":"Slovenia","state_code":"009","type":null,"latitude":"45.90410960","longitude":"15.59436390"},{"id":4165,"Name":"Brezovica Municipality","country_id":201,"country_code":"SI","country_name":"Slovenia","state_code":"008","type":null,"latitude":"45.95593510","longitude":"14.43499520"},{"id":4147,"Name":"Cankova Municipality","country_id":201,"country_code":"SI","country_name":"Slovenia","state_code":"152","type":null,"latitude":"46.71823700","longitude":"16.01972220"},{"id":4310,"Name":"Cerklje na Gorenjskem Municipality","country_id":201,"country_code":"SI","country_name":"Slovenia","state_code":"012","type":null,"latitude":"46.25170540","longitude":"14.48579790"},{"id":4162,"Name":"Cerknica Municipality","country_id":201,"country_code":"SI","country_name":"Slovenia","state_code":"013","type":null,"latitude":"45.79662550","longitude":"14.39217700"},{"id":4178,"Name":"Cerkno Municipality","country_id":201,"country_code":"SI","country_name":"Slovenia","state_code":"014","type":null,"latitude":"46.12884140","longitude":"13.98940270"},{"id":4176,"Name":"Cerkvenjak Municipality","country_id":201,"country_code":"SI","country_name":"Slovenia","state_code":"153","type":null,"latitude":"46.56707110","longitude":"15.94297530"},{"id":4191,"Name":"City Municipality of Celje","country_id":201,"country_code":"SI","country_name":"Slovenia","state_code":"011","type":null,"latitude":"46.23974950","longitude":"15.26770630"},{"id":4236,"Name":"City Municipality of Novo Mesto","country_id":201,"country_code":"SI","country_name":"Slovenia","state_code":"085","type":null,"latitude":"45.80108240","longitude":"15.17100890"},{"id":4151,"Name":"Črenšovci Municipality","country_id":201,"country_code":"SI","country_name":"Slovenia","state_code":"015","type":null,"latitude":"46.57200290","longitude":"16.28773460"},{"id":4232,"Name":"Črna na Koroškem Municipality","country_id":201,"country_code":"SI","country_name":"Slovenia","state_code":"016","type":null,"latitude":"46.47045290","longitude":"14.84999980"},{"id":4291,"Name":"Črnomelj Municipality","country_id":201,"country_code":"SI","country_name":"Slovenia","state_code":"017","type":null,"latitude":"45.53612250","longitude":"15.19441430"},{"id":4304,"Name":"Destrnik Municipality","country_id":201,"country_code":"SI","country_name":"Slovenia","state_code":"018","type":null,"latitude":"46.49223680","longitude":"15.87779560"},{"id":4167,"Name":"Divača Municipality","country_id":201,"country_code":"SI","country_name":"Slovenia","state_code":"019","type":null,"latitude":"45.68060690","longitude":"13.97203120"},{"id":4295,"Name":"Dobje Municipality","country_id":201,"country_code":"SI","country_name":"Slovenia","state_code":"154","type":null,"latitude":"46.13700370","longitude":"15.39412900"},{"id":4216,"Name":"Dobrepolje Municipality","country_id":201,"country_code":"SI","country_name":"Slovenia","state_code":"020","type":null,"latitude":"45.85249510","longitude":"14.70831090"},{"id":4252,"Name":"Dobrna Municipality","country_id":201,"country_code":"SI","country_name":"Slovenia","state_code":"155","type":null,"latitude":"46.33561410","longitude":"15.22597320"},{"id":4308,"Name":"Dobrova–Polhov Gradec Municipality","country_id":201,"country_code":"SI","country_name":"Slovenia","state_code":"021","type":null,"latitude":"46.06488960","longitude":"14.31681950"},{"id":4189,"Name":"Dobrovnik Municipality","country_id":201,"country_code":"SI","country_name":"Slovenia","state_code":"156","type":null,"latitude":"46.65386620","longitude":"16.35065940"},{"id":4173,"Name":"Dol pri Ljubljani Municipality","country_id":201,"country_code":"SI","country_name":"Slovenia","state_code":"022","type":null,"latitude":"46.08843860","longitude":"14.64247920"},{"id":4281,"Name":"Dolenjske Toplice Municipality","country_id":201,"country_code":"SI","country_name":"Slovenia","state_code":"157","type":null,"latitude":"45.73457110","longitude":"15.01294930"},{"id":4159,"Name":"Domžale Municipality","country_id":201,"country_code":"SI","country_name":"Slovenia","state_code":"023","type":null,"latitude":"46.14382690","longitude":"14.63752790"},{"id":4290,"Name":"Dornava Municipality","country_id":201,"country_code":"SI","country_name":"Slovenia","state_code":"024","type":null,"latitude":"46.44435130","longitude":"15.98891590"},{"id":4345,"Name":"Dravograd Municipality","country_id":201,"country_code":"SI","country_name":"Slovenia","state_code":"025","type":null,"latitude":"46.58921900","longitude":"15.02460210"},{"id":4213,"Name":"Duplek Municipality","country_id":201,"country_code":"SI","country_name":"Slovenia","state_code":"026","type":null,"latitude":"46.50100160","longitude":"15.75463070"},{"id":4293,"Name":"Gorenja Vas–Poljane Municipality","country_id":201,"country_code":"SI","country_name":"Slovenia","state_code":"027","type":null,"latitude":"46.11165820","longitude":"14.11493480"},{"id":4210,"Name":"Gorišnica Municipality","country_id":201,"country_code":"SI","country_name":"Slovenia","state_code":"028","type":null,"latitude":"46.41202710","longitude":"16.01330890"},{"id":4284,"Name":"Gorje Municipality","country_id":201,"country_code":"SI","country_name":"Slovenia","state_code":"207","type":null,"latitude":"46.38024580","longitude":"14.06853390"},{"id":4343,"Name":"Gornja Radgona Municipality","country_id":201,"country_code":"SI","country_name":"Slovenia","state_code":"029","type":null,"latitude":"46.67670990","longitude":"15.99108470"},{"id":4339,"Name":"Gornji Grad Municipality","country_id":201,"country_code":"SI","country_name":"Slovenia","state_code":"030","type":null,"latitude":"46.29617120","longitude":"14.80623470"},{"id":4271,"Name":"Gornji Petrovci Municipality","country_id":201,"country_code":"SI","country_name":"Slovenia","state_code":"031","type":null,"latitude":"46.80371280","longitude":"16.21913790"},{"id":4217,"Name":"Grad Municipality","country_id":201,"country_code":"SI","country_name":"Slovenia","state_code":"158","type":null,"latitude":"46.80873200","longitude":"16.10920600"},{"id":4336,"Name":"Grosuplje Municipality","country_id":201,"country_code":"SI","country_name":"Slovenia","state_code":"032","type":null,"latitude":"45.95576450","longitude":"14.65889900"},{"id":4145,"Name":"Hajdina Municipality","country_id":201,"country_code":"SI","country_name":"Slovenia","state_code":"159","type":null,"latitude":"46.41850140","longitude":"15.82447220"},{"id":4175,"Name":"Hoče–Slivnica Municipality","country_id":201,"country_code":"SI","country_name":"Slovenia","state_code":"160","type":null,"latitude":"46.47785800","longitude":"15.64760050"},{"id":4327,"Name":"Hodoš Municipality","country_id":201,"country_code":"SI","country_name":"Slovenia","state_code":"161","type":null,"latitude":"46.83141340","longitude":"16.32106800"},{"id":4193,"Name":"Horjul Municipality","country_id":201,"country_code":"SI","country_name":"Slovenia","state_code":"162","type":null,"latitude":"46.02253780","longitude":"14.29862690"},{"id":4341,"Name":"Hrastnik Municipality","country_id":201,"country_code":"SI","country_name":"Slovenia","state_code":"034","type":null,"latitude":"46.14172880","longitude":"15.08448940"},{"id":4321,"Name":"Hrpelje–Kozina Municipality","country_id":201,"country_code":"SI","country_name":"Slovenia","state_code":"035","type":null,"latitude":"45.60911920","longitude":"13.93791480"},{"id":4152,"Name":"Idrija Municipality","country_id":201,"country_code":"SI","country_name":"Slovenia","state_code":"036","type":null,"latitude":"46.00409390","longitude":"13.97754930"},{"id":4286,"Name":"Ig Municipality","country_id":201,"country_code":"SI","country_name":"Slovenia","state_code":"037","type":null,"latitude":"45.95888680","longitude":"14.52705280"},{"id":4305,"Name":"Ivančna Gorica Municipality","country_id":201,"country_code":"SI","country_name":"Slovenia","state_code":"039","type":null,"latitude":"45.93958410","longitude":"14.80476260"},{"id":4322,"Name":"Izola Municipality","country_id":201,"country_code":"SI","country_name":"Slovenia","state_code":"040","type":null,"latitude":"45.53135570","longitude":"13.66646490"},{"id":4337,"Name":"Jesenice Municipality","country_id":201,"country_code":"SI","country_name":"Slovenia","state_code":"041","type":null,"latitude":"46.43670470","longitude":"14.05260570"},{"id":4203,"Name":"Jezersko Municipality","country_id":201,"country_code":"SI","country_name":"Slovenia","state_code":"163","type":null,"latitude":"46.39427940","longitude":"14.49855590"},{"id":4266,"Name":"Juršinci Municipality","country_id":201,"country_code":"SI","country_name":"Slovenia","state_code":"042","type":null,"latitude":"46.48986510","longitude":"15.98092300"},{"id":4180,"Name":"Kamnik Municipality","country_id":201,"country_code":"SI","country_name":"Slovenia","state_code":"043","type":null,"latitude":"46.22216660","longitude":"14.60707270"},{"id":4227,"Name":"Kanal ob Soči Municipality","country_id":201,"country_code":"SI","country_name":"Slovenia","state_code":"044","type":null,"latitude":"46.06735300","longitude":"13.62033500"},{"id":4150,"Name":"Kidričevo Municipality","country_id":201,"country_code":"SI","country_name":"Slovenia","state_code":"045","type":null,"latitude":"46.39575720","longitude":"15.79259060"},{"id":4243,"Name":"Kobarid Municipality","country_id":201,"country_code":"SI","country_name":"Slovenia","state_code":"046","type":null,"latitude":"46.24569710","longitude":"13.57869490"},{"id":4325,"Name":"Kobilje Municipality","country_id":201,"country_code":"SI","country_name":"Slovenia","state_code":"047","type":null,"latitude":"46.68518000","longitude":"16.39367190"},{"id":4335,"Name":"Kočevje Municipality","country_id":201,"country_code":"SI","country_name":"Slovenia","state_code":"048","type":null,"latitude":"45.64280000","longitude":"14.86158380"},{"id":4315,"Name":"Komen Municipality","country_id":201,"country_code":"SI","country_name":"Slovenia","state_code":"049","type":null,"latitude":"45.81752350","longitude":"13.74827110"},{"id":4283,"Name":"Komenda Municipality","country_id":201,"country_code":"SI","country_name":"Slovenia","state_code":"164","type":null,"latitude":"46.20648800","longitude":"14.53824990"},{"id":4319,"Name":"Koper City Municipality","country_id":201,"country_code":"SI","country_name":"Slovenia","state_code":"050","type":null,"latitude":"45.54805900","longitude":"13.73018770"},{"id":4254,"Name":"Kostanjevica na Krki Municipality","country_id":201,"country_code":"SI","country_name":"Slovenia","state_code":"197","type":null,"latitude":"45.83166380","longitude":"15.44119060"},{"id":4331,"Name":"Kostel Municipality","country_id":201,"country_code":"SI","country_name":"Slovenia","state_code":"165","type":null,"latitude":"45.49282550","longitude":"14.87082350"},{"id":4186,"Name":"Kozje Municipality","country_id":201,"country_code":"SI","country_name":"Slovenia","state_code":"051","type":null,"latitude":"46.07332110","longitude":"15.55967190"},{"id":4287,"Name":"Kranj City Municipality","country_id":201,"country_code":"SI","country_name":"Slovenia","state_code":"052","type":null,"latitude":"46.25850210","longitude":"14.35435690"},{"id":4340,"Name":"Kranjska Gora Municipality","country_id":201,"country_code":"SI","country_name":"Slovenia","state_code":"053","type":null,"latitude":"46.48452930","longitude":"13.78571450"},{"id":4238,"Name":"Križevci Municipality","country_id":201,"country_code":"SI","country_name":"Slovenia","state_code":"166","type":null,"latitude":"46.57018210","longitude":"16.10926530"},{"id":4197,"Name":"Kungota","country_id":201,"country_code":"SI","country_name":"Slovenia","state_code":"055","type":null,"latitude":"46.64187930","longitude":"15.60362880"},{"id":4211,"Name":"Kuzma Municipality","country_id":201,"country_code":"SI","country_name":"Slovenia","state_code":"056","type":null,"latitude":"46.83510380","longitude":"16.08071000"},{"id":4338,"Name":"Laško Municipality","country_id":201,"country_code":"SI","country_name":"Slovenia","state_code":"057","type":null,"latitude":"46.15422360","longitude":"15.23614910"},{"id":4142,"Name":"Lenart Municipality","country_id":201,"country_code":"SI","country_name":"Slovenia","state_code":"058","type":null,"latitude":"46.58344240","longitude":"15.82621250"},{"id":4225,"Name":"Lendava Municipality","country_id":201,"country_code":"SI","country_name":"Slovenia","state_code":"059","type":null,"latitude":"46.55134830","longitude":"16.44198390"},{"id":4347,"Name":"Litija Municipality","country_id":201,"country_code":"SI","country_name":"Slovenia","state_code":"060","type":null,"latitude":"46.05732260","longitude":"14.83096360"},{"id":4270,"Name":"Ljubljana City Municipality","country_id":201,"country_code":"SI","country_name":"Slovenia","state_code":"061","type":null,"latitude":"46.05694650","longitude":"14.50575150"},{"id":4294,"Name":"Ljubno Municipality","country_id":201,"country_code":"SI","country_name":"Slovenia","state_code":"062","type":null,"latitude":"46.34431250","longitude":"14.83354920"},{"id":4351,"Name":"Ljutomer Municipality","country_id":201,"country_code":"SI","country_name":"Slovenia","state_code":"063","type":null,"latitude":"46.51908480","longitude":"16.18932160"},{"id":4306,"Name":"Log–Dragomer Municipality","country_id":201,"country_code":"SI","country_name":"Slovenia","state_code":"208","type":null,"latitude":"46.01787470","longitude":"14.36877670"},{"id":4350,"Name":"Logatec Municipality","country_id":201,"country_code":"SI","country_name":"Slovenia","state_code":"064","type":null,"latitude":"45.91761100","longitude":"14.23514510"},{"id":4174,"Name":"Loška Dolina Municipality","country_id":201,"country_code":"SI","country_name":"Slovenia","state_code":"065","type":null,"latitude":"45.64779080","longitude":"14.49731470"},{"id":4158,"Name":"Loški Potok Municipality","country_id":201,"country_code":"SI","country_name":"Slovenia","state_code":"066","type":null,"latitude":"45.69096370","longitude":"14.59859700"},{"id":4156,"Name":"Lovrenc na Pohorju Municipality","country_id":201,"country_code":"SI","country_name":"Slovenia","state_code":"167","type":null,"latitude":"46.54196380","longitude":"15.40004430"},{"id":4219,"Name":"Luče Municipality","country_id":201,"country_code":"SI","country_name":"Slovenia","state_code":"067","type":null,"latitude":"46.35449250","longitude":"14.74715040"},{"id":4302,"Name":"Lukovica Municipality","country_id":201,"country_code":"SI","country_name":"Slovenia","state_code":"068","type":null,"latitude":"46.16962930","longitude":"14.69072590"},{"id":4157,"Name":"Majšperk Municipality","country_id":201,"country_code":"SI","country_name":"Slovenia","state_code":"069","type":null,"latitude":"46.35030190","longitude":"15.73405950"},{"id":4224,"Name":"Makole Municipality","country_id":201,"country_code":"SI","country_name":"Slovenia","state_code":"198","type":null,"latitude":"46.31686970","longitude":"15.66641260"},{"id":4242,"Name":"Maribor City Municipality","country_id":201,"country_code":"SI","country_name":"Slovenia","state_code":"070","type":null,"latitude":"46.55064960","longitude":"15.62054390"},{"id":4244,"Name":"Markovci Municipality","country_id":201,"country_code":"SI","country_name":"Slovenia","state_code":"168","type":null,"latitude":"46.38793090","longitude":"15.95860140"},{"id":4349,"Name":"Medvode Municipality","country_id":201,"country_code":"SI","country_name":"Slovenia","state_code":"071","type":null,"latitude":"46.14190800","longitude":"14.40325960"},{"id":4348,"Name":"Mengeš Municipality","country_id":201,"country_code":"SI","country_name":"Slovenia","state_code":"072","type":null,"latitude":"46.16591220","longitude":"14.57196940"},{"id":4323,"Name":"Metlika Municipality","country_id":201,"country_code":"SI","country_name":"Slovenia","state_code":"073","type":null,"latitude":"45.64807150","longitude":"15.31778380"},{"id":4265,"Name":"Mežica Municipality","country_id":201,"country_code":"SI","country_name":"Slovenia","state_code":"074","type":null,"latitude":"46.52150270","longitude":"14.85213400"},{"id":4223,"Name":"Miklavž na Dravskem Polju Municipality","country_id":201,"country_code":"SI","country_name":"Slovenia","state_code":"169","type":null,"latitude":"46.50826280","longitude":"15.69520650"},{"id":4220,"Name":"Miren–Kostanjevica Municipality","country_id":201,"country_code":"SI","country_name":"Slovenia","state_code":"075","type":null,"latitude":"45.84360290","longitude":"13.62766470"},{"id":4298,"Name":"Mirna Municipality","country_id":201,"country_code":"SI","country_name":"Slovenia","state_code":"212","type":null,"latitude":"45.95156470","longitude":"15.06209770"},{"id":4237,"Name":"Mirna Peč Municipality","country_id":201,"country_code":"SI","country_name":"Slovenia","state_code":"170","type":null,"latitude":"45.84815740","longitude":"15.08794500"},{"id":4212,"Name":"Mislinja Municipality","country_id":201,"country_code":"SI","country_name":"Slovenia","state_code":"076","type":null,"latitude":"46.44294030","longitude":"15.19876780"},{"id":4297,"Name":"Mokronog–Trebelno Municipality","country_id":201,"country_code":"SI","country_name":"Slovenia","state_code":"199","type":null,"latitude":"45.90885290","longitude":"15.15967360"},{"id":4168,"Name":"Moravče Municipality","country_id":201,"country_code":"SI","country_name":"Slovenia","state_code":"077","type":null,"latitude":"46.13627810","longitude":"14.74600100"},{"id":4218,"Name":"Moravske Toplice Municipality","country_id":201,"country_code":"SI","country_name":"Slovenia","state_code":"078","type":null,"latitude":"46.68569320","longitude":"16.22245820"},{"id":4190,"Name":"Mozirje Municipality","country_id":201,"country_code":"SI","country_name":"Slovenia","state_code":"079","type":null,"latitude":"46.33943500","longitude":"14.96024130"},{"id":4318,"Name":"Municipality of Apače","country_id":201,"country_code":"SI","country_name":"Slovenia","state_code":"195","type":null,"latitude":"46.69746790","longitude":"15.91025340"},{"id":4309,"Name":"Municipality of Cirkulane","country_id":201,"country_code":"SI","country_name":"Slovenia","state_code":"196","type":null,"latitude":"46.32983220","longitude":"15.99806660"},{"id":4344,"Name":"Municipality of Ilirska Bistrica","country_id":201,"country_code":"SI","country_name":"Slovenia","state_code":"038","type":null,"latitude":"45.57913230","longitude":"14.28097290"},{"id":4314,"Name":"Municipality of Krško","country_id":201,"country_code":"SI","country_name":"Slovenia","state_code":"054","type":null,"latitude":"45.95896090","longitude":"15.49235550"},{"id":4187,"Name":"Municipality of Škofljica","country_id":201,"country_code":"SI","country_name":"Slovenia","state_code":"123","type":null,"latitude":"45.98409620","longitude":"14.57466260"},{"id":4313,"Name":"Murska Sobota City Municipality","country_id":201,"country_code":"SI","country_name":"Slovenia","state_code":"080","type":null,"latitude":"46.64321470","longitude":"16.15157540"},{"id":4208,"Name":"Muta Municipality","country_id":201,"country_code":"SI","country_name":"Slovenia","state_code":"081","type":null,"latitude":"46.60973660","longitude":"15.16299950"},{"id":4177,"Name":"Naklo Municipality","country_id":201,"country_code":"SI","country_name":"Slovenia","state_code":"082","type":null,"latitude":"46.27186630","longitude":"14.31569320"},{"id":4329,"Name":"Nazarje Municipality","country_id":201,"country_code":"SI","country_name":"Slovenia","state_code":"083","type":null,"latitude":"46.28217410","longitude":"14.92256290"},{"id":4205,"Name":"Nova Gorica City Municipality","country_id":201,"country_code":"SI","country_name":"Slovenia","state_code":"084","type":null,"latitude":"45.97627600","longitude":"13.73088810"},{"id":4320,"Name":"Odranci Municipality","country_id":201,"country_code":"SI","country_name":"Slovenia","state_code":"086","type":null,"latitude":"46.59010170","longitude":"16.27881650"},{"id":4143,"Name":"Oplotnica","country_id":201,"country_code":"SI","country_name":"Slovenia","state_code":"171","type":null,"latitude":"46.38716300","longitude":"15.44581310"},{"id":4221,"Name":"Ormož Municipality","country_id":201,"country_code":"SI","country_name":"Slovenia","state_code":"087","type":null,"latitude":"46.43533330","longitude":"16.15437400"},{"id":4199,"Name":"Osilnica Municipality","country_id":201,"country_code":"SI","country_name":"Slovenia","state_code":"088","type":null,"latitude":"45.54184670","longitude":"14.71563030"},{"id":4172,"Name":"Pesnica Municipality","country_id":201,"country_code":"SI","country_name":"Slovenia","state_code":"089","type":null,"latitude":"46.60887550","longitude":"15.67570510"},{"id":4201,"Name":"Piran Municipality","country_id":201,"country_code":"SI","country_name":"Slovenia","state_code":"090","type":null,"latitude":"45.52888560","longitude":"13.56807350"},{"id":4184,"Name":"Pivka Municipality","country_id":201,"country_code":"SI","country_name":"Slovenia","state_code":"091","type":null,"latitude":"45.67892960","longitude":"14.25426890"},{"id":4146,"Name":"Podčetrtek Municipality","country_id":201,"country_code":"SI","country_name":"Slovenia","state_code":"092","type":null,"latitude":"46.17395420","longitude":"15.60138160"},{"id":4161,"Name":"Podlehnik Municipality","country_id":201,"country_code":"SI","country_name":"Slovenia","state_code":"172","type":null,"latitude":"46.33107820","longitude":"15.87858360"},{"id":4234,"Name":"Podvelka Municipality","country_id":201,"country_code":"SI","country_name":"Slovenia","state_code":"093","type":null,"latitude":"46.62219520","longitude":"15.38899220"},{"id":4239,"Name":"Poljčane Municipality","country_id":201,"country_code":"SI","country_name":"Slovenia","state_code":"200","type":null,"latitude":"46.31398530","longitude":"15.57847910"},{"id":4272,"Name":"Polzela Municipality","country_id":201,"country_code":"SI","country_name":"Slovenia","state_code":"173","type":null,"latitude":"46.28089700","longitude":"15.07373210"},{"id":4330,"Name":"Postojna Municipality","country_id":201,"country_code":"SI","country_name":"Slovenia","state_code":"094","type":null,"latitude":"45.77493900","longitude":"14.21342630"},{"id":4188,"Name":"Prebold Municipality","country_id":201,"country_code":"SI","country_name":"Slovenia","state_code":"174","type":null,"latitude":"46.23591360","longitude":"15.09369120"},{"id":4303,"Name":"Preddvor Municipality","country_id":201,"country_code":"SI","country_name":"Slovenia","state_code":"095","type":null,"latitude":"46.30171390","longitude":"14.42181650"},{"id":4274,"Name":"Prevalje Municipality","country_id":201,"country_code":"SI","country_name":"Slovenia","state_code":"175","type":null,"latitude":"46.56211460","longitude":"14.88478610"},{"id":4228,"Name":"Ptuj City Municipality","country_id":201,"country_code":"SI","country_name":"Slovenia","state_code":"096","type":null,"latitude":"46.41995350","longitude":"15.86968840"},{"id":4288,"Name":"Puconci Municipality","country_id":201,"country_code":"SI","country_name":"Slovenia","state_code":"097","type":null,"latitude":"46.72004180","longitude":"16.09977920"},{"id":4204,"Name":"Rače–Fram Municipality","country_id":201,"country_code":"SI","country_name":"Slovenia","state_code":"098","type":null,"latitude":"46.45420830","longitude":"15.63294670"},{"id":4195,"Name":"Radeče Municipality","country_id":201,"country_code":"SI","country_name":"Slovenia","state_code":"099","type":null,"latitude":"46.06669540","longitude":"15.18204380"},{"id":4292,"Name":"Radenci Municipality","country_id":201,"country_code":"SI","country_name":"Slovenia","state_code":"100","type":null,"latitude":"46.62311210","longitude":"16.05069030"},{"id":4275,"Name":"Radlje ob Dravi Municipality","country_id":201,"country_code":"SI","country_name":"Slovenia","state_code":"101","type":null,"latitude":"46.61357320","longitude":"15.23544380"},{"id":4231,"Name":"Radovljica Municipality","country_id":201,"country_code":"SI","country_name":"Slovenia","state_code":"102","type":null,"latitude":"46.33558270","longitude":"14.20945340"},{"id":4155,"Name":"Ravne na Koroškem Municipality","country_id":201,"country_code":"SI","country_name":"Slovenia","state_code":"103","type":null,"latitude":"46.55211940","longitude":"14.95990840"},{"id":4206,"Name":"Razkrižje Municipality","country_id":201,"country_code":"SI","country_name":"Slovenia","state_code":"176","type":null,"latitude":"46.52263390","longitude":"16.26686380"},{"id":4160,"Name":"Rečica ob Savinji Municipality","country_id":201,"country_code":"SI","country_name":"Slovenia","state_code":"209","type":null,"latitude":"46.32337900","longitude":"14.92236700"},{"id":4253,"Name":"Renče–Vogrsko Municipality","country_id":201,"country_code":"SI","country_name":"Slovenia","state_code":"201","type":null,"latitude":"45.89546170","longitude":"13.67856730"},{"id":4235,"Name":"Ribnica Municipality","country_id":201,"country_code":"SI","country_name":"Slovenia","state_code":"104","type":null,"latitude":"45.74003030","longitude":"14.72657820"},{"id":4207,"Name":"Ribnica na Pohorju Municipality","country_id":201,"country_code":"SI","country_name":"Slovenia","state_code":"177","type":null,"latitude":"46.53561450","longitude":"15.26745380"},{"id":4233,"Name":"Rogaška Slatina Municipality","country_id":201,"country_code":"SI","country_name":"Slovenia","state_code":"106","type":null,"latitude":"46.24539730","longitude":"15.62650140"},{"id":4264,"Name":"Rogašovci Municipality","country_id":201,"country_code":"SI","country_name":"Slovenia","state_code":"105","type":null,"latitude":"46.80557850","longitude":"16.03452370"},{"id":4209,"Name":"Rogatec Municipality","country_id":201,"country_code":"SI","country_name":"Slovenia","state_code":"107","type":null,"latitude":"46.22866260","longitude":"15.69913380"},{"id":4280,"Name":"Ruše Municipality","country_id":201,"country_code":"SI","country_name":"Slovenia","state_code":"108","type":null,"latitude":"46.52062650","longitude":"15.48178690"},{"id":4222,"Name":"Šalovci Municipality","country_id":201,"country_code":"SI","country_name":"Slovenia","state_code":"033","type":null,"latitude":"46.85335680","longitude":"16.25917910"},{"id":4230,"Name":"Selnica ob Dravi Municipality","country_id":201,"country_code":"SI","country_name":"Slovenia","state_code":"178","type":null,"latitude":"46.55139180","longitude":"15.49294100"},{"id":4346,"Name":"Semič Municipality","country_id":201,"country_code":"SI","country_name":"Slovenia","state_code":"109","type":null,"latitude":"45.65205340","longitude":"15.18207010"},{"id":4317,"Name":"Šempeter–Vrtojba Municipality","country_id":201,"country_code":"SI","country_name":"Slovenia","state_code":"183","type":null,"latitude":"45.92900950","longitude":"13.64155940"},{"id":4299,"Name":"Šenčur Municipality","country_id":201,"country_code":"SI","country_name":"Slovenia","state_code":"117","type":null,"latitude":"46.24336990","longitude":"14.41922230"},{"id":4324,"Name":"Šentilj Municipality","country_id":201,"country_code":"SI","country_name":"Slovenia","state_code":"118","type":null,"latitude":"46.68628390","longitude":"15.71035670"},{"id":4241,"Name":"Šentjernej Municipality","country_id":201,"country_code":"SI","country_name":"Slovenia","state_code":"119","type":null,"latitude":"45.84341300","longitude":"15.33783120"},{"id":4171,"Name":"Šentjur Municipality","country_id":201,"country_code":"SI","country_name":"Slovenia","state_code":"120","type":null,"latitude":"46.26543390","longitude":"15.40800000"},{"id":4311,"Name":"Šentrupert Municipality","country_id":201,"country_code":"SI","country_name":"Slovenia","state_code":"211","type":null,"latitude":"45.98731420","longitude":"15.08297830"},{"id":4268,"Name":"Sevnica Municipality","country_id":201,"country_code":"SI","country_name":"Slovenia","state_code":"110","type":null,"latitude":"46.00703170","longitude":"15.30456790"},{"id":4149,"Name":"Sežana Municipality","country_id":201,"country_code":"SI","country_name":"Slovenia","state_code":"111","type":null,"latitude":"45.72751090","longitude":"13.86619310"},{"id":4170,"Name":"Škocjan Municipality","country_id":201,"country_code":"SI","country_name":"Slovenia","state_code":"121","type":null,"latitude":"45.91754540","longitude":"15.31017360"},{"id":4316,"Name":"Škofja Loka Municipality","country_id":201,"country_code":"SI","country_name":"Slovenia","state_code":"122","type":null,"latitude":"46.14098440","longitude":"14.28118730"},{"id":4169,"Name":"Slovenj Gradec City Municipality","country_id":201,"country_code":"SI","country_name":"Slovenia","state_code":"112","type":null,"latitude":"46.48777180","longitude":"15.07294780"},{"id":4332,"Name":"Slovenska Bistrica Municipality","country_id":201,"country_code":"SI","country_name":"Slovenia","state_code":"113","type":null,"latitude":"46.39198130","longitude":"15.57278690"},{"id":4198,"Name":"Slovenske Konjice Municipality","country_id":201,"country_code":"SI","country_name":"Slovenia","state_code":"114","type":null,"latitude":"46.33691910","longitude":"15.42147080"},{"id":4285,"Name":"Šmarje pri Jelšah Municipality","country_id":201,"country_code":"SI","country_name":"Slovenia","state_code":"124","type":null,"latitude":"46.22870250","longitude":"15.51903530"},{"id":4289,"Name":"Šmarješke Toplice Municipality","country_id":201,"country_code":"SI","country_name":"Slovenia","state_code":"206","type":null,"latitude":"45.86803770","longitude":"15.23474220"},{"id":4296,"Name":"Šmartno ob Paki Municipality","country_id":201,"country_code":"SI","country_name":"Slovenia","state_code":"125","type":null,"latitude":"46.32903720","longitude":"15.03339370"},{"id":4279,"Name":"Šmartno pri Litiji Municipality","country_id":201,"country_code":"SI","country_name":"Slovenia","state_code":"194","type":null,"latitude":"46.04549710","longitude":"14.84101330"},{"id":4277,"Name":"Sodražica Municipality","country_id":201,"country_code":"SI","country_name":"Slovenia","state_code":"179","type":null,"latitude":"45.76165650","longitude":"14.63528530"},{"id":4261,"Name":"Solčava Municipality","country_id":201,"country_code":"SI","country_name":"Slovenia","state_code":"180","type":null,"latitude":"46.40235260","longitude":"14.68023040"},{"id":4248,"Name":"Šoštanj Municipality","country_id":201,"country_code":"SI","country_name":"Slovenia","state_code":"126","type":null,"latitude":"46.37828360","longitude":"15.04613780"},{"id":4263,"Name":"Središče ob Dravi","country_id":201,"country_code":"SI","country_name":"Slovenia","state_code":"202","type":null,"latitude":"46.39592820","longitude":"16.27049150"},{"id":4259,"Name":"Starše Municipality","country_id":201,"country_code":"SI","country_name":"Slovenia","state_code":"115","type":null,"latitude":"46.46743310","longitude":"15.76405460"},{"id":4185,"Name":"Štore Municipality","country_id":201,"country_code":"SI","country_name":"Slovenia","state_code":"127","type":null,"latitude":"46.22225140","longitude":"15.31261160"},{"id":4333,"Name":"Straža Municipality","country_id":201,"country_code":"SI","country_name":"Slovenia","state_code":"203","type":null,"latitude":"45.77684280","longitude":"15.09486940"},{"id":4164,"Name":"Sveta Ana Municipality","country_id":201,"country_code":"SI","country_name":"Slovenia","state_code":"181","type":null,"latitude":"46.65000000","longitude":"15.84527800"},{"id":4260,"Name":"Sveta Trojica v Slovenskih Goricah Municipality","country_id":201,"country_code":"SI","country_name":"Slovenia","state_code":"204","type":null,"latitude":"46.56808090","longitude":"15.88230640"},{"id":4229,"Name":"Sveti Andraž v Slovenskih Goricah Municipality","country_id":201,"country_code":"SI","country_name":"Slovenia","state_code":"182","type":null,"latitude":"46.51897470","longitude":"15.94982620"},{"id":4255,"Name":"Sveti Jurij ob Ščavnici Municipality","country_id":201,"country_code":"SI","country_name":"Slovenia","state_code":"116","type":null,"latitude":"46.56874520","longitude":"16.02225280"},{"id":4328,"Name":"Sveti Jurij v Slovenskih Goricah Municipality","country_id":201,"country_code":"SI","country_name":"Slovenia","state_code":"210","type":null,"latitude":"46.61707910","longitude":"15.78046770"},{"id":4273,"Name":"Sveti Tomaž Municipality","country_id":201,"country_code":"SI","country_name":"Slovenia","state_code":"205","type":null,"latitude":"46.48352830","longitude":"16.07944200"},{"id":4194,"Name":"Tabor Municipality","country_id":201,"country_code":"SI","country_name":"Slovenia","state_code":"184","type":null,"latitude":"46.21079210","longitude":"15.01742490"},{"id":4312,"Name":"Tišina Municipality","country_id":201,"country_code":"SI","country_name":"Slovenia","state_code":"010","type":null,"latitude":"46.65418840","longitude":"16.07547810"},{"id":4247,"Name":"Tolmin Municipality","country_id":201,"country_code":"SI","country_name":"Slovenia","state_code":"128","type":null,"latitude":"46.18571880","longitude":"13.73198380"},{"id":4246,"Name":"Trbovlje Municipality","country_id":201,"country_code":"SI","country_name":"Slovenia","state_code":"129","type":null,"latitude":"46.15035630","longitude":"15.04531370"},{"id":4214,"Name":"Trebnje Municipality","country_id":201,"country_code":"SI","country_name":"Slovenia","state_code":"130","type":null,"latitude":"45.90801630","longitude":"15.01319050"},{"id":4153,"Name":"Trnovska Vas Municipality","country_id":201,"country_code":"SI","country_name":"Slovenia","state_code":"185","type":null,"latitude":"46.52940350","longitude":"15.88531180"},{"id":4250,"Name":"Tržič Municipality","country_id":201,"country_code":"SI","country_name":"Slovenia","state_code":"131","type":null,"latitude":"46.35935140","longitude":"14.30066230"},{"id":4334,"Name":"Trzin Municipality","country_id":201,"country_code":"SI","country_name":"Slovenia","state_code":"186","type":null,"latitude":"46.12982410","longitude":"14.55776370"},{"id":4251,"Name":"Turnišče Municipality","country_id":201,"country_code":"SI","country_name":"Slovenia","state_code":"132","type":null,"latitude":"46.61375040","longitude":"16.32021000"},{"id":4267,"Name":"Velika Polana Municipality","country_id":201,"country_code":"SI","country_name":"Slovenia","state_code":"187","type":null,"latitude":"46.57317150","longitude":"16.34441260"},{"id":4144,"Name":"Velike Lašče Municipality","country_id":201,"country_code":"SI","country_name":"Slovenia","state_code":"134","type":null,"latitude":"45.83365910","longitude":"14.63623630"},{"id":4257,"Name":"Veržej Municipality","country_id":201,"country_code":"SI","country_name":"Slovenia","state_code":"188","type":null,"latitude":"46.58411350","longitude":"16.16208000"},{"id":4300,"Name":"Videm Municipality","country_id":201,"country_code":"SI","country_name":"Slovenia","state_code":"135","type":null,"latitude":"46.36383300","longitude":"15.87812120"},{"id":4196,"Name":"Vipava Municipality","country_id":201,"country_code":"SI","country_name":"Slovenia","state_code":"136","type":null,"latitude":"45.84126740","longitude":"13.96096130"},{"id":4148,"Name":"Vitanje Municipality","country_id":201,"country_code":"SI","country_name":"Slovenia","state_code":"137","type":null,"latitude":"46.38153230","longitude":"15.29506870"},{"id":4154,"Name":"Vodice Municipality","country_id":201,"country_code":"SI","country_name":"Slovenia","state_code":"138","type":null,"latitude":"46.18966430","longitude":"14.49385390"},{"id":4245,"Name":"Vojnik Municipality","country_id":201,"country_code":"SI","country_name":"Slovenia","state_code":"139","type":null,"latitude":"46.29205810","longitude":"15.30205800"},{"id":4163,"Name":"Vransko Municipality","country_id":201,"country_code":"SI","country_name":"Slovenia","state_code":"189","type":null,"latitude":"46.23900600","longitude":"14.95272490"},{"id":4262,"Name":"Vrhnika Municipality","country_id":201,"country_code":"SI","country_name":"Slovenia","state_code":"140","type":null,"latitude":"45.95027190","longitude":"14.32764220"},{"id":4226,"Name":"Vuzenica Municipality","country_id":201,"country_code":"SI","country_name":"Slovenia","state_code":"141","type":null,"latitude":"46.59808360","longitude":"15.16572370"},{"id":4269,"Name":"Zagorje ob Savi Municipality","country_id":201,"country_code":"SI","country_name":"Slovenia","state_code":"142","type":null,"latitude":"46.13452020","longitude":"14.99643840"},{"id":4258,"Name":"Žalec Municipality","country_id":201,"country_code":"SI","country_name":"Slovenia","state_code":"190","type":null,"latitude":"46.25197120","longitude":"15.16500720"},{"id":4182,"Name":"Zavrč Municipality","country_id":201,"country_code":"SI","country_name":"Slovenia","state_code":"143","type":null,"latitude":"46.35713000","longitude":"16.04777470"},{"id":4256,"Name":"Železniki Municipality","country_id":201,"country_code":"SI","country_name":"Slovenia","state_code":"146","type":null,"latitude":"46.22563770","longitude":"14.16936170"},{"id":4249,"Name":"Žetale Municipality","country_id":201,"country_code":"SI","country_name":"Slovenia","state_code":"191","type":null,"latitude":"46.27428330","longitude":"15.79133590"},{"id":4192,"Name":"Žiri Municipality","country_id":201,"country_code":"SI","country_name":"Slovenia","state_code":"147","type":null,"latitude":"46.04724990","longitude":"14.10984510"},{"id":4276,"Name":"Žirovnica Municipality","country_id":201,"country_code":"SI","country_name":"Slovenia","state_code":"192","type":null,"latitude":"46.39544030","longitude":"14.15396320"},{"id":4342,"Name":"Zreče Municipality","country_id":201,"country_code":"SI","country_name":"Slovenia","state_code":"144","type":null,"latitude":"46.41777860","longitude":"15.37094310"},{"id":4307,"Name":"Žužemberk Municipality","country_id":201,"country_code":"SI","country_name":"Slovenia","state_code":"193","type":null,"latitude":"45.82003500","longitude":"14.95359190"}]