[{"id":3951,"Name":"Funafuti","country_id":228,"country_code":"TV","country_name":"Tuvalu","state_code":"FUN","type":null,"latitude":"-8.52114710","longitude":"179.19619260"},{"id":3947,"Name":"Nanumanga","country_id":228,"country_code":"TV","country_name":"Tuvalu","state_code":"NMG","type":null,"latitude":"-6.28580190","longitude":"176.31992800"},{"id":3949,"Name":"Nanumea","country_id":228,"country_code":"TV","country_name":"Tuvalu","state_code":"NMA","type":null,"latitude":"-5.68816170","longitude":"176.13701480"},{"id":3946,"Name":"Niutao Island Council","country_id":228,"country_code":"TV","country_name":"Tuvalu","state_code":"NIT","type":null,"latitude":"-6.10642580","longitude":"177.34384290"},{"id":3948,"Name":"Nui","country_id":228,"country_code":"TV","country_name":"Tuvalu","state_code":"NUI","type":null,"latitude":"-7.23887680","longitude":"177.14852320"},{"id":3952,"Name":"Nukufetau","country_id":228,"country_code":"TV","country_name":"Tuvalu","state_code":"NKF","type":null,"latitude":"-8.00000000","longitude":"178.50000000"},{"id":3953,"Name":"Nukulaelae","country_id":228,"country_code":"TV","country_name":"Tuvalu","state_code":"NKL","type":null,"latitude":"-9.38111100","longitude":"179.85222200"},{"id":3950,"Name":"Vaitupu","country_id":228,"country_code":"TV","country_name":"Tuvalu","state_code":"VAI","type":null,"latitude":"-7.47673270","longitude":"178.67476750"}]