[{"id":3205,"Name":"Artigas Department","country_id":235,"country_code":"UY","country_name":"Uruguay","state_code":"AR","type":null,"latitude":"-30.61751120","longitude":"-56.95945590"},{"id":3213,"Name":"Canelones Department","country_id":235,"country_code":"UY","country_name":"Uruguay","state_code":"CA","type":null,"latitude":"-34.54087170","longitude":"-55.93076000"},{"id":3211,"Name":"Cerro Largo Department","country_id":235,"country_code":"UY","country_name":"Uruguay","state_code":"CL","type":null,"latitude":"-32.44110320","longitude":"-54.35217530"},{"id":3208,"Name":"Colonia Department","country_id":235,"country_code":"UY","country_name":"Uruguay","state_code":"CO","type":null,"latitude":"-34.12946780","longitude":"-57.66051840"},{"id":3209,"Name":"Durazno Department","country_id":235,"country_code":"UY","country_name":"Uruguay","state_code":"DU","type":null,"latitude":"-33.02324540","longitude":"-56.02846440"},{"id":3203,"Name":"Flores Department","country_id":235,"country_code":"UY","country_name":"Uruguay","state_code":"FS","type":null,"latitude":"-33.57337530","longitude":"-56.89450280"},{"id":3217,"Name":"Florida Department","country_id":235,"country_code":"UY","country_name":"Uruguay","state_code":"FD","type":null,"latitude":"28.03594950","longitude":"-82.45792890"},{"id":3215,"Name":"Lavalleja Department","country_id":235,"country_code":"UY","country_name":"Uruguay","state_code":"LA","type":null,"latitude":"-33.92261750","longitude":"-54.97657940"},{"id":3206,"Name":"Maldonado Department","country_id":235,"country_code":"UY","country_name":"Uruguay","state_code":"MA","type":null,"latitude":"-34.55979320","longitude":"-54.86285520"},{"id":3218,"Name":"Montevideo Department","country_id":235,"country_code":"UY","country_name":"Uruguay","state_code":"MO","type":null,"latitude":"-34.81815870","longitude":"-56.21382560"},{"id":3212,"Name":"Paysandú Department","country_id":235,"country_code":"UY","country_name":"Uruguay","state_code":"PA","type":null,"latitude":"-32.06673660","longitude":"-57.33647890"},{"id":3210,"Name":"Río Negro Department","country_id":235,"country_code":"UY","country_name":"Uruguay","state_code":"RN","type":null,"latitude":"-32.76763560","longitude":"-57.42952070"},{"id":3207,"Name":"Rivera Department","country_id":235,"country_code":"UY","country_name":"Uruguay","state_code":"RV","type":null,"latitude":"-31.48174210","longitude":"-55.24357590"},{"id":3216,"Name":"Rocha Department","country_id":235,"country_code":"UY","country_name":"Uruguay","state_code":"RO","type":null,"latitude":"-33.96900810","longitude":"-54.02148500"},{"id":3220,"Name":"Salto Department","country_id":235,"country_code":"UY","country_name":"Uruguay","state_code":"SA","type":null,"latitude":"-31.38802800","longitude":"-57.96124550"},{"id":3204,"Name":"San José Department","country_id":235,"country_code":"UY","country_name":"Uruguay","state_code":"SJ","type":null,"latitude":"37.34929680","longitude":"-121.90560490"},{"id":3219,"Name":"Soriano Department","country_id":235,"country_code":"UY","country_name":"Uruguay","state_code":"SO","type":null,"latitude":"-33.51027920","longitude":"-57.74981030"},{"id":3221,"Name":"Tacuarembó Department","country_id":235,"country_code":"UY","country_name":"Uruguay","state_code":"TA","type":null,"latitude":"-31.72068370","longitude":"-55.98598870"},{"id":3214,"Name":"Treinta y Tres Department","country_id":235,"country_code":"UY","country_name":"Uruguay","state_code":"TT","type":null,"latitude":"-33.06850860","longitude":"-54.28586270"}]