[{"id":1956,"Name":"Bulawayo Province","country_id":247,"country_code":"ZW","country_name":"Zimbabwe","state_code":"BU","type":null,"latitude":"-20.14895050","longitude":"28.53310380"},{"id":1958,"Name":"Harare Province","country_id":247,"country_code":"ZW","country_name":"Zimbabwe","state_code":"HA","type":null,"latitude":"-17.82162880","longitude":"31.04922590"},{"id":1959,"Name":"Manicaland","country_id":247,"country_code":"ZW","country_name":"Zimbabwe","state_code":"MA","type":null,"latitude":"-18.92163860","longitude":"32.17460500"},{"id":1955,"Name":"Mashonaland Central Province","country_id":247,"country_code":"ZW","country_name":"Zimbabwe","state_code":"MC","type":null,"latitude":"-16.76442950","longitude":"31.07937050"},{"id":1951,"Name":"Mashonaland East Province","country_id":247,"country_code":"ZW","country_name":"Zimbabwe","state_code":"ME","type":null,"latitude":"-18.58716420","longitude":"31.26263660"},{"id":1953,"Name":"Mashonaland West Province","country_id":247,"country_code":"ZW","country_name":"Zimbabwe","state_code":"MW","type":null,"latitude":"-17.48510290","longitude":"29.78892480"},{"id":1960,"Name":"Masvingo Province","country_id":247,"country_code":"ZW","country_name":"Zimbabwe","state_code":"MV","type":null,"latitude":"-20.62415090","longitude":"31.26263660"},{"id":1954,"Name":"Matabeleland North Province","country_id":247,"country_code":"ZW","country_name":"Zimbabwe","state_code":"MN","type":null,"latitude":"-18.53315660","longitude":"27.54958460"},{"id":1952,"Name":"Matabeleland South Province","country_id":247,"country_code":"ZW","country_name":"Zimbabwe","state_code":"MS","type":null,"latitude":"-21.05233700","longitude":"29.04599270"},{"id":1957,"Name":"Midlands Province","country_id":247,"country_code":"ZW","country_name":"Zimbabwe","state_code":"MI","type":null,"latitude":"-19.05520090","longitude":"29.60354950"}]