[{"id":135150,"Name":"Ābyek","state_id":3916,"state_code":"00","state_name":"Markazi","country_id":103,"country_code":"IR","country_name":"Iran","latitude":"36.06667000","longitude":"50.55000000","wikiDataId":"Q862554"},{"id":134571,"Name":"Arāk","state_id":3916,"state_code":"00","state_name":"Markazi","country_id":103,"country_code":"IR","country_name":"Iran","latitude":"34.09493000","longitude":"49.69809000","wikiDataId":"Q212628"},{"id":134620,"Name":"Delījān","state_id":3916,"state_code":"00","state_name":"Markazi","country_id":103,"country_code":"IR","country_name":"Iran","latitude":"33.99050000","longitude":"50.68380000","wikiDataId":"Q888740"},{"id":134671,"Name":"Khomeyn","state_id":3916,"state_code":"00","state_name":"Markazi","country_id":103,"country_code":"IR","country_name":"Iran","latitude":"33.63889000","longitude":"50.08003000","wikiDataId":"Q720750"},{"id":134681,"Name":"Komījān","state_id":3916,"state_code":"00","state_name":"Markazi","country_id":103,"country_code":"IR","country_name":"Iran","latitude":"34.72142000","longitude":"49.32653000","wikiDataId":"Q2620904"},{"id":135121,"Name":"Sāveh","state_id":3916,"state_code":"00","state_name":"Markazi","country_id":103,"country_code":"IR","country_name":"Iran","latitude":"35.02130000","longitude":"50.35660000","wikiDataId":"Q765518"},{"id":134796,"Name":"Shahrestān-e Arāk","state_id":3916,"state_code":"00","state_name":"Markazi","country_id":103,"country_code":"IR","country_name":"Iran","latitude":"34.13333000","longitude":"49.80000000","wikiDataId":"Q498106"},{"id":135085,"Name":"Shahrestān-e Āshtīān","state_id":3916,"state_code":"00","state_name":"Markazi","country_id":103,"country_code":"IR","country_name":"Iran","latitude":"34.45000000","longitude":"50.05000000","wikiDataId":"Q1277854"},{"id":134849,"Name":"Shahrestān-e Delījān","state_id":3916,"state_code":"00","state_name":"Markazi","country_id":103,"country_code":"IR","country_name":"Iran","latitude":"34.03333000","longitude":"50.76667000","wikiDataId":"Q498106"},{"id":134865,"Name":"Shahrestān-e Farahān","state_id":3916,"state_code":"00","state_name":"Markazi","country_id":103,"country_code":"IR","country_name":"Iran","latitude":"34.60000000","longitude":"49.63333000","wikiDataId":"Q1277889"},{"id":134918,"Name":"Shahrestān-e Khondāb","state_id":3916,"state_code":"00","state_name":"Markazi","country_id":103,"country_code":"IR","country_name":"Iran","latitude":"34.36667000","longitude":"49.18333000","wikiDataId":"Q1264551"},{"id":134929,"Name":"Shahrestān-e Komījān","state_id":3916,"state_code":"00","state_name":"Markazi","country_id":103,"country_code":"IR","country_name":"Iran","latitude":"34.76667000","longitude":"49.33333000","wikiDataId":"Q1264551"},{"id":134959,"Name":"Shahrestān-e Maḩallāt","state_id":3916,"state_code":"00","state_name":"Markazi","country_id":103,"country_code":"IR","country_name":"Iran","latitude":"33.91667000","longitude":"50.41667000","wikiDataId":"Q1264551"},{"id":135050,"Name":"Shahrestān-e Sāveh","state_id":3916,"state_code":"00","state_name":"Markazi","country_id":103,"country_code":"IR","country_name":"Iran","latitude":"35.10000000","longitude":"49.98333000","wikiDataId":"Q1286233"},{"id":135044,"Name":"Shahrestān-e Shāzand","state_id":3916,"state_code":"00","state_name":"Markazi","country_id":103,"country_code":"IR","country_name":"Iran","latitude":"33.90000000","longitude":"49.30000000","wikiDataId":"Q1286233"},{"id":135072,"Name":"Shahrestān-e Zarandīyeh","state_id":3916,"state_code":"00","state_name":"Markazi","country_id":103,"country_code":"IR","country_name":"Iran","latitude":"35.36667000","longitude":"50.33333000","wikiDataId":"Q1286247"},{"id":135126,"Name":"Tafresh","state_id":3916,"state_code":"00","state_name":"Markazi","country_id":103,"country_code":"IR","country_name":"Iran","latitude":"34.69307000","longitude":"50.01601000","wikiDataId":"Q614236"}]