[{"id":107063,"Name":"Adana","state_id":2212,"state_code":"01","state_name":"Adana","country_id":225,"country_code":"TR","country_name":"Turkey","latitude":"37.00167000","longitude":"35.32889000","wikiDataId":"Q38545"},{"id":107120,"Name":"Aladağ","state_id":2212,"state_code":"01","state_name":"Adana","country_id":225,"country_code":"TR","country_name":"Turkey","latitude":"37.55854000","longitude":"35.40196000","wikiDataId":"Q911286"},{"id":107258,"Name":"Bahçe","state_id":2212,"state_code":"01","state_name":"Adana","country_id":225,"country_code":"TR","country_name":"Turkey","latitude":"37.19724000","longitude":"36.57658000","wikiDataId":"Q4840734"},{"id":107427,"Name":"Ceyhan","state_id":2212,"state_code":"01","state_name":"Adana","country_id":225,"country_code":"TR","country_name":"Turkey","latitude":"37.02472000","longitude":"35.81750000","wikiDataId":"Q185346"},{"id":108848,"Name":"Çukurova","state_id":2212,"state_code":"01","state_name":"Adana","country_id":225,"country_code":"TR","country_name":"Turkey","latitude":"37.05627000","longitude":"35.13119000","wikiDataId":"Q272948"},{"id":107635,"Name":"Feke","state_id":2212,"state_code":"01","state_name":"Adana","country_id":225,"country_code":"TR","country_name":"Turkey","latitude":"37.82405000","longitude":"35.91826000","wikiDataId":"Q1430807"},{"id":108893,"Name":"İmamoğlu","state_id":2212,"state_code":"01","state_name":"Adana","country_id":225,"country_code":"TR","country_name":"Turkey","latitude":"37.27500000","longitude":"35.66649000","wikiDataId":"Q2082058"},{"id":107896,"Name":"Karaisalı","state_id":2212,"state_code":"01","state_name":"Adana","country_id":225,"country_code":"TR","country_name":"Turkey","latitude":"37.26655000","longitude":"35.05033000","wikiDataId":"Q533294"},{"id":107918,"Name":"Karataş","state_id":2212,"state_code":"01","state_name":"Adana","country_id":225,"country_code":"TR","country_name":"Turkey","latitude":"36.57186000","longitude":"35.36784000","wikiDataId":"Q1012874"},{"id":108033,"Name":"Kozan","state_id":2212,"state_code":"01","state_name":"Adana","country_id":225,"country_code":"TR","country_name":"Turkey","latitude":"37.50000000","longitude":"35.75000000","wikiDataId":"Q926426"},{"id":108349,"Name":"Pozantı","state_id":2212,"state_code":"01","state_name":"Adana","country_id":225,"country_code":"TR","country_name":"Turkey","latitude":"37.43671000","longitude":"34.88057000","wikiDataId":"Q1004432"},{"id":108374,"Name":"Saimbeyli","state_id":2212,"state_code":"01","state_name":"Adana","country_id":225,"country_code":"TR","country_name":"Turkey","latitude":"37.99615000","longitude":"36.09909000","wikiDataId":"Q1017381"},{"id":108414,"Name":"Sarıçam","state_id":2212,"state_code":"01","state_name":"Adana","country_id":225,"country_code":"TR","country_name":"Turkey","latitude":"37.14971000","longitude":"35.50949000","wikiDataId":"Q1430729"},{"id":108452,"Name":"Seyhan","state_id":2212,"state_code":"01","state_name":"Adana","country_id":225,"country_code":"TR","country_name":"Turkey","latitude":"36.95540000","longitude":"35.21637000","wikiDataId":"Q532164"},{"id":108597,"Name":"Tufanbeyli","state_id":2212,"state_code":"01","state_name":"Adana","country_id":225,"country_code":"TR","country_name":"Turkey","latitude":"38.27343000","longitude":"36.22731000","wikiDataId":"Q45301"},{"id":108737,"Name":"Yumurtalık","state_id":2212,"state_code":"01","state_name":"Adana","country_id":225,"country_code":"TR","country_name":"Turkey","latitude":"36.78245000","longitude":"35.79949000","wikiDataId":"Q210292"},{"id":108745,"Name":"Yüreğir","state_id":2212,"state_code":"01","state_name":"Adana","country_id":225,"country_code":"TR","country_name":"Turkey","latitude":"36.99205000","longitude":"35.45402000","wikiDataId":"Q765123"}]