[{"id":62305,"Name":"Allman Town","state_id":3748,"state_code":"01","state_name":"Kingston Parish","country_id":108,"country_code":"JM","country_name":"Jamaica","latitude":"17.98297000","longitude":"-76.78685000","wikiDataId":"Q4732659"},{"id":62380,"Name":"Bournemouth Gardens","state_id":3748,"state_code":"01","state_name":"Kingston Parish","country_id":108,"country_code":"JM","country_name":"Jamaica","latitude":"17.97009000","longitude":"-76.76266000","wikiDataId":"Q890358"},{"id":62416,"Name":"Campbell Town","state_id":3748,"state_code":"01","state_name":"Kingston Parish","country_id":108,"country_code":"JM","country_name":"Jamaica","latitude":"17.97914000","longitude":"-76.78134000","wikiDataId":"Q1001895"},{"id":62439,"Name":"Central Down Town","state_id":3748,"state_code":"01","state_name":"Kingston Parish","country_id":108,"country_code":"JM","country_name":"Jamaica","latitude":"17.96958000","longitude":"-76.79264000","wikiDataId":"Q1001895"},{"id":62498,"Name":"D'Aguilar Town/ Rennock Lodge","state_id":3748,"state_code":"01","state_name":"Kingston Parish","country_id":108,"country_code":"JM","country_name":"Jamaica","latitude":"17.97001000","longitude":"-76.73701000","wikiDataId":"Q1127696"},{"id":62509,"Name":"Denham Town","state_id":3748,"state_code":"01","state_name":"Kingston Parish","country_id":108,"country_code":"JM","country_name":"Jamaica","latitude":"17.97812000","longitude":"-76.79984000","wikiDataId":"Q1166379"},{"id":62530,"Name":"East Down Town","state_id":3748,"state_code":"01","state_name":"Kingston Parish","country_id":108,"country_code":"JM","country_name":"Jamaica","latitude":"17.97197000","longitude":"-76.78471000","wikiDataId":"Q1265469"},{"id":62558,"Name":"Fletchers Land","state_id":3748,"state_code":"01","state_name":"Kingston Parish","country_id":108,"country_code":"JM","country_name":"Jamaica","latitude":"17.97968000","longitude":"-76.79100000","wikiDataId":"Q1394786"},{"id":62567,"Name":"Franklyn Town","state_id":3748,"state_code":"01","state_name":"Kingston Parish","country_id":108,"country_code":"JM","country_name":"Jamaica","latitude":"17.97787000","longitude":"-76.77339000","wikiDataId":"Q1394786"},{"id":62629,"Name":"Hannah Town/ Craig Town","state_id":3748,"state_code":"01","state_name":"Kingston Parish","country_id":108,"country_code":"JM","country_name":"Jamaica","latitude":"17.97998000","longitude":"-76.79430000","wikiDataId":"Q1423367"},{"id":62679,"Name":"Johnson Town","state_id":3748,"state_code":"01","state_name":"Kingston Parish","country_id":108,"country_code":"JM","country_name":"Jamaica","latitude":"17.97771000","longitude":"-76.75593000","wikiDataId":"Q1008008"},{"id":62691,"Name":"Kingston","state_id":3748,"state_code":"01","state_name":"Kingston Parish","country_id":108,"country_code":"JM","country_name":"Jamaica","latitude":"17.99702000","longitude":"-76.79358000","wikiDataId":"Q34692"},{"id":62692,"Name":"Kingston Gardens","state_id":3748,"state_code":"01","state_name":"Kingston Parish","country_id":108,"country_code":"JM","country_name":"Jamaica","latitude":"17.97836000","longitude":"-76.78681000","wikiDataId":"Q34692"},{"id":62748,"Name":"Manley Meadows","state_id":3748,"state_code":"01","state_name":"Kingston Parish","country_id":108,"country_code":"JM","country_name":"Jamaica","latitude":"17.96907000","longitude":"-76.77116000","wikiDataId":"Q1807660"},{"id":62825,"Name":"Newport East","state_id":3748,"state_code":"01","state_name":"Kingston Parish","country_id":108,"country_code":"JM","country_name":"Jamaica","latitude":"17.97421000","longitude":"-76.80663000","wikiDataId":"Q3338970"},{"id":62827,"Name":"Newton Square","state_id":3748,"state_code":"01","state_name":"Kingston Parish","country_id":108,"country_code":"JM","country_name":"Jamaica","latitude":"17.97352000","longitude":"-76.77207000","wikiDataId":"Q3338970"},{"id":62831,"Name":"Norman Gardens","state_id":3748,"state_code":"01","state_name":"Kingston Parish","country_id":108,"country_code":"JM","country_name":"Jamaica","latitude":"17.97803000","longitude":"-76.75940000","wikiDataId":"Q3338970"},{"id":62866,"Name":"Passmore Town","state_id":3748,"state_code":"01","state_name":"Kingston Parish","country_id":108,"country_code":"JM","country_name":"Jamaica","latitude":"17.97301000","longitude":"-76.77650000","wikiDataId":"Q7099213"},{"id":62895,"Name":"Port Royal","state_id":3748,"state_code":"01","state_name":"Kingston Parish","country_id":108,"country_code":"JM","country_name":"Jamaica","latitude":"17.93738000","longitude":"-76.84062000","wikiDataId":"Q685357"},{"id":62911,"Name":"Rae Town","state_id":3748,"state_code":"01","state_name":"Kingston Parish","country_id":108,"country_code":"JM","country_name":"Jamaica","latitude":"17.96773000","longitude":"-76.77965000","wikiDataId":"Q2125159"},{"id":62949,"Name":"Rollington Town","state_id":3748,"state_code":"01","state_name":"Kingston Parish","country_id":108,"country_code":"JM","country_name":"Jamaica","latitude":"17.97687000","longitude":"-76.76523000","wikiDataId":"Q2125159"},{"id":63005,"Name":"Southside","state_id":3748,"state_code":"01","state_name":"Kingston Parish","country_id":108,"country_code":"JM","country_name":"Jamaica","latitude":"17.96569000","longitude":"-76.78624000","wikiDataId":"Q305508"},{"id":63016,"Name":"Springfield","state_id":3748,"state_code":"01","state_name":"Kingston Parish","country_id":108,"country_code":"JM","country_name":"Jamaica","latitude":"17.97117000","longitude":"-76.75607000","wikiDataId":"Q846939"},{"id":63052,"Name":"Tivoli Gardens","state_id":3748,"state_code":"01","state_name":"Kingston Parish","country_id":108,"country_code":"JM","country_name":"Jamaica","latitude":"17.97326000","longitude":"-76.80090000","wikiDataId":"Q1651059"},{"id":63096,"Name":"West Down Town","state_id":3748,"state_code":"01","state_name":"Kingston Parish","country_id":108,"country_code":"JM","country_name":"Jamaica","latitude":"17.97294000","longitude":"-76.79704000","wikiDataId":"Q1651059"}]