[{"id":135154,"Name":"Āstāneh-ye Ashrafīyeh","state_id":3920,"state_code":"01","state_name":"Gilan","country_id":103,"country_code":"IR","country_name":"Iran","latitude":"37.26318000","longitude":"49.94325000","wikiDataId":"Q331078"},{"id":135155,"Name":"Āstārā","state_id":3920,"state_code":"01","state_name":"Gilan","country_id":103,"country_code":"IR","country_name":"Iran","latitude":"38.42910000","longitude":"48.87200000","wikiDataId":"Q331078"},{"id":134578,"Name":"Bandar-e Anzalī","state_id":3920,"state_code":"01","state_name":"Gilan","country_id":103,"country_code":"IR","country_name":"Iran","latitude":"37.47318000","longitude":"49.45785000","wikiDataId":"Q210885"},{"id":134643,"Name":"Fūman","state_id":3920,"state_code":"01","state_name":"Gilan","country_id":103,"country_code":"IR","country_name":"Iran","latitude":"37.22400000","longitude":"49.31250000","wikiDataId":"Q720952"},{"id":134653,"Name":"Hashtpar","state_id":3920,"state_code":"01","state_name":"Gilan","country_id":103,"country_code":"IR","country_name":"Iran","latitude":"37.79658000","longitude":"48.90521000","wikiDataId":"Q2427450"},{"id":134689,"Name":"Langarūd","state_id":3920,"state_code":"01","state_name":"Gilan","country_id":103,"country_code":"IR","country_name":"Iran","latitude":"37.19548000","longitude":"50.15263000","wikiDataId":"Q721125"},{"id":134730,"Name":"Pādegān-e Manjīl","state_id":3920,"state_code":"01","state_name":"Gilan","country_id":103,"country_code":"IR","country_name":"Iran","latitude":"36.74150000","longitude":"49.41610000","wikiDataId":"Q2556849"},{"id":134749,"Name":"Rasht","state_id":3920,"state_code":"01","state_name":"Gilan","country_id":103,"country_code":"IR","country_name":"Iran","latitude":"37.27611000","longitude":"49.58862000","wikiDataId":"Q178373"},{"id":134753,"Name":"Reẕvānshahr","state_id":3920,"state_code":"01","state_name":"Gilan","country_id":103,"country_code":"IR","country_name":"Iran","latitude":"37.54976000","longitude":"49.13703000","wikiDataId":"Q2630688"},{"id":134761,"Name":"Rūdsar","state_id":3920,"state_code":"01","state_name":"Gilan","country_id":103,"country_code":"IR","country_name":"Iran","latitude":"37.13696000","longitude":"50.29174000","wikiDataId":"Q765726"},{"id":135086,"Name":"Shahrestān-e Āstāneh-ye Ashrafīyeh","state_id":3920,"state_code":"01","state_name":"Gilan","country_id":103,"country_code":"IR","country_name":"Iran","latitude":"37.31667000","longitude":"49.96667000","wikiDataId":"Q1277854"},{"id":135087,"Name":"Shahrestān-e Āstārā","state_id":3920,"state_code":"01","state_name":"Gilan","country_id":103,"country_code":"IR","country_name":"Iran","latitude":"38.33333000","longitude":"48.76667000","wikiDataId":"Q1277854"},{"id":134803,"Name":"Shahrestān-e Bandar-e Anzalī","state_id":3920,"state_code":"01","state_name":"Gilan","country_id":103,"country_code":"IR","country_name":"Iran","latitude":"37.45000000","longitude":"49.36667000","wikiDataId":"Q498106"},{"id":134877,"Name":"Shahrestān-e Fūman","state_id":3920,"state_code":"01","state_name":"Gilan","country_id":103,"country_code":"IR","country_name":"Iran","latitude":"37.16667000","longitude":"49.18333000","wikiDataId":"Q721034"},{"id":134944,"Name":"Shahrestān-e Lāhījān","state_id":3920,"state_code":"01","state_name":"Gilan","country_id":103,"country_code":"IR","country_name":"Iran","latitude":"37.21667000","longitude":"50.01667000","wikiDataId":"Q1264551"},{"id":134941,"Name":"Shahrestān-e Langarūd","state_id":3920,"state_code":"01","state_name":"Gilan","country_id":103,"country_code":"IR","country_name":"Iran","latitude":"37.15000000","longitude":"50.11667000","wikiDataId":"Q1264551"},{"id":134969,"Name":"Shahrestān-e Māsāl","state_id":3920,"state_code":"01","state_name":"Gilan","country_id":103,"country_code":"IR","country_name":"Iran","latitude":"37.35000000","longitude":"48.98333000","wikiDataId":"Q1264551"},{"id":135009,"Name":"Shahrestān-e Reẕvānshahr","state_id":3920,"state_code":"01","state_name":"Gilan","country_id":103,"country_code":"IR","country_name":"Iran","latitude":"37.53333000","longitude":"48.95000000","wikiDataId":"Q5099954"},{"id":135017,"Name":"Shahrestān-e Rūdbār","state_id":3920,"state_code":"01","state_name":"Gilan","country_id":103,"country_code":"IR","country_name":"Iran","latitude":"36.80000000","longitude":"49.60000000","wikiDataId":"Q5099954"},{"id":135019,"Name":"Shahrestān-e Rūdsar","state_id":3920,"state_code":"01","state_name":"Gilan","country_id":103,"country_code":"IR","country_name":"Iran","latitude":"36.86667000","longitude":"50.30000000","wikiDataId":"Q5099954"},{"id":135055,"Name":"Shahrestān-e Sīāhkal","state_id":3920,"state_code":"01","state_name":"Gilan","country_id":103,"country_code":"IR","country_name":"Iran","latitude":"36.93333000","longitude":"49.90000000","wikiDataId":"Q1286233"},{"id":135095,"Name":"Shahrestān-e Şowme‘eh Sarā","state_id":3920,"state_code":"01","state_name":"Gilan","country_id":103,"country_code":"IR","country_name":"Iran","latitude":"37.33333000","longitude":"49.30000000","wikiDataId":"Q1277854"},{"id":135065,"Name":"Shahrestān-e Tālesh","state_id":3920,"state_code":"01","state_name":"Gilan","country_id":103,"country_code":"IR","country_name":"Iran","latitude":"37.90000000","longitude":"48.78333000","wikiDataId":"Q1286247"},{"id":135146,"Name":"Ziabar (Gaskar)","state_id":3920,"state_code":"01","state_name":"Gilan","country_id":103,"country_code":"IR","country_name":"Iran","latitude":"37.42610000","longitude":"49.24590000","wikiDataId":"Q765759"}]