[{"id":67631,"Name":"Bago","state_id":2141,"state_code":"02","state_name":"Bago","country_id":151,"country_code":"MM","country_name":"Myanmar","latitude":"17.33521000","longitude":"96.48135000","wikiDataId":"Q800122"},{"id":67651,"Name":"Letpandan","state_id":2141,"state_code":"02","state_name":"Bago","country_id":151,"country_code":"MM","country_name":"Myanmar","latitude":"17.78664000","longitude":"95.75076000","wikiDataId":"Q24038948"},{"id":67674,"Name":"Nyaunglebin","state_id":2141,"state_code":"02","state_name":"Bago","country_id":151,"country_code":"MM","country_name":"Myanmar","latitude":"17.95363000","longitude":"96.72247000","wikiDataId":"Q11794247"},{"id":67678,"Name":"Paungde","state_id":2141,"state_code":"02","state_name":"Bago","country_id":151,"country_code":"MM","country_name":"Myanmar","latitude":"18.49167000","longitude":"95.50591000","wikiDataId":"Q27697441"},{"id":67681,"Name":"Pyay","state_id":2141,"state_code":"02","state_name":"Bago","country_id":151,"country_code":"MM","country_name":"Myanmar","latitude":"18.82464000","longitude":"95.22216000","wikiDataId":"Q691747"},{"id":67684,"Name":"Pyu","state_id":2141,"state_code":"02","state_name":"Bago","country_id":151,"country_code":"MM","country_name":"Myanmar","latitude":"18.48130000","longitude":"96.43742000","wikiDataId":"Q7263956"},{"id":67694,"Name":"Taungoo","state_id":2141,"state_code":"02","state_name":"Bago","country_id":151,"country_code":"MM","country_name":"Myanmar","latitude":"18.94291000","longitude":"96.43408000","wikiDataId":"Q1193412"},{"id":67695,"Name":"Thanatpin","state_id":2141,"state_code":"02","state_name":"Bago","country_id":151,"country_code":"MM","country_name":"Myanmar","latitude":"17.29136000","longitude":"96.57523000","wikiDataId":"Q1193412"},{"id":67696,"Name":"Tharyarwady","state_id":2141,"state_code":"02","state_name":"Bago","country_id":151,"country_code":"MM","country_name":"Myanmar","latitude":"17.65399000","longitude":"95.78813000","wikiDataId":"Q7710820"}]