[{"id":62316,"Name":"Arcadia","state_id":3751,"state_code":"02","state_name":"Saint Andrew","country_id":108,"country_code":"JM","country_name":"Jamaica","latitude":"18.03737000","longitude":"-76.78201000","wikiDataId":"Q567350"},{"id":62317,"Name":"Arlene Gardens","state_id":3751,"state_code":"02","state_name":"Saint Andrew","country_id":108,"country_code":"JM","country_name":"Jamaica","latitude":"18.03713000","longitude":"-76.81791000","wikiDataId":"Q567350"},{"id":62318,"Name":"Arnett Gardens","state_id":3751,"state_code":"02","state_name":"Saint Andrew","country_id":108,"country_code":"JM","country_name":"Jamaica","latitude":"17.99150000","longitude":"-76.79829000","wikiDataId":"Q567350"},{"id":62324,"Name":"August Town","state_id":3751,"state_code":"02","state_name":"Saint Andrew","country_id":108,"country_code":"JM","country_name":"Jamaica","latitude":"17.99556000","longitude":"-76.73673000","wikiDataId":"Q567350"},{"id":62334,"Name":"Barbican","state_id":3751,"state_code":"02","state_name":"Saint Andrew","country_id":108,"country_code":"JM","country_name":"Jamaica","latitude":"18.03549000","longitude":"-76.76987000","wikiDataId":"Q1880599"},{"id":62357,"Name":"Beverley Hills","state_id":3751,"state_code":"02","state_name":"Saint Andrew","country_id":108,"country_code":"JM","country_name":"Jamaica","latitude":"18.00833000","longitude":"-76.76208000","wikiDataId":"Q4897936"},{"id":62361,"Name":"Bito","state_id":3751,"state_code":"02","state_name":"Saint Andrew","country_id":108,"country_code":"JM","country_name":"Jamaica","latitude":"17.97363000","longitude":"-76.66625000","wikiDataId":"Q4897936"},{"id":62365,"Name":"Bloxborough","state_id":3751,"state_code":"02","state_name":"Saint Andrew","country_id":108,"country_code":"JM","country_name":"Jamaica","latitude":"17.99581000","longitude":"-76.64767000","wikiDataId":"Q880512"},{"id":62377,"Name":"Boucher Park","state_id":3751,"state_code":"02","state_name":"Saint Andrew","country_id":108,"country_code":"JM","country_name":"Jamaica","latitude":"18.00344000","longitude":"-76.81257000","wikiDataId":"Q890358"},{"id":62385,"Name":"Brandon Hill","state_id":3751,"state_code":"02","state_name":"Saint Andrew","country_id":108,"country_code":"JM","country_name":"Jamaica","latitude":"18.14822000","longitude":"-76.80513000","wikiDataId":"Q890358"},{"id":62400,"Name":"Bull Bay/ Seven Mile","state_id":3751,"state_code":"02","state_name":"Saint Andrew","country_id":108,"country_code":"JM","country_name":"Jamaica","latitude":"17.95247000","longitude":"-76.68404000","wikiDataId":"Q1001895"},{"id":62417,"Name":"Cane River","state_id":3751,"state_code":"02","state_name":"Saint Andrew","country_id":108,"country_code":"JM","country_name":"Jamaica","latitude":"17.98098000","longitude":"-76.68624000","wikiDataId":"Q1001895"},{"id":62426,"Name":"Cassia Park","state_id":3751,"state_code":"02","state_name":"Saint Andrew","country_id":108,"country_code":"JM","country_name":"Jamaica","latitude":"18.02047000","longitude":"-76.80665000","wikiDataId":"Q1001895"},{"id":62433,"Name":"Cavaliers","state_id":3751,"state_code":"02","state_name":"Saint Andrew","country_id":108,"country_code":"JM","country_name":"Jamaica","latitude":"18.09677000","longitude":"-76.84321000","wikiDataId":"Q1001895"},{"id":62450,"Name":"Cherry Gardens","state_id":3751,"state_code":"02","state_name":"Saint Andrew","country_id":108,"country_code":"JM","country_name":"Jamaica","latitude":"18.04963000","longitude":"-76.77867000","wikiDataId":"Q5073143"},{"id":62461,"Name":"Cockburn Gardens","state_id":3751,"state_code":"02","state_name":"Saint Andrew","country_id":108,"country_code":"JM","country_name":"Jamaica","latitude":"18.00357000","longitude":"-76.82435000","wikiDataId":"Q5073143"},{"id":62471,"Name":"Constant Spring","state_id":3751,"state_code":"02","state_name":"Saint Andrew","country_id":108,"country_code":"JM","country_name":"Jamaica","latitude":"18.05078000","longitude":"-76.79372000","wikiDataId":"Q1127696"},{"id":62472,"Name":"Constant Spring Gardens","state_id":3751,"state_code":"02","state_name":"Saint Andrew","country_id":108,"country_code":"JM","country_name":"Jamaica","latitude":"18.02942000","longitude":"-76.79956000","wikiDataId":"Q1127696"},{"id":62473,"Name":"Constitution Hill","state_id":3751,"state_code":"02","state_name":"Saint Andrew","country_id":108,"country_code":"JM","country_name":"Jamaica","latitude":"18.01488000","longitude":"-76.70515000","wikiDataId":"Q1127696"},{"id":62476,"Name":"Content Gap","state_id":3751,"state_code":"02","state_name":"Saint Andrew","country_id":108,"country_code":"JM","country_name":"Jamaica","latitude":"18.04082000","longitude":"-76.69070000","wikiDataId":"Q1127696"},{"id":62478,"Name":"Cooreville Gardens","state_id":3751,"state_code":"02","state_name":"Saint Andrew","country_id":108,"country_code":"JM","country_name":"Jamaica","latitude":"18.02244000","longitude":"-76.84852000","wikiDataId":"Q1127696"},{"id":62493,"Name":"Cross Roads","state_id":3751,"state_code":"02","state_name":"Saint Andrew","country_id":108,"country_code":"JM","country_name":"Jamaica","latitude":"17.99454000","longitude":"-76.78810000","wikiDataId":"Q1127696"},{"id":62499,"Name":"Dallas","state_id":3751,"state_code":"02","state_name":"Saint Andrew","country_id":108,"country_code":"JM","country_name":"Jamaica","latitude":"17.98463000","longitude":"-76.71256000","wikiDataId":"Q1127696"},{"id":62506,"Name":"Delacree Park/ Union Gardens","state_id":3751,"state_code":"02","state_name":"Saint Andrew","country_id":108,"country_code":"JM","country_name":"Jamaica","latitude":"17.99210000","longitude":"-76.82240000","wikiDataId":"Q1166379"},{"id":62507,"Name":"Delacree Pen","state_id":3751,"state_code":"02","state_name":"Saint Andrew","country_id":108,"country_code":"JM","country_name":"Jamaica","latitude":"17.99579000","longitude":"-76.81709000","wikiDataId":"Q1166379"},{"id":62519,"Name":"Drewsland","state_id":3751,"state_code":"02","state_name":"Saint Andrew","country_id":108,"country_code":"JM","country_name":"Jamaica","latitude":"18.02381000","longitude":"-76.82626000","wikiDataId":"Q1166379"},{"id":62520,"Name":"Drumblair","state_id":3751,"state_code":"02","state_name":"Saint Andrew","country_id":108,"country_code":"JM","country_name":"Jamaica","latitude":"18.02354000","longitude":"-76.78759000","wikiDataId":"Q1166379"},{"id":62523,"Name":"Duhaney Park","state_id":3751,"state_code":"02","state_name":"Saint Andrew","country_id":108,"country_code":"JM","country_name":"Jamaica","latitude":"18.03086000","longitude":"-76.84617000","wikiDataId":"Q1166379"},{"id":62531,"Name":"Eastwood Park Gardens","state_id":3751,"state_code":"02","state_name":"Saint Andrew","country_id":108,"country_code":"JM","country_name":"Jamaica","latitude":"18.01891000","longitude":"-76.80072000","wikiDataId":"Q1265469"},{"id":62537,"Name":"Elleston Flats/ Mona Commons","state_id":3751,"state_code":"02","state_name":"Saint Andrew","country_id":108,"country_code":"JM","country_name":"Jamaica","latitude":"18.00945000","longitude":"-76.74034000","wikiDataId":"Q1265469"},{"id":62554,"Name":"Ferry","state_id":3751,"state_code":"02","state_name":"Saint Andrew","country_id":108,"country_code":"JM","country_name":"Jamaica","latitude":"18.02771000","longitude":"-76.86720000","wikiDataId":"Q1394786"},{"id":62562,"Name":"Forest Hills Gardens","state_id":3751,"state_code":"02","state_name":"Saint Andrew","country_id":108,"country_code":"JM","country_name":"Jamaica","latitude":"18.03848000","longitude":"-76.82868000","wikiDataId":"Q1394786"},{"id":62563,"Name":"Forest Hills/ Plantation Height","state_id":3751,"state_code":"02","state_name":"Saint Andrew","country_id":108,"country_code":"JM","country_name":"Jamaica","latitude":"18.04300000","longitude":"-76.85140000","wikiDataId":"Q1394786"},{"id":62594,"Name":"Golden Spring","state_id":3751,"state_code":"02","state_name":"Saint Andrew","country_id":108,"country_code":"JM","country_name":"Jamaica","latitude":"18.09446000","longitude":"-76.79727000","wikiDataId":"Q1394786"},{"id":62598,"Name":"Gordon Town","state_id":3751,"state_code":"02","state_name":"Saint Andrew","country_id":108,"country_code":"JM","country_name":"Jamaica","latitude":"18.03762000","longitude":"-76.72353000","wikiDataId":"Q1394786"},{"id":62603,"Name":"Grants Pen","state_id":3751,"state_code":"02","state_name":"Saint Andrew","country_id":108,"country_code":"JM","country_name":"Jamaica","latitude":"18.03258000","longitude":"-76.78887000","wikiDataId":"Q1394786"},{"id":62614,"Name":"Greenwich Town/ Newport West","state_id":3751,"state_code":"02","state_name":"Saint Andrew","country_id":108,"country_code":"JM","country_name":"Jamaica","latitude":"17.98438000","longitude":"-76.82559000","wikiDataId":"Q1394786"},{"id":62623,"Name":"Half Way Tree","state_id":3751,"state_code":"02","state_name":"Saint Andrew","country_id":108,"country_code":"JM","country_name":"Jamaica","latitude":"18.01248000","longitude":"-76.79928000","wikiDataId":"Q1423367"},{"id":62624,"Name":"Half-Way-Tree","state_id":3751,"state_code":"02","state_name":"Saint Andrew","country_id":108,"country_code":"JM","country_name":"Jamaica","latitude":"18.01259000","longitude":"-76.79582000","wikiDataId":"Q1423367"},{"id":62630,"Name":"Harbour View","state_id":3751,"state_code":"02","state_name":"Saint Andrew","country_id":108,"country_code":"JM","country_name":"Jamaica","latitude":"17.95146000","longitude":"-76.71662000","wikiDataId":"Q1423367"},{"id":62637,"Name":"Havendale","state_id":3751,"state_code":"02","state_name":"Saint Andrew","country_id":108,"country_code":"JM","country_name":"Jamaica","latitude":"18.05429000","longitude":"-76.80870000","wikiDataId":"Q1423367"},{"id":62644,"Name":"Hermitage","state_id":3751,"state_code":"02","state_name":"Saint Andrew","country_id":108,"country_code":"JM","country_name":"Jamaica","latitude":"17.98351000","longitude":"-76.74102000","wikiDataId":"Q1008008"},{"id":62653,"Name":"Hope Pastures/ UTECH","state_id":3751,"state_code":"02","state_name":"Saint Andrew","country_id":108,"country_code":"JM","country_name":"Jamaica","latitude":"18.02306000","longitude":"-76.74987000","wikiDataId":"Q1008008"},{"id":62654,"Name":"Hope Tavern","state_id":3751,"state_code":"02","state_name":"Saint Andrew","country_id":108,"country_code":"JM","country_name":"Jamaica","latitude":"18.01233000","longitude":"-76.73202000","wikiDataId":"Q1008008"},{"id":62658,"Name":"Hughenden","state_id":3751,"state_code":"02","state_name":"Saint Andrew","country_id":108,"country_code":"JM","country_name":"Jamaica","latitude":"18.03037000","longitude":"-76.81728000","wikiDataId":"Q1008008"},{"id":62663,"Name":"Irish Town","state_id":3751,"state_code":"02","state_name":"Saint Andrew","country_id":108,"country_code":"JM","country_name":"Jamaica","latitude":"18.06234000","longitude":"-76.70262000","wikiDataId":"Q1008008"},{"id":62667,"Name":"Jacks Hill","state_id":3751,"state_code":"02","state_name":"Saint Andrew","country_id":108,"country_code":"JM","country_name":"Jamaica","latitude":"18.03872000","longitude":"-76.74892000","wikiDataId":"Q1008008"},{"id":62681,"Name":"Jones Town","state_id":3751,"state_code":"02","state_name":"Saint Andrew","country_id":108,"country_code":"JM","country_name":"Jamaica","latitude":"17.98422000","longitude":"-76.79691000","wikiDataId":"Q1008008"},{"id":62684,"Name":"Kencot","state_id":3751,"state_code":"02","state_name":"Saint Andrew","country_id":108,"country_code":"JM","country_name":"Jamaica","latitude":"18.00041000","longitude":"-76.79835000","wikiDataId":"Q1008008"},{"id":62695,"Name":"Kintyre","state_id":3751,"state_code":"02","state_name":"Saint Andrew","country_id":108,"country_code":"JM","country_name":"Jamaica","latitude":"18.02133000","longitude":"-76.72688000","wikiDataId":"Q34692"},{"id":62703,"Name":"Lawrence Tavern","state_id":3751,"state_code":"02","state_name":"Saint Andrew","country_id":108,"country_code":"JM","country_name":"Jamaica","latitude":"18.13742000","longitude":"-76.84736000","wikiDataId":"Q34692"},{"id":62708,"Name":"Liguanea","state_id":3751,"state_code":"02","state_name":"Saint Andrew","country_id":108,"country_code":"JM","country_name":"Jamaica","latitude":"18.02097000","longitude":"-76.76827000","wikiDataId":"Q34692"},{"id":62741,"Name":"Majestic Gardens","state_id":3751,"state_code":"02","state_name":"Saint Andrew","country_id":108,"country_code":"JM","country_name":"Jamaica","latitude":"18.00023000","longitude":"-76.83295000","wikiDataId":"Q1632220"},{"id":62749,"Name":"Mannings Hill","state_id":3751,"state_code":"02","state_name":"Saint Andrew","country_id":108,"country_code":"JM","country_name":"Jamaica","latitude":"18.07052000","longitude":"-76.81288000","wikiDataId":"Q1807660"},{"id":62750,"Name":"Mannings Hill (Rural)","state_id":3751,"state_code":"02","state_name":"Saint Andrew","country_id":108,"country_code":"JM","country_name":"Jamaica","latitude":"18.08169000","longitude":"-76.82328000","wikiDataId":"Q1807660"},{"id":62757,"Name":"Marverley","state_id":3751,"state_code":"02","state_name":"Saint Andrew","country_id":108,"country_code":"JM","country_name":"Jamaica","latitude":"18.02676000","longitude":"-76.82652000","wikiDataId":"Q1807660"},{"id":62759,"Name":"Maryland","state_id":3751,"state_code":"02","state_name":"Saint Andrew","country_id":108,"country_code":"JM","country_name":"Jamaica","latitude":"18.05166000","longitude":"-76.74320000","wikiDataId":"Q1807660"},{"id":62761,"Name":"Mavis Bank","state_id":3751,"state_code":"02","state_name":"Saint Andrew","country_id":108,"country_code":"JM","country_name":"Jamaica","latitude":"18.03333000","longitude":"-76.66667000","wikiDataId":"Q6794237"},{"id":62762,"Name":"Maxfield Park","state_id":3751,"state_code":"02","state_name":"Saint Andrew","country_id":108,"country_code":"JM","country_name":"Jamaica","latitude":"17.99937000","longitude":"-76.80800000","wikiDataId":"Q6794237"},{"id":62766,"Name":"Meadowbrook","state_id":3751,"state_code":"02","state_name":"Saint Andrew","country_id":108,"country_code":"JM","country_name":"Jamaica","latitude":"18.04708000","longitude":"-76.81553000","wikiDataId":"Q1677434"},{"id":62767,"Name":"Meadowbrook Estate","state_id":3751,"state_code":"02","state_name":"Saint Andrew","country_id":108,"country_code":"JM","country_name":"Jamaica","latitude":"18.03738000","longitude":"-76.82964000","wikiDataId":"Q1677434"},{"id":62780,"Name":"Molynes Four Roads","state_id":3751,"state_code":"02","state_name":"Saint Andrew","country_id":108,"country_code":"JM","country_name":"Jamaica","latitude":"18.01035000","longitude":"-76.81112000","wikiDataId":"Q1677434"},{"id":62781,"Name":"Molynes Gardens","state_id":3751,"state_code":"02","state_name":"Saint Andrew","country_id":108,"country_code":"JM","country_name":"Jamaica","latitude":"18.01980000","longitude":"-76.81621000","wikiDataId":"Q1677434"},{"id":62782,"Name":"Mona Heights","state_id":3751,"state_code":"02","state_name":"Saint Andrew","country_id":108,"country_code":"JM","country_name":"Jamaica","latitude":"18.01331000","longitude":"-76.75086000","wikiDataId":"Q1677434"},{"id":62796,"Name":"Mount James","state_id":3751,"state_code":"02","state_name":"Saint Andrew","country_id":108,"country_code":"JM","country_name":"Jamaica","latitude":"18.12069000","longitude":"-76.77394000","wikiDataId":"Q429741"},{"id":62804,"Name":"Mountain View Gardens","state_id":3751,"state_code":"02","state_name":"Saint Andrew","country_id":108,"country_code":"JM","country_name":"Jamaica","latitude":"17.99186000","longitude":"-76.76070000","wikiDataId":"Q429741"},{"id":62810,"Name":"Nannyville","state_id":3751,"state_code":"02","state_name":"Saint Andrew","country_id":108,"country_code":"JM","country_name":"Jamaica","latitude":"17.99677000","longitude":"-76.76949000","wikiDataId":"Q429741"},{"id":62815,"Name":"New Haven","state_id":3751,"state_code":"02","state_name":"Saint Andrew","country_id":108,"country_code":"JM","country_name":"Jamaica","latitude":"18.02953000","longitude":"-76.85425000","wikiDataId":"Q974239"},{"id":62816,"Name":"New Kingston","state_id":3751,"state_code":"02","state_name":"Saint Andrew","country_id":108,"country_code":"JM","country_name":"Jamaica","latitude":"18.00747000","longitude":"-76.78319000","wikiDataId":"Q3338970"},{"id":62830,"Name":"Norbrook","state_id":3751,"state_code":"02","state_name":"Saint Andrew","country_id":108,"country_code":"JM","country_name":"Jamaica","latitude":"18.05483000","longitude":"-76.78498000","wikiDataId":"Q3338970"},{"id":62834,"Name":"Oaklands","state_id":3751,"state_code":"02","state_name":"Saint Andrew","country_id":108,"country_code":"JM","country_name":"Jamaica","latitude":"18.03558000","longitude":"-76.79563000","wikiDataId":"Q3338970"},{"id":62851,"Name":"Papine","state_id":3751,"state_code":"02","state_name":"Saint Andrew","country_id":108,"country_code":"JM","country_name":"Jamaica","latitude":"18.01536000","longitude":"-76.73868000","wikiDataId":"Q7099213"},{"id":62853,"Name":"Parks Road","state_id":3751,"state_code":"02","state_name":"Saint Andrew","country_id":108,"country_code":"JM","country_name":"Jamaica","latitude":"18.09802000","longitude":"-76.85941000","wikiDataId":"Q7099213"},{"id":62867,"Name":"Patrick City","state_id":3751,"state_code":"02","state_name":"Saint Andrew","country_id":108,"country_code":"JM","country_name":"Jamaica","latitude":"18.03185000","longitude":"-76.83774000","wikiDataId":"Q7099213"},{"id":62874,"Name":"Pembroke Hall","state_id":3751,"state_code":"02","state_name":"Saint Andrew","country_id":108,"country_code":"JM","country_name":"Jamaica","latitude":"18.03113000","longitude":"-76.83003000","wikiDataId":"Q7099213"},{"id":62876,"Name":"Penwood","state_id":3751,"state_code":"02","state_name":"Saint Andrew","country_id":108,"country_code":"JM","country_name":"Jamaica","latitude":"18.01952000","longitude":"-76.83094000","wikiDataId":"Q7099213"},{"id":62908,"Name":"Queensborough/ Tunbridge","state_id":3751,"state_code":"02","state_name":"Saint Andrew","country_id":108,"country_code":"JM","country_name":"Jamaica","latitude":"18.04289000","longitude":"-76.82119000","wikiDataId":"Q2105480"},{"id":62917,"Name":"Red Hills (Rural)","state_id":3751,"state_code":"02","state_name":"Saint Andrew","country_id":108,"country_code":"JM","country_name":"Jamaica","latitude":"18.06777000","longitude":"-76.86093000","wikiDataId":"Q2125159"},{"id":62918,"Name":"Red Hills Gardens","state_id":3751,"state_code":"02","state_name":"Saint Andrew","country_id":108,"country_code":"JM","country_name":"Jamaica","latitude":"18.03000000","longitude":"-76.80994000","wikiDataId":"Q2125159"},{"id":62919,"Name":"Red Hills/ Sterling Castle","state_id":3751,"state_code":"02","state_name":"Saint Andrew","country_id":108,"country_code":"JM","country_name":"Jamaica","latitude":"18.05946000","longitude":"-76.84028000","wikiDataId":"Q2125159"},{"id":62931,"Name":"Richmond Park","state_id":3751,"state_code":"02","state_name":"Saint Andrew","country_id":108,"country_code":"JM","country_name":"Jamaica","latitude":"18.00560000","longitude":"-76.80464000","wikiDataId":"Q2125159"},{"id":62938,"Name":"Riverton City","state_id":3751,"state_code":"02","state_name":"Saint Andrew","country_id":108,"country_code":"JM","country_name":"Jamaica","latitude":"18.01443000","longitude":"-76.84897000","wikiDataId":"Q2125159"},{"id":62947,"Name":"Roehampton","state_id":3751,"state_code":"02","state_name":"Saint Andrew","country_id":108,"country_code":"JM","country_name":"Jamaica","latitude":"18.04320000","longitude":"-76.80841000","wikiDataId":"Q2125159"},{"id":62955,"Name":"Rose Town","state_id":3751,"state_code":"02","state_name":"Saint Andrew","country_id":108,"country_code":"JM","country_name":"Jamaica","latitude":"17.98697000","longitude":"-76.80726000","wikiDataId":"Q2125159"},{"id":62982,"Name":"Seaview Gardens","state_id":3751,"state_code":"02","state_name":"Saint Andrew","country_id":108,"country_code":"JM","country_name":"Jamaica","latitude":"18.00619000","longitude":"-76.84106000","wikiDataId":"Q305508"},{"id":62983,"Name":"Seaward Pen","state_id":3751,"state_code":"02","state_name":"Saint Andrew","country_id":108,"country_code":"JM","country_name":"Jamaica","latitude":"18.01900000","longitude":"-76.82368000","wikiDataId":"Q305508"},{"id":62986,"Name":"Seymour Lands","state_id":3751,"state_code":"02","state_name":"Saint Andrew","country_id":108,"country_code":"JM","country_name":"Jamaica","latitude":"18.01291000","longitude":"-76.77706000","wikiDataId":"Q305508"},{"id":63026,"Name":"St. Peter's","state_id":3751,"state_code":"02","state_name":"Saint Andrew","country_id":108,"country_code":"JM","country_name":"Jamaica","latitude":"18.07881000","longitude":"-76.67202000","wikiDataId":"Q846939"},{"id":63028,"Name":"Stadium Gardens","state_id":3751,"state_code":"02","state_name":"Saint Andrew","country_id":108,"country_code":"JM","country_name":"Jamaica","latitude":"17.99501000","longitude":"-76.77644000","wikiDataId":"Q846939"},{"id":63033,"Name":"Stony Hill","state_id":3751,"state_code":"02","state_name":"Saint Andrew","country_id":108,"country_code":"JM","country_name":"Jamaica","latitude":"18.07916000","longitude":"-76.78473000","wikiDataId":"Q1651059"},{"id":63044,"Name":"Swallowfield","state_id":3751,"state_code":"02","state_name":"Saint Andrew","country_id":108,"country_code":"JM","country_name":"Jamaica","latitude":"18.00486000","longitude":"-76.77439000","wikiDataId":"Q1651059"},{"id":63047,"Name":"Temple Hall","state_id":3751,"state_code":"02","state_name":"Saint Andrew","country_id":108,"country_code":"JM","country_name":"Jamaica","latitude":"18.10471000","longitude":"-76.81818000","wikiDataId":"Q1651059"},{"id":63051,"Name":"Three Oaks/ Glendale","state_id":3751,"state_code":"02","state_name":"Saint Andrew","country_id":108,"country_code":"JM","country_name":"Jamaica","latitude":"18.03128000","longitude":"-76.82447000","wikiDataId":"Q1651059"},{"id":63056,"Name":"Tower Hill","state_id":3751,"state_code":"02","state_name":"Saint Andrew","country_id":108,"country_code":"JM","country_name":"Jamaica","latitude":"18.01183000","longitude":"-76.82807000","wikiDataId":"Q1651059"},{"id":63059,"Name":"Trafalgar Park","state_id":3751,"state_code":"02","state_name":"Saint Andrew","country_id":108,"country_code":"JM","country_name":"Jamaica","latitude":"18.01280000","longitude":"-76.78465000","wikiDataId":"Q1651059"},{"id":63063,"Name":"Trench Town","state_id":3751,"state_code":"02","state_name":"Saint Andrew","country_id":108,"country_code":"JM","country_name":"Jamaica","latitude":"17.98743000","longitude":"-76.80118000","wikiDataId":"Q1651059"},{"id":63074,"Name":"University","state_id":3751,"state_code":"02","state_name":"Saint Andrew","country_id":108,"country_code":"JM","country_name":"Jamaica","latitude":"18.00094000","longitude":"-76.74769000","wikiDataId":"Q1651059"},{"id":63077,"Name":"Vineyard Town","state_id":3751,"state_code":"02","state_name":"Saint Andrew","country_id":108,"country_code":"JM","country_name":"Jamaica","latitude":"17.98690000","longitude":"-76.77059000","wikiDataId":"Q1651059"},{"id":63082,"Name":"Waltham Gardens","state_id":3751,"state_code":"02","state_name":"Saint Andrew","country_id":108,"country_code":"JM","country_name":"Jamaica","latitude":"18.01085000","longitude":"-76.82049000","wikiDataId":"Q1651059"},{"id":63085,"Name":"Washington Gardens","state_id":3751,"state_code":"02","state_name":"Saint Andrew","country_id":108,"country_code":"JM","country_name":"Jamaica","latitude":"18.02174000","longitude":"-76.84020000","wikiDataId":"Q1651059"},{"id":63090,"Name":"Waterhouse","state_id":3751,"state_code":"02","state_name":"Saint Andrew","country_id":108,"country_code":"JM","country_name":"Jamaica","latitude":"18.01231000","longitude":"-76.83505000","wikiDataId":"Q1651059"},{"id":63102,"Name":"Whitehall","state_id":3751,"state_code":"02","state_name":"Saint Andrew","country_id":108,"country_code":"JM","country_name":"Jamaica","latitude":"18.03838000","longitude":"-76.80583000","wikiDataId":"Q1651059"},{"id":63104,"Name":"Whitfield Town","state_id":3751,"state_code":"02","state_name":"Saint Andrew","country_id":108,"country_code":"JM","country_name":"Jamaica","latitude":"17.99212000","longitude":"-76.80910000","wikiDataId":"Q1651059"},{"id":63111,"Name":"Wilton Gardens/ Rema","state_id":3751,"state_code":"02","state_name":"Saint Andrew","country_id":108,"country_code":"JM","country_name":"Jamaica","latitude":"17.98287000","longitude":"-76.80422000","wikiDataId":"Q1651059"},{"id":63117,"Name":"Woodford","state_id":3751,"state_code":"02","state_name":"Saint Andrew","country_id":108,"country_code":"JM","country_name":"Jamaica","latitude":"18.07362000","longitude":"-76.74632000","wikiDataId":"Q1651059"},{"id":63118,"Name":"Woodford Park","state_id":3751,"state_code":"02","state_name":"Saint Andrew","country_id":108,"country_code":"JM","country_name":"Jamaica","latitude":"17.98712000","longitude":"-76.78117000","wikiDataId":"Q1651059"},{"id":63128,"Name":"Zaidie Gardens","state_id":3751,"state_code":"02","state_name":"Saint Andrew","country_id":108,"country_code":"JM","country_name":"Jamaica","latitude":"18.02566000","longitude":"-76.80978000","wikiDataId":"Q1550881"}]