[{"id":9250,"Name":"Aheloy","state_id":4715,"state_code":"02","state_name":"Burgas Province","country_id":34,"country_code":"BG","country_name":"Bulgaria","latitude":"42.64987000","longitude":"27.64838000","wikiDataId":"Q2597663"},{"id":9251,"Name":"Ahtopol","state_id":4715,"state_code":"02","state_name":"Burgas Province","country_id":34,"country_code":"BG","country_name":"Bulgaria","latitude":"42.09768000","longitude":"27.93961000","wikiDataId":"Q341027"},{"id":9261,"Name":"Aytos","state_id":4715,"state_code":"02","state_name":"Burgas Province","country_id":34,"country_code":"BG","country_name":"Bulgaria","latitude":"42.70000000","longitude":"27.25000000","wikiDataId":"Q275178"},{"id":9266,"Name":"Bata","state_id":4715,"state_code":"02","state_name":"Burgas Province","country_id":34,"country_code":"BG","country_name":"Bulgaria","latitude":"42.73802000","longitude":"27.49643000","wikiDataId":"Q391159"},{"id":9292,"Name":"Burgas","state_id":4715,"state_code":"02","state_name":"Burgas Province","country_id":34,"country_code":"BG","country_name":"Bulgaria","latitude":"42.50606000","longitude":"27.46781000","wikiDataId":"Q6509"},{"id":9299,"Name":"Chernomorets","state_id":4715,"state_code":"02","state_name":"Burgas Province","country_id":34,"country_code":"BG","country_name":"Bulgaria","latitude":"42.44408000","longitude":"27.63902000","wikiDataId":"Q1022281"},{"id":9353,"Name":"Kameno","state_id":4715,"state_code":"02","state_name":"Burgas Province","country_id":34,"country_code":"BG","country_name":"Bulgaria","latitude":"42.57084000","longitude":"27.29875000","wikiDataId":"Q405191"},{"id":9356,"Name":"Karnobat","state_id":4715,"state_code":"02","state_name":"Burgas Province","country_id":34,"country_code":"BG","country_name":"Bulgaria","latitude":"42.65000000","longitude":"26.98333000","wikiDataId":"Q406227"},{"id":9363,"Name":"Kiten","state_id":4715,"state_code":"02","state_name":"Burgas Province","country_id":34,"country_code":"BG","country_name":"Bulgaria","latitude":"42.23424000","longitude":"27.77490000","wikiDataId":"Q1993655"},{"id":9397,"Name":"Malko Tarnovo","state_id":4715,"state_code":"02","state_name":"Burgas Province","country_id":34,"country_code":"BG","country_name":"Bulgaria","latitude":"41.97958000","longitude":"27.52477000","wikiDataId":"Q406488"},{"id":9406,"Name":"Nesebar","state_id":4715,"state_code":"02","state_name":"Burgas Province","country_id":34,"country_code":"BG","country_name":"Bulgaria","latitude":"42.65921000","longitude":"27.73602000","wikiDataId":"Q193241"},{"id":9419,"Name":"Obshtina Aytos","state_id":4715,"state_code":"02","state_name":"Burgas Province","country_id":34,"country_code":"BG","country_name":"Bulgaria","latitude":"42.70000000","longitude":"27.25000000","wikiDataId":"Q2001782"},{"id":9442,"Name":"Obshtina Burgas","state_id":4715,"state_code":"02","state_name":"Burgas Province","country_id":34,"country_code":"BG","country_name":"Bulgaria","latitude":"42.50000000","longitude":"27.46667000","wikiDataId":"Q167807"},{"id":9495,"Name":"Obshtina Kameno","state_id":4715,"state_code":"02","state_name":"Burgas Province","country_id":34,"country_code":"BG","country_name":"Bulgaria","latitude":"42.51667000","longitude":"27.18333000","wikiDataId":"Q2476879"},{"id":9498,"Name":"Obshtina Karnobat","state_id":4715,"state_code":"02","state_name":"Burgas Province","country_id":34,"country_code":"BG","country_name":"Bulgaria","latitude":"42.65000000","longitude":"26.98333000","wikiDataId":"Q2476853"},{"id":9529,"Name":"Obshtina Malko Tarnovo","state_id":4715,"state_code":"02","state_name":"Burgas Province","country_id":34,"country_code":"BG","country_name":"Bulgaria","latitude":"42.08333000","longitude":"27.53333000","wikiDataId":"Q2606955"},{"id":9538,"Name":"Obshtina Nesebar","state_id":4715,"state_code":"02","state_name":"Burgas Province","country_id":34,"country_code":"BG","country_name":"Bulgaria","latitude":"42.78333000","longitude":"27.73333000","wikiDataId":"Q177345"},{"id":9560,"Name":"Obshtina Pomorie","state_id":4715,"state_code":"02","state_name":"Burgas Province","country_id":34,"country_code":"BG","country_name":"Bulgaria","latitude":"42.73333000","longitude":"27.55000000","wikiDataId":"Q2447996"},{"id":9564,"Name":"Obshtina Primorsko","state_id":4715,"state_code":"02","state_name":"Burgas Province","country_id":34,"country_code":"BG","country_name":"Bulgaria","latitude":"42.25000000","longitude":"27.63333000","wikiDataId":"Q2607288"},{"id":9596,"Name":"Obshtina Sozopol","state_id":4715,"state_code":"02","state_name":"Burgas Province","country_id":34,"country_code":"BG","country_name":"Bulgaria","latitude":"42.31123000","longitude":"27.51733000","wikiDataId":"Q2039413"},{"id":9605,"Name":"Obshtina Sungurlare","state_id":4715,"state_code":"02","state_name":"Burgas Province","country_id":34,"country_code":"BG","country_name":"Bulgaria","latitude":"42.83333000","longitude":"26.83333000","wikiDataId":"Q2398979"},{"id":9640,"Name":"Obzor","state_id":4715,"state_code":"02","state_name":"Burgas Province","country_id":34,"country_code":"BG","country_name":"Bulgaria","latitude":"42.81998000","longitude":"27.88007000","wikiDataId":"Q406649"},{"id":9658,"Name":"Pomorie","state_id":4715,"state_code":"02","state_name":"Burgas Province","country_id":34,"country_code":"BG","country_name":"Bulgaria","latitude":"42.56326000","longitude":"27.62986000","wikiDataId":"Q407372"},{"id":9662,"Name":"Primorsko","state_id":4715,"state_code":"02","state_name":"Burgas Province","country_id":34,"country_code":"BG","country_name":"Bulgaria","latitude":"42.26791000","longitude":"27.75611000","wikiDataId":"Q405153"},{"id":9668,"Name":"Ravda","state_id":4715,"state_code":"02","state_name":"Burgas Province","country_id":34,"country_code":"BG","country_name":"Bulgaria","latitude":"42.64185000","longitude":"27.67713000","wikiDataId":"Q167953"},{"id":9674,"Name":"Ruen","state_id":4715,"state_code":"02","state_name":"Burgas Province","country_id":34,"country_code":"BG","country_name":"Bulgaria","latitude":"42.80000000","longitude":"27.28333000","wikiDataId":"Q935493"},{"id":9683,"Name":"Sarafovo","state_id":4715,"state_code":"02","state_name":"Burgas Province","country_id":34,"country_code":"BG","country_name":"Bulgaria","latitude":"42.56079000","longitude":"27.52195000","wikiDataId":"Q2224290"},{"id":9702,"Name":"Sozopol","state_id":4715,"state_code":"02","state_name":"Burgas Province","country_id":34,"country_code":"BG","country_name":"Bulgaria","latitude":"42.41801000","longitude":"27.69560000","wikiDataId":"Q271925"},{"id":9703,"Name":"Sredets","state_id":4715,"state_code":"02","state_name":"Burgas Province","country_id":34,"country_code":"BG","country_name":"Bulgaria","latitude":"42.34747000","longitude":"27.17898000","wikiDataId":"Q405646"},{"id":9713,"Name":"Sungurlare","state_id":4715,"state_code":"02","state_name":"Burgas Province","country_id":34,"country_code":"BG","country_name":"Bulgaria","latitude":"42.76667000","longitude":"26.78333000","wikiDataId":"Q990310"},{"id":9715,"Name":"Sveti Vlas","state_id":4715,"state_code":"02","state_name":"Burgas Province","country_id":34,"country_code":"BG","country_name":"Bulgaria","latitude":"42.71360000","longitude":"27.75867000","wikiDataId":"Q406657"},{"id":9728,"Name":"Tsarevo","state_id":4715,"state_code":"02","state_name":"Burgas Province","country_id":34,"country_code":"BG","country_name":"Bulgaria","latitude":"42.16955000","longitude":"27.84541000","wikiDataId":"Q147938"}]