[{"id":54390,"Name":"Bedekovčina","state_id":729,"state_code":"02","state_name":"Krapina-Zagorje County","country_id":55,"country_code":"HR","country_name":"Croatia","latitude":"46.04111000","longitude":"15.99639000","wikiDataId":"Q791827"},{"id":54430,"Name":"Budinščina","state_id":729,"state_code":"02","state_name":"Krapina-Zagorje County","country_id":55,"country_code":"HR","country_name":"Croatia","latitude":"46.12785000","longitude":"16.20415000","wikiDataId":"Q2253905"},{"id":55026,"Name":"Đurmanec","state_id":729,"state_code":"02","state_name":"Krapina-Zagorje County","country_id":55,"country_code":"HR","country_name":"Croatia","latitude":"46.19708000","longitude":"15.83786000","wikiDataId":"Q318961"},{"id":54510,"Name":"Grad Donja Stubica","state_id":729,"state_code":"02","state_name":"Krapina-Zagorje County","country_id":55,"country_code":"HR","country_name":"Croatia","latitude":"45.97955000","longitude":"15.97069000","wikiDataId":"Q319276"},{"id":54523,"Name":"Grad Klanjec","state_id":729,"state_code":"02","state_name":"Krapina-Zagorje County","country_id":55,"country_code":"HR","country_name":"Croatia","latitude":"46.04977000","longitude":"15.74615000","wikiDataId":"Q1722"},{"id":54526,"Name":"Grad Krapina","state_id":729,"state_code":"02","state_name":"Krapina-Zagorje County","country_id":55,"country_code":"HR","country_name":"Croatia","latitude":"46.15968000","longitude":"15.87258000","wikiDataId":"Q1722"},{"id":54566,"Name":"Grad Zabok","state_id":729,"state_code":"02","state_name":"Krapina-Zagorje County","country_id":55,"country_code":"HR","country_name":"Croatia","latitude":"46.02808000","longitude":"15.90855000","wikiDataId":"Q398436"},{"id":54568,"Name":"Grad Zlatar","state_id":729,"state_code":"02","state_name":"Krapina-Zagorje County","country_id":55,"country_code":"HR","country_name":"Croatia","latitude":"46.09198000","longitude":"16.07695000","wikiDataId":"Q1194688"},{"id":54622,"Name":"Jesenje","state_id":729,"state_code":"02","state_name":"Krapina-Zagorje County","country_id":55,"country_code":"HR","country_name":"Croatia","latitude":"46.20724000","longitude":"15.88194000","wikiDataId":"Q239903"},{"id":54648,"Name":"Klanjec","state_id":729,"state_code":"02","state_name":"Krapina-Zagorje County","country_id":55,"country_code":"HR","country_name":"Croatia","latitude":"46.04982000","longitude":"15.74418000","wikiDataId":"Q769880"},{"id":54657,"Name":"Konjščina","state_id":729,"state_code":"02","state_name":"Krapina-Zagorje County","country_id":55,"country_code":"HR","country_name":"Croatia","latitude":"46.05435000","longitude":"16.17763000","wikiDataId":"Q3441457"},{"id":54667,"Name":"Krapina","state_id":729,"state_code":"02","state_name":"Krapina-Zagorje County","country_id":55,"country_code":"HR","country_name":"Croatia","latitude":"46.16083000","longitude":"15.87889000","wikiDataId":"Q396555"},{"id":54674,"Name":"Kumrovec","state_id":729,"state_code":"02","state_name":"Krapina-Zagorje County","country_id":55,"country_code":"HR","country_name":"Croatia","latitude":"46.07750000","longitude":"15.67556000","wikiDataId":"Q696051"},{"id":54725,"Name":"Mače","state_id":729,"state_code":"02","state_name":"Krapina-Zagorje County","country_id":55,"country_code":"HR","country_name":"Croatia","latitude":"46.09472000","longitude":"16.03528000","wikiDataId":"Q613948"},{"id":54714,"Name":"Marija Bistrica","state_id":729,"state_code":"02","state_name":"Krapina-Zagorje County","country_id":55,"country_code":"HR","country_name":"Croatia","latitude":"46.00611000","longitude":"16.11111000","wikiDataId":"Q921910"},{"id":54731,"Name":"Mihovljan","state_id":729,"state_code":"02","state_name":"Krapina-Zagorje County","country_id":55,"country_code":"HR","country_name":"Croatia","latitude":"46.13306000","longitude":"15.97222000","wikiDataId":"Q587990"},{"id":54791,"Name":"Oroslavje","state_id":729,"state_code":"02","state_name":"Krapina-Zagorje County","country_id":55,"country_code":"HR","country_name":"Croatia","latitude":"45.99672000","longitude":"15.91507000","wikiDataId":"Q126365"},{"id":54832,"Name":"Pregrada","state_id":729,"state_code":"02","state_name":"Krapina-Zagorje County","country_id":55,"country_code":"HR","country_name":"Croatia","latitude":"46.16417000","longitude":"15.75083000","wikiDataId":"Q844312"},{"id":54851,"Name":"Radoboj","state_id":729,"state_code":"02","state_name":"Krapina-Zagorje County","country_id":55,"country_code":"HR","country_name":"Croatia","latitude":"46.16639000","longitude":"15.92361000","wikiDataId":"Q1194715"},{"id":54918,"Name":"Stubičke Toplice","state_id":729,"state_code":"02","state_name":"Krapina-Zagorje County","country_id":55,"country_code":"HR","country_name":"Croatia","latitude":"45.97585000","longitude":"15.93238000","wikiDataId":"Q921726"},{"id":54930,"Name":"Sveti Križ Začretje","state_id":729,"state_code":"02","state_name":"Krapina-Zagorje County","country_id":55,"country_code":"HR","country_name":"Croatia","latitude":"46.08224000","longitude":"15.90704000","wikiDataId":"Q1014083"},{"id":55001,"Name":"Zabok","state_id":729,"state_code":"02","state_name":"Krapina-Zagorje County","country_id":55,"country_code":"HR","country_name":"Croatia","latitude":"46.02944000","longitude":"15.91500000","wikiDataId":"Q1284798"},{"id":55010,"Name":"Zlatar","state_id":729,"state_code":"02","state_name":"Krapina-Zagorje County","country_id":55,"country_code":"HR","country_name":"Croatia","latitude":"46.09417000","longitude":"16.07083000","wikiDataId":"Q396550"},{"id":55011,"Name":"Zlatar Bistrica","state_id":729,"state_code":"02","state_name":"Krapina-Zagorje County","country_id":55,"country_code":"HR","country_name":"Croatia","latitude":"46.04788000","longitude":"16.08527000","wikiDataId":"Q396550"}]