[{"id":39130,"Name":"Ähtäri","state_id":1498,"state_code":"03","state_name":"Southern Ostrobothnia","country_id":74,"country_code":"FI","country_name":"Finland","latitude":"62.55403000","longitude":"24.06186000","wikiDataId":"Q1407166"},{"id":38730,"Name":"Alahärmä","state_id":1498,"state_code":"03","state_name":"Southern Ostrobothnia","country_id":74,"country_code":"FI","country_name":"Finland","latitude":"63.23333000","longitude":"22.85000000","wikiDataId":"Q575090"},{"id":38731,"Name":"Alajärvi","state_id":1498,"state_code":"03","state_name":"Southern Ostrobothnia","country_id":74,"country_code":"FI","country_name":"Finland","latitude":"63.00000000","longitude":"23.81667000","wikiDataId":"Q5980"},{"id":38734,"Name":"Alavus","state_id":1498,"state_code":"03","state_name":"Southern Ostrobothnia","country_id":74,"country_code":"FI","country_name":"Finland","latitude":"62.58333000","longitude":"23.61667000","wikiDataId":"Q5981"},{"id":38751,"Name":"Evijärvi","state_id":1498,"state_code":"03","state_name":"Southern Ostrobothnia","country_id":74,"country_code":"FI","country_name":"Finland","latitude":"63.36667000","longitude":"23.48333000","wikiDataId":"Q1001783"},{"id":38785,"Name":"Ilmajoki","state_id":1498,"state_code":"03","state_name":"Southern Ostrobothnia","country_id":74,"country_code":"FI","country_name":"Finland","latitude":"62.73333000","longitude":"22.56667000","wikiDataId":"Q748533"},{"id":38791,"Name":"Isojoki","state_id":1498,"state_code":"03","state_name":"Southern Ostrobothnia","country_id":74,"country_code":"FI","country_name":"Finland","latitude":"62.11319000","longitude":"21.95884000","wikiDataId":"Q1025692"},{"id":38796,"Name":"Jalasjärvi","state_id":1498,"state_code":"03","state_name":"Southern Ostrobothnia","country_id":74,"country_code":"FI","country_name":"Finland","latitude":"62.50000000","longitude":"22.75000000","wikiDataId":"Q1679567"},{"id":38804,"Name":"Jurva","state_id":1498,"state_code":"03","state_name":"Southern Ostrobothnia","country_id":74,"country_code":"FI","country_name":"Finland","latitude":"62.68333000","longitude":"21.98333000","wikiDataId":"Q1369780"},{"id":38826,"Name":"Karijoki","state_id":1498,"state_code":"03","state_name":"Southern Ostrobothnia","country_id":74,"country_code":"FI","country_name":"Finland","latitude":"62.30851000","longitude":"21.70856000","wikiDataId":"Q2392663"},{"id":38835,"Name":"Kauhajoki","state_id":1498,"state_code":"03","state_name":"Southern Ostrobothnia","country_id":74,"country_code":"FI","country_name":"Finland","latitude":"62.43333000","longitude":"22.18333000","wikiDataId":"Q5992"},{"id":38836,"Name":"Kauhava","state_id":1498,"state_code":"03","state_name":"Southern Ostrobothnia","country_id":74,"country_code":"FI","country_name":"Finland","latitude":"63.10299000","longitude":"23.07129000","wikiDataId":"Q6009"},{"id":38871,"Name":"Kortesjärvi","state_id":1498,"state_code":"03","state_name":"Southern Ostrobothnia","country_id":74,"country_code":"FI","country_name":"Finland","latitude":"63.30000000","longitude":"23.16667000","wikiDataId":"Q1025741"},{"id":38882,"Name":"Kuortane","state_id":1498,"state_code":"03","state_name":"Southern Ostrobothnia","country_id":74,"country_code":"FI","country_name":"Finland","latitude":"62.80000000","longitude":"23.50000000","wikiDataId":"Q6012"},{"id":38883,"Name":"Kurikka","state_id":1498,"state_code":"03","state_name":"Southern Ostrobothnia","country_id":74,"country_code":"FI","country_name":"Finland","latitude":"62.61667000","longitude":"22.41667000","wikiDataId":"Q6012"},{"id":38898,"Name":"Lappajärvi","state_id":1498,"state_code":"03","state_name":"Southern Ostrobothnia","country_id":74,"country_code":"FI","country_name":"Finland","latitude":"63.20000000","longitude":"23.63333000","wikiDataId":"Q519763"},{"id":38901,"Name":"Lapua","state_id":1498,"state_code":"03","state_name":"Southern Ostrobothnia","country_id":74,"country_code":"FI","country_name":"Finland","latitude":"62.96927000","longitude":"23.00880000","wikiDataId":"Q6023"},{"id":38906,"Name":"Lehtimäki","state_id":1498,"state_code":"03","state_name":"Southern Ostrobothnia","country_id":74,"country_code":"FI","country_name":"Finland","latitude":"62.78333000","longitude":"23.91667000","wikiDataId":"Q1641563"},{"id":38959,"Name":"Nurmo","state_id":1498,"state_code":"03","state_name":"Southern Ostrobothnia","country_id":74,"country_code":"FI","country_name":"Finland","latitude":"62.82870000","longitude":"22.90990000","wikiDataId":"Q205804"},{"id":39044,"Name":"Seinäjoki","state_id":1498,"state_code":"03","state_name":"Southern Ostrobothnia","country_id":74,"country_code":"FI","country_name":"Finland","latitude":"62.79446000","longitude":"22.82822000","wikiDataId":"Q984938"},{"id":39053,"Name":"Soini","state_id":1498,"state_code":"03","state_name":"Southern Ostrobothnia","country_id":74,"country_code":"FI","country_name":"Finland","latitude":"62.86667000","longitude":"24.21667000","wikiDataId":"Q502175"},{"id":39076,"Name":"Teuva","state_id":1498,"state_code":"03","state_name":"Southern Ostrobothnia","country_id":74,"country_code":"FI","country_name":"Finland","latitude":"62.48190000","longitude":"21.74156000","wikiDataId":"Q990585"},{"id":39087,"Name":"Töysä","state_id":1498,"state_code":"03","state_name":"Southern Ostrobothnia","country_id":74,"country_code":"FI","country_name":"Finland","latitude":"62.62803000","longitude":"23.81828000","wikiDataId":"Q6168"},{"id":39111,"Name":"Vimpeli","state_id":1498,"state_code":"03","state_name":"Southern Ostrobothnia","country_id":74,"country_code":"FI","country_name":"Finland","latitude":"63.16187000","longitude":"23.81922000","wikiDataId":"Q992240"},{"id":39122,"Name":"Ylihärmä","state_id":1498,"state_code":"03","state_name":"Southern Ostrobothnia","country_id":74,"country_code":"FI","country_name":"Finland","latitude":"63.15000000","longitude":"22.78333000","wikiDataId":"Q119845"},{"id":39124,"Name":"Ylistaro","state_id":1498,"state_code":"03","state_name":"Southern Ostrobothnia","country_id":74,"country_code":"FI","country_name":"Finland","latitude":"62.93958000","longitude":"22.51306000","wikiDataId":"Q653167"}]