[{"id":88909,"Name":"Adaúfe","state_id":2244,"state_code":"03","state_name":"Braga","country_id":177,"country_code":"PT","country_name":"Portugal","latitude":"41.58732000","longitude":"-8.39817000","wikiDataId":"Q49343987"},{"id":88962,"Name":"Amares","state_id":2244,"state_code":"03","state_name":"Braga","country_id":177,"country_code":"PT","country_name":"Portugal","latitude":"41.64718000","longitude":"-8.35558000","wikiDataId":"Q455012"},{"id":88974,"Name":"Apúlia","state_id":2244,"state_code":"03","state_name":"Braga","country_id":177,"country_code":"PT","country_name":"Portugal","latitude":"41.48512000","longitude":"-8.76413000","wikiDataId":"Q622686"},{"id":88975,"Name":"Apúlia e Fão","state_id":2244,"state_code":"03","state_name":"Braga","country_id":177,"country_code":"PT","country_name":"Portugal","latitude":"41.51194000","longitude":"-8.77288000","wikiDataId":"Q622686"},{"id":88979,"Name":"Arcos","state_id":2244,"state_code":"03","state_name":"Braga","country_id":177,"country_code":"PT","country_name":"Portugal","latitude":"41.52185000","longitude":"-8.42151000","wikiDataId":"Q241974"},{"id":88997,"Name":"Arões","state_id":2244,"state_code":"03","state_name":"Braga","country_id":177,"country_code":"PT","country_name":"Portugal","latitude":"41.45553000","longitude":"-8.21419000","wikiDataId":"Q49344656"},{"id":89004,"Name":"Aveleda","state_id":2244,"state_code":"03","state_name":"Braga","country_id":177,"country_code":"PT","country_name":"Portugal","latitude":"41.52113000","longitude":"-8.46682000","wikiDataId":"Q3344926"},{"id":89018,"Name":"Barcelos","state_id":2244,"state_code":"03","state_name":"Braga","country_id":177,"country_code":"PT","country_name":"Portugal","latitude":"41.53174000","longitude":"-8.61843000","wikiDataId":"Q31910871"},{"id":89019,"Name":"Barqueiros","state_id":2244,"state_code":"03","state_name":"Braga","country_id":177,"country_code":"PT","country_name":"Portugal","latitude":"41.49111000","longitude":"-8.73192000","wikiDataId":"Q31910871"},{"id":89046,"Name":"Braga","state_id":2244,"state_code":"03","state_name":"Braga","country_id":177,"country_code":"PT","country_name":"Portugal","latitude":"41.55032000","longitude":"-8.42005000","wikiDataId":"Q3344946"},{"id":89049,"Name":"Brito","state_id":2244,"state_code":"03","state_name":"Braga","country_id":177,"country_code":"PT","country_name":"Portugal","latitude":"41.45821000","longitude":"-8.36103000","wikiDataId":"Q49347217"},{"id":89055,"Name":"Cabeceiras de Basto","state_id":2244,"state_code":"03","state_name":"Braga","country_id":177,"country_code":"PT","country_name":"Portugal","latitude":"41.52079000","longitude":"-7.97198000","wikiDataId":"Q551048"},{"id":89064,"Name":"Caldas das Taipas","state_id":2244,"state_code":"03","state_name":"Braga","country_id":177,"country_code":"PT","country_name":"Portugal","latitude":"41.48465000","longitude":"-8.34850000","wikiDataId":"Q49347629"},{"id":89065,"Name":"Caldas de Vizela","state_id":2244,"state_code":"03","state_name":"Braga","country_id":177,"country_code":"PT","country_name":"Portugal","latitude":"41.38212000","longitude":"-8.30890000","wikiDataId":"Q34789245"},{"id":89066,"Name":"Caldelas","state_id":2244,"state_code":"03","state_name":"Braga","country_id":177,"country_code":"PT","country_name":"Portugal","latitude":"41.67101000","longitude":"-8.38148000","wikiDataId":"Q34789250"},{"id":89067,"Name":"Calendário","state_id":2244,"state_code":"03","state_name":"Braga","country_id":177,"country_code":"PT","country_name":"Portugal","latitude":"41.40361000","longitude":"-8.52967000","wikiDataId":"Q34789263"},{"id":89081,"Name":"Candoso","state_id":2244,"state_code":"03","state_name":"Braga","country_id":177,"country_code":"PT","country_name":"Portugal","latitude":"41.42768000","longitude":"-8.32166000","wikiDataId":"Q34789683"},{"id":89114,"Name":"Celorico de Basto","state_id":2244,"state_code":"03","state_name":"Braga","country_id":177,"country_code":"PT","country_name":"Portugal","latitude":"41.40278000","longitude":"-8.03346000","wikiDataId":"Q551653"},{"id":89120,"Name":"Chavão","state_id":2244,"state_code":"03","state_name":"Braga","country_id":177,"country_code":"PT","country_name":"Portugal","latitude":"41.45235000","longitude":"-8.60194000","wikiDataId":"Q504580"},{"id":89135,"Name":"Cristelo","state_id":2244,"state_code":"03","state_name":"Braga","country_id":177,"country_code":"PT","country_name":"Portugal","latitude":"41.47964000","longitude":"-8.69785000","wikiDataId":"Q1005138"},{"id":89151,"Name":"Esporões","state_id":2244,"state_code":"03","state_name":"Braga","country_id":177,"country_code":"PT","country_name":"Portugal","latitude":"41.51006000","longitude":"-8.41729000","wikiDataId":"Q13225053"},{"id":89152,"Name":"Esposende","state_id":2244,"state_code":"03","state_name":"Braga","country_id":177,"country_code":"PT","country_name":"Portugal","latitude":"41.53610000","longitude":"-8.78201000","wikiDataId":"Q49349843"},{"id":89160,"Name":"Fafe","state_id":2244,"state_code":"03","state_name":"Braga","country_id":177,"country_code":"PT","country_name":"Portugal","latitude":"41.46837000","longitude":"-8.15863000","wikiDataId":"Q551080"},{"id":89166,"Name":"Faria","state_id":2244,"state_code":"03","state_name":"Braga","country_id":177,"country_code":"PT","country_name":"Portugal","latitude":"41.48298000","longitude":"-8.67152000","wikiDataId":"Q49350043"},{"id":89179,"Name":"Ferreiros","state_id":2244,"state_code":"03","state_name":"Braga","country_id":177,"country_code":"PT","country_name":"Portugal","latitude":"41.35000000","longitude":"-8.55000000","wikiDataId":"Q49350137"},{"id":89191,"Name":"Fradelos","state_id":2244,"state_code":"03","state_name":"Braga","country_id":177,"country_code":"PT","country_name":"Portugal","latitude":"41.36846000","longitude":"-8.59887000","wikiDataId":"Q49350450"},{"id":89196,"Name":"Frossos","state_id":2244,"state_code":"03","state_name":"Braga","country_id":177,"country_code":"PT","country_name":"Portugal","latitude":"41.56590000","longitude":"-8.45134000","wikiDataId":"Q647467"},{"id":89205,"Name":"Galegos","state_id":2244,"state_code":"03","state_name":"Braga","country_id":177,"country_code":"PT","country_name":"Portugal","latitude":"41.56268000","longitude":"-8.57204000","wikiDataId":"Q49350805"},{"id":89207,"Name":"Gandra","state_id":2244,"state_code":"03","state_name":"Braga","country_id":177,"country_code":"PT","country_name":"Portugal","latitude":"41.52185000","longitude":"-8.76185000","wikiDataId":"Q1023200"},{"id":89212,"Name":"Gondizalves","state_id":2244,"state_code":"03","state_name":"Braga","country_id":177,"country_code":"PT","country_name":"Portugal","latitude":"41.54158000","longitude":"-8.45570000","wikiDataId":"Q1012522"},{"id":89216,"Name":"Gueral","state_id":2244,"state_code":"03","state_name":"Braga","country_id":177,"country_code":"PT","country_name":"Portugal","latitude":"41.45859000","longitude":"-8.62946000","wikiDataId":"Q986019"},{"id":89219,"Name":"Guimarães","state_id":2244,"state_code":"03","state_name":"Braga","country_id":177,"country_code":"PT","country_name":"Portugal","latitude":"41.44384000","longitude":"-8.28918000","wikiDataId":"Q170903"},{"id":89220,"Name":"Guisande","state_id":2244,"state_code":"03","state_name":"Braga","country_id":177,"country_code":"PT","country_name":"Portugal","latitude":"41.48264000","longitude":"-8.44564000","wikiDataId":"Q170903"},{"id":89225,"Name":"Joane","state_id":2244,"state_code":"03","state_name":"Braga","country_id":177,"country_code":"PT","country_name":"Portugal","latitude":"41.43906000","longitude":"-8.40846000","wikiDataId":"Q1690801"},{"id":89227,"Name":"Lago","state_id":2244,"state_code":"03","state_name":"Braga","country_id":177,"country_code":"PT","country_name":"Portugal","latitude":"41.62148000","longitude":"-8.41258000","wikiDataId":"Q49355583"},{"id":89248,"Name":"Lordelo","state_id":2244,"state_code":"03","state_name":"Braga","country_id":177,"country_code":"PT","country_name":"Portugal","latitude":"41.37411000","longitude":"-8.38016000","wikiDataId":"Q994626"},{"id":89264,"Name":"Macieira de Rates","state_id":2244,"state_code":"03","state_name":"Braga","country_id":177,"country_code":"PT","country_name":"Portugal","latitude":"41.44092000","longitude":"-8.63426000","wikiDataId":"Q35722148"},{"id":89279,"Name":"Marinhas","state_id":2244,"state_code":"03","state_name":"Braga","country_id":177,"country_code":"PT","country_name":"Portugal","latitude":"41.55906000","longitude":"-8.78297000","wikiDataId":"Q35724951"},{"id":89280,"Name":"Mariz","state_id":2244,"state_code":"03","state_name":"Braga","country_id":177,"country_code":"PT","country_name":"Portugal","latitude":"41.52823000","longitude":"-8.67081000","wikiDataId":"Q35724951"},{"id":89293,"Name":"Merelim","state_id":2244,"state_code":"03","state_name":"Braga","country_id":177,"country_code":"PT","country_name":"Portugal","latitude":"41.58568000","longitude":"-8.46555000","wikiDataId":"Q1432562"},{"id":89330,"Name":"Moreira de Conegos","state_id":2244,"state_code":"03","state_name":"Braga","country_id":177,"country_code":"PT","country_name":"Portugal","latitude":"41.38680000","longitude":"-8.33940000","wikiDataId":"Q1947515"},{"id":89343,"Name":"Negreiros","state_id":2244,"state_code":"03","state_name":"Braga","country_id":177,"country_code":"PT","country_name":"Portugal","latitude":"41.43552000","longitude":"-8.61398000","wikiDataId":"Q497179"},{"id":89362,"Name":"Oliveira","state_id":2244,"state_code":"03","state_name":"Braga","country_id":177,"country_code":"PT","country_name":"Portugal","latitude":"41.47819000","longitude":"-8.46965000","wikiDataId":"Q49358935"},{"id":89402,"Name":"Perelhal","state_id":2244,"state_code":"03","state_name":"Braga","country_id":177,"country_code":"PT","country_name":"Portugal","latitude":"41.53075000","longitude":"-8.68982000","wikiDataId":"Q40234338"},{"id":89415,"Name":"Ponte","state_id":2244,"state_code":"03","state_name":"Braga","country_id":177,"country_code":"PT","country_name":"Portugal","latitude":"41.47057000","longitude":"-8.32990000","wikiDataId":"Q49361870"},{"id":89442,"Name":"Póvoa de Lanhoso","state_id":2244,"state_code":"03","state_name":"Braga","country_id":177,"country_code":"PT","country_name":"Portugal","latitude":"41.57599000","longitude":"-8.27008000","wikiDataId":"Q49362874"},{"id":89435,"Name":"Prado","state_id":2244,"state_code":"03","state_name":"Braga","country_id":177,"country_code":"PT","country_name":"Portugal","latitude":"41.60246000","longitude":"-8.46297000","wikiDataId":"Q49362263"},{"id":89453,"Name":"Real","state_id":2244,"state_code":"03","state_name":"Braga","country_id":177,"country_code":"PT","country_name":"Portugal","latitude":"41.55841000","longitude":"-8.44330000","wikiDataId":"Q49363374"},{"id":89458,"Name":"Refojos de Basto","state_id":2244,"state_code":"03","state_name":"Braga","country_id":177,"country_code":"PT","country_name":"Portugal","latitude":"41.51318000","longitude":"-7.99517000","wikiDataId":"Q49363569"},{"id":89461,"Name":"Rendufe","state_id":2244,"state_code":"03","state_name":"Braga","country_id":177,"country_code":"PT","country_name":"Portugal","latitude":"41.62898000","longitude":"-8.40858000","wikiDataId":"Q1997694"},{"id":89464,"Name":"Riba de Ave","state_id":2244,"state_code":"03","state_name":"Braga","country_id":177,"country_code":"PT","country_name":"Portugal","latitude":"41.39648000","longitude":"-8.38685000","wikiDataId":"Q2023873"},{"id":89470,"Name":"Ribeirão","state_id":2244,"state_code":"03","state_name":"Braga","country_id":177,"country_code":"PT","country_name":"Portugal","latitude":"41.36081000","longitude":"-8.56774000","wikiDataId":"Q49363713"},{"id":89477,"Name":"Ronfe","state_id":2244,"state_code":"03","state_name":"Braga","country_id":177,"country_code":"PT","country_name":"Portugal","latitude":"41.44146000","longitude":"-8.38412000","wikiDataId":"Q49364106"},{"id":89490,"Name":"Sande","state_id":2244,"state_code":"03","state_name":"Braga","country_id":177,"country_code":"PT","country_name":"Portugal","latitude":"41.70190000","longitude":"-8.39246000","wikiDataId":"Q49366935"},{"id":89524,"Name":"Selho","state_id":2244,"state_code":"03","state_name":"Braga","country_id":177,"country_code":"PT","country_name":"Portugal","latitude":"41.41938000","longitude":"-8.34599000","wikiDataId":"Q49367336"},{"id":89525,"Name":"Semelhe","state_id":2244,"state_code":"03","state_name":"Braga","country_id":177,"country_code":"PT","country_name":"Portugal","latitude":"41.55437000","longitude":"-8.46281000","wikiDataId":"Q49367336"},{"id":89536,"Name":"Serzedelo","state_id":2244,"state_code":"03","state_name":"Braga","country_id":177,"country_code":"PT","country_name":"Portugal","latitude":"41.40128000","longitude":"-8.36888000","wikiDataId":"Q49367430"},{"id":89537,"Name":"Serzedo","state_id":2244,"state_code":"03","state_name":"Braga","country_id":177,"country_code":"PT","country_name":"Portugal","latitude":"41.40502000","longitude":"-8.22926000","wikiDataId":"Q49367433"},{"id":89598,"Name":"Tebosa","state_id":2244,"state_code":"03","state_name":"Braga","country_id":177,"country_code":"PT","country_name":"Portugal","latitude":"41.48253000","longitude":"-8.48399000","wikiDataId":"Q372840"},{"id":89601,"Name":"Terras de Bouro","state_id":2244,"state_code":"03","state_name":"Braga","country_id":177,"country_code":"PT","country_name":"Portugal","latitude":"41.73914000","longitude":"-8.19109000","wikiDataId":"Q551639"},{"id":89618,"Name":"Urgeses","state_id":2244,"state_code":"03","state_name":"Braga","country_id":177,"country_code":"PT","country_name":"Portugal","latitude":"41.42720000","longitude":"-8.29796000","wikiDataId":"Q33510757"},{"id":89689,"Name":"Várzea","state_id":2244,"state_code":"03","state_name":"Braga","country_id":177,"country_code":"PT","country_name":"Portugal","latitude":"41.51512000","longitude":"-8.58400000","wikiDataId":"Q33512640"},{"id":89644,"Name":"Vieira do Minho","state_id":2244,"state_code":"03","state_name":"Braga","country_id":177,"country_code":"PT","country_name":"Portugal","latitude":"41.63557000","longitude":"-8.13244000","wikiDataId":"Q551109"},{"id":89647,"Name":"Vila Cova","state_id":2244,"state_code":"03","state_name":"Braga","country_id":177,"country_code":"PT","country_name":"Portugal","latitude":"41.55107000","longitude":"-8.71645000","wikiDataId":"Q33511815"},{"id":89651,"Name":"Vila Frescainha","state_id":2244,"state_code":"03","state_name":"Braga","country_id":177,"country_code":"PT","country_name":"Portugal","latitude":"41.53846000","longitude":"-8.63971000","wikiDataId":"Q33511837"},{"id":89656,"Name":"Vila Nova de Famalicão","state_id":2244,"state_code":"03","state_name":"Braga","country_id":177,"country_code":"PT","country_name":"Portugal","latitude":"41.40797000","longitude":"-8.51978000","wikiDataId":"Q551658"},{"id":89665,"Name":"Vila Seca","state_id":2244,"state_code":"03","state_name":"Braga","country_id":177,"country_code":"PT","country_name":"Portugal","latitude":"41.50031000","longitude":"-8.68525000","wikiDataId":"Q750578"},{"id":89668,"Name":"Vila Verde","state_id":2244,"state_code":"03","state_name":"Braga","country_id":177,"country_code":"PT","country_name":"Portugal","latitude":"41.64869000","longitude":"-8.43628000","wikiDataId":"Q551676"},{"id":89679,"Name":"Vilaça","state_id":2244,"state_code":"03","state_name":"Braga","country_id":177,"country_code":"PT","country_name":"Portugal","latitude":"41.51787000","longitude":"-8.48357000","wikiDataId":"Q1147364"},{"id":89676,"Name":"Vilar de Figos","state_id":2244,"state_code":"03","state_name":"Braga","country_id":177,"country_code":"PT","country_name":"Portugal","latitude":"41.47555000","longitude":"-8.65382000","wikiDataId":"Q33511867"},{"id":89686,"Name":"Vizela","state_id":2244,"state_code":"03","state_name":"Braga","country_id":177,"country_code":"PT","country_name":"Portugal","latitude":"41.37529000","longitude":"-8.29310000","wikiDataId":"Q551955"}]