[{"id":62296,"Name":"Airy Castle","state_id":3750,"state_code":"03","state_name":"Saint Thomas Parish","country_id":108,"country_code":"JM","country_name":"Jamaica","latitude":"17.92506000","longitude":"-76.34216000","wikiDataId":"Q18436859"},{"id":62299,"Name":"Albion","state_id":3750,"state_code":"03","state_name":"Saint Thomas Parish","country_id":108,"country_code":"JM","country_name":"Jamaica","latitude":"17.90119000","longitude":"-76.60761000","wikiDataId":"Q4711348"},{"id":62311,"Name":"Amity Hall","state_id":3750,"state_code":"03","state_name":"Saint Thomas Parish","country_id":108,"country_code":"JM","country_name":"Jamaica","latitude":"17.96759000","longitude":"-76.25698000","wikiDataId":"Q4732659"},{"id":62314,"Name":"Arcadia","state_id":3750,"state_code":"03","state_name":"Saint Thomas Parish","country_id":108,"country_code":"JM","country_name":"Jamaica","latitude":"17.92230000","longitude":"-76.30030000","wikiDataId":"Q567350"},{"id":62332,"Name":"Baptist","state_id":3750,"state_code":"03","state_name":"Saint Thomas Parish","country_id":108,"country_code":"JM","country_name":"Jamaica","latitude":"17.87666000","longitude":"-76.57837000","wikiDataId":"Q1880599"},{"id":62335,"Name":"Barking Lodge","state_id":3750,"state_code":"03","state_name":"Saint Thomas Parish","country_id":108,"country_code":"JM","country_name":"Jamaica","latitude":"17.89279000","longitude":"-76.28922000","wikiDataId":"Q1880599"},{"id":62339,"Name":"Bath","state_id":3750,"state_code":"03","state_name":"Saint Thomas Parish","country_id":108,"country_code":"JM","country_name":"Jamaica","latitude":"17.94820000","longitude":"-76.34916000","wikiDataId":"Q1880599"},{"id":62355,"Name":"Bethel","state_id":3750,"state_code":"03","state_name":"Saint Thomas Parish","country_id":108,"country_code":"JM","country_name":"Jamaica","latitude":"17.98527000","longitude":"-76.58050000","wikiDataId":"Q1880599"},{"id":62438,"Name":"Cedar Valley","state_id":3750,"state_code":"03","state_name":"Saint Thomas Parish","country_id":108,"country_code":"JM","country_name":"Jamaica","latitude":"18.02815000","longitude":"-76.59556000","wikiDataId":"Q1001895"},{"id":62455,"Name":"Church Corner","state_id":3750,"state_code":"03","state_name":"Saint Thomas Parish","country_id":108,"country_code":"JM","country_name":"Jamaica","latitude":"17.88718000","longitude":"-76.41898000","wikiDataId":"Q5073143"},{"id":62500,"Name":"Dalvey","state_id":3750,"state_code":"03","state_name":"Saint Thomas Parish","country_id":108,"country_code":"JM","country_name":"Jamaica","latitude":"17.90241000","longitude":"-76.25001000","wikiDataId":"Q1127696"},{"id":62502,"Name":"Danvers Pen","state_id":3750,"state_code":"03","state_name":"Saint Thomas Parish","country_id":108,"country_code":"JM","country_name":"Jamaica","latitude":"17.92880000","longitude":"-76.47586000","wikiDataId":"Q1127696"},{"id":62522,"Name":"Duckenfield","state_id":3750,"state_code":"03","state_name":"Saint Thomas Parish","country_id":108,"country_code":"JM","country_name":"Jamaica","latitude":"17.92205000","longitude":"-76.22657000","wikiDataId":"Q1166379"},{"id":62524,"Name":"Duhaney Pen","state_id":3750,"state_code":"03","state_name":"Saint Thomas Parish","country_id":108,"country_code":"JM","country_name":"Jamaica","latitude":"17.89402000","longitude":"-76.43193000","wikiDataId":"Q1166379"},{"id":62529,"Name":"Easington","state_id":3750,"state_code":"03","state_name":"Saint Thomas Parish","country_id":108,"country_code":"JM","country_name":"Jamaica","latitude":"17.92397000","longitude":"-76.58824000","wikiDataId":"Q1265469"},{"id":62535,"Name":"Eleven Miles","state_id":3750,"state_code":"03","state_name":"Saint Thomas Parish","country_id":108,"country_code":"JM","country_name":"Jamaica","latitude":"17.93745000","longitude":"-76.64337000","wikiDataId":"Q1265469"},{"id":62561,"Name":"Font Hill","state_id":3750,"state_code":"03","state_name":"Saint Thomas Parish","country_id":108,"country_code":"JM","country_name":"Jamaica","latitude":"17.94055000","longitude":"-76.51169000","wikiDataId":"Q1394786"},{"id":62592,"Name":"Golden Grove","state_id":3750,"state_code":"03","state_name":"Saint Thomas Parish","country_id":108,"country_code":"JM","country_name":"Jamaica","latitude":"17.93361000","longitude":"-76.27254000","wikiDataId":"Q1394786"},{"id":62622,"Name":"Hagley Gap","state_id":3750,"state_code":"03","state_name":"Saint Thomas Parish","country_id":108,"country_code":"JM","country_name":"Jamaica","latitude":"18.04845000","longitude":"-76.62777000","wikiDataId":"Q1394786"},{"id":62627,"Name":"Hampton Court","state_id":3750,"state_code":"03","state_name":"Saint Thomas Parish","country_id":108,"country_code":"JM","country_name":"Jamaica","latitude":"17.91782000","longitude":"-76.26131000","wikiDataId":"Q1423367"},{"id":62639,"Name":"Hayfield","state_id":3750,"state_code":"03","state_name":"Saint Thomas Parish","country_id":108,"country_code":"JM","country_name":"Jamaica","latitude":"17.98199000","longitude":"-76.36841000","wikiDataId":"Q1008008"},{"id":62649,"Name":"Hillside","state_id":3750,"state_code":"03","state_name":"Saint Thomas Parish","country_id":108,"country_code":"JM","country_name":"Jamaica","latitude":"17.99619000","longitude":"-76.49082000","wikiDataId":"Q1008008"},{"id":62677,"Name":"Johns Town","state_id":3750,"state_code":"03","state_name":"Saint Thomas Parish","country_id":108,"country_code":"JM","country_name":"Jamaica","latitude":"17.89659000","longitude":"-76.36136000","wikiDataId":"Q1008008"},{"id":62678,"Name":"Johnson Mountain","state_id":3750,"state_code":"03","state_name":"Saint Thomas Parish","country_id":108,"country_code":"JM","country_name":"Jamaica","latitude":"17.98091000","longitude":"-76.31986000","wikiDataId":"Q1008008"},{"id":62680,"Name":"Jones Pen","state_id":3750,"state_code":"03","state_name":"Saint Thomas Parish","country_id":108,"country_code":"JM","country_name":"Jamaica","latitude":"17.95068000","longitude":"-76.54775000","wikiDataId":"Q1008008"},{"id":62706,"Name":"Leith Hall","state_id":3750,"state_code":"03","state_name":"Saint Thomas Parish","country_id":108,"country_code":"JM","country_name":"Jamaica","latitude":"17.87973000","longitude":"-76.34331000","wikiDataId":"Q34692"},{"id":62719,"Name":"Llandewey","state_id":3750,"state_code":"03","state_name":"Saint Thomas Parish","country_id":108,"country_code":"JM","country_name":"Jamaica","latitude":"17.94477000","longitude":"-76.62245000","wikiDataId":"Q1827268"},{"id":62721,"Name":"Lloyds","state_id":3750,"state_code":"03","state_name":"Saint Thomas Parish","country_id":108,"country_code":"JM","country_name":"Jamaica","latitude":"17.91504000","longitude":"-76.54085000","wikiDataId":"Q1827268"},{"id":62735,"Name":"Lyssons","state_id":3750,"state_code":"03","state_name":"Saint Thomas Parish","country_id":108,"country_code":"JM","country_name":"Jamaica","latitude":"17.88708000","longitude":"-76.37961000","wikiDataId":"Q1632220"},{"id":62772,"Name":"Middleton","state_id":3750,"state_code":"03","state_name":"Saint Thomas Parish","country_id":108,"country_code":"JM","country_name":"Jamaica","latitude":"17.93971000","longitude":"-76.43558000","wikiDataId":"Q1677434"},{"id":62789,"Name":"Morant Bay","state_id":3750,"state_code":"03","state_name":"Saint Thomas Parish","country_id":108,"country_code":"JM","country_name":"Jamaica","latitude":"17.88145000","longitude":"-76.40927000","wikiDataId":"Q429741"},{"id":62797,"Name":"Mount Lebanus","state_id":3750,"state_code":"03","state_name":"Saint Thomas Parish","country_id":108,"country_code":"JM","country_name":"Jamaica","latitude":"17.97544000","longitude":"-76.53891000","wikiDataId":"Q429741"},{"id":62820,"Name":"New Monkland","state_id":3750,"state_code":"03","state_name":"Saint Thomas Parish","country_id":108,"country_code":"JM","country_name":"Jamaica","latitude":"17.99158000","longitude":"-76.57333000","wikiDataId":"Q3338970"},{"id":62850,"Name":"Pamphret","state_id":3750,"state_code":"03","state_name":"Saint Thomas Parish","country_id":108,"country_code":"JM","country_name":"Jamaica","latitude":"17.87570000","longitude":"-76.51736000","wikiDataId":"Q7099213"},{"id":62869,"Name":"Pear Tree","state_id":3750,"state_code":"03","state_name":"Saint Thomas Parish","country_id":108,"country_code":"JM","country_name":"Jamaica","latitude":"17.91162000","longitude":"-76.31676000","wikiDataId":"Q7099213"},{"id":62891,"Name":"Poormans Corner","state_id":3750,"state_code":"03","state_name":"Saint Thomas Parish","country_id":108,"country_code":"JM","country_name":"Jamaica","latitude":"17.89152000","longitude":"-76.58351000","wikiDataId":"Q7099213"},{"id":62894,"Name":"Port Morant","state_id":3750,"state_code":"03","state_name":"Saint Thomas Parish","country_id":108,"country_code":"JM","country_name":"Jamaica","latitude":"17.89947000","longitude":"-76.34286000","wikiDataId":"Q265115"},{"id":62907,"Name":"Prospect","state_id":3750,"state_code":"03","state_name":"Saint Thomas Parish","country_id":108,"country_code":"JM","country_name":"Jamaica","latitude":"17.87404000","longitude":"-76.34956000","wikiDataId":"Q2105480"},{"id":62912,"Name":"Ramble","state_id":3750,"state_code":"03","state_name":"Saint Thomas Parish","country_id":108,"country_code":"JM","country_name":"Jamaica","latitude":"17.96791000","longitude":"-76.62630000","wikiDataId":"Q2125159"},{"id":62925,"Name":"Retreat","state_id":3750,"state_code":"03","state_name":"Saint Thomas Parish","country_id":108,"country_code":"JM","country_name":"Jamaica","latitude":"17.87760000","longitude":"-76.36795000","wikiDataId":"Q2125159"},{"id":62932,"Name":"Richmond Vale","state_id":3750,"state_code":"03","state_name":"Saint Thomas Parish","country_id":108,"country_code":"JM","country_name":"Jamaica","latitude":"17.97435000","longitude":"-76.59044000","wikiDataId":"Q2125159"},{"id":62936,"Name":"River Head","state_id":3750,"state_code":"03","state_name":"Saint Thomas Parish","country_id":108,"country_code":"JM","country_name":"Jamaica","latitude":"17.99237000","longitude":"-76.61082000","wikiDataId":"Q2125159"},{"id":62957,"Name":"Rowlandsfield","state_id":3750,"state_code":"03","state_name":"Saint Thomas Parish","country_id":108,"country_code":"JM","country_name":"Jamaica","latitude":"17.97355000","longitude":"-76.28781000","wikiDataId":"Q2125159"},{"id":62980,"Name":"Seaforth","state_id":3750,"state_code":"03","state_name":"Saint Thomas Parish","country_id":108,"country_code":"JM","country_name":"Jamaica","latitude":"17.94421000","longitude":"-76.45661000","wikiDataId":"Q305508"},{"id":63001,"Name":"Somerset","state_id":3750,"state_code":"03","state_name":"Saint Thomas Parish","country_id":108,"country_code":"JM","country_name":"Jamaica","latitude":"18.00976000","longitude":"-76.54595000","wikiDataId":"Q305508"},{"id":63011,"Name":"Spring Bank","state_id":3750,"state_code":"03","state_name":"Saint Thomas Parish","country_id":108,"country_code":"JM","country_name":"Jamaica","latitude":"17.95995000","longitude":"-76.32596000","wikiDataId":"Q846939"},{"id":63012,"Name":"Spring Garden","state_id":3750,"state_code":"03","state_name":"Saint Thomas Parish","country_id":108,"country_code":"JM","country_name":"Jamaica","latitude":"17.91749000","longitude":"-76.42978000","wikiDataId":"Q846939"},{"id":63042,"Name":"Sunning Hill","state_id":3750,"state_code":"03","state_name":"Saint Thomas Parish","country_id":108,"country_code":"JM","country_name":"Jamaica","latitude":"17.95612000","longitude":"-76.40931000","wikiDataId":"Q1651059"},{"id":63064,"Name":"Trinity Ville","state_id":3750,"state_code":"03","state_name":"Saint Thomas Parish","country_id":108,"country_code":"JM","country_name":"Jamaica","latitude":"17.96076000","longitude":"-76.51427000","wikiDataId":"Q1651059"},{"id":63065,"Name":"Trinityville","state_id":3750,"state_code":"03","state_name":"Saint Thomas Parish","country_id":108,"country_code":"JM","country_name":"Jamaica","latitude":"17.95720000","longitude":"-76.49420000","wikiDataId":"Q1651059"},{"id":63098,"Name":"Wheelerfield","state_id":3750,"state_code":"03","state_name":"Saint Thomas Parish","country_id":108,"country_code":"JM","country_name":"Jamaica","latitude":"17.95874000","longitude":"-76.29623000","wikiDataId":"Q1651059"},{"id":63099,"Name":"White Hall","state_id":3750,"state_code":"03","state_name":"Saint Thomas Parish","country_id":108,"country_code":"JM","country_name":"Jamaica","latitude":"17.99805000","longitude":"-76.43105000","wikiDataId":"Q1651059"},{"id":63101,"Name":"White Horses","state_id":3750,"state_code":"03","state_name":"Saint Thomas Parish","country_id":108,"country_code":"JM","country_name":"Jamaica","latitude":"17.89620000","longitude":"-76.47076000","wikiDataId":"Q1651059"},{"id":63109,"Name":"Wilmington","state_id":3750,"state_code":"03","state_name":"Saint Thomas Parish","country_id":108,"country_code":"JM","country_name":"Jamaica","latitude":"17.92856000","longitude":"-76.38962000","wikiDataId":"Q1651059"},{"id":63112,"Name":"Winchester","state_id":3750,"state_code":"03","state_name":"Saint Thomas Parish","country_id":108,"country_code":"JM","country_name":"Jamaica","latitude":"17.94177000","longitude":"-76.29823000","wikiDataId":"Q1651059"},{"id":63124,"Name":"Yallahs","state_id":3750,"state_code":"03","state_name":"Saint Thomas Parish","country_id":108,"country_code":"JM","country_name":"Jamaica","latitude":"17.87480000","longitude":"-76.56245000","wikiDataId":"Q1550881"},{"id":63125,"Name":"York","state_id":3750,"state_code":"03","state_name":"Saint Thomas Parish","country_id":108,"country_code":"JM","country_name":"Jamaica","latitude":"17.92849000","longitude":"-76.43983000","wikiDataId":"Q1550881"}]