[{"id":107244,"Name":"Ağrı","state_id":2193,"state_code":"04","state_name":"Ağrı","country_id":225,"country_code":"TR","country_name":"Turkey","latitude":"39.71944000","longitude":"43.05139000","wikiDataId":"Q199575"},{"id":107502,"Name":"Diyadin","state_id":2193,"state_code":"04","state_name":"Ağrı","country_id":225,"country_code":"TR","country_name":"Turkey","latitude":"39.54056000","longitude":"43.67135000","wikiDataId":"Q2473716"},{"id":107527,"Name":"Doğubayazıt","state_id":2193,"state_code":"04","state_name":"Ağrı","country_id":225,"country_code":"TR","country_name":"Turkey","latitude":"39.54694000","longitude":"44.08417000","wikiDataId":"Q849535"},{"id":107566,"Name":"Eleşkirt","state_id":2193,"state_code":"04","state_name":"Ağrı","country_id":225,"country_code":"TR","country_name":"Turkey","latitude":"39.79803000","longitude":"42.67574000","wikiDataId":"Q2672821"},{"id":107783,"Name":"Hamur","state_id":2193,"state_code":"04","state_name":"Ağrı","country_id":225,"country_code":"TR","country_name":"Turkey","latitude":"39.60561000","longitude":"42.98500000","wikiDataId":"Q4821124"},{"id":108316,"Name":"Patnos","state_id":2193,"state_code":"04","state_name":"Ağrı","country_id":225,"country_code":"TR","country_name":"Turkey","latitude":"39.22493000","longitude":"42.85693000","wikiDataId":"Q509324"},{"id":108552,"Name":"Taşlıçay","state_id":2193,"state_code":"04","state_name":"Ağrı","country_id":225,"country_code":"TR","country_name":"Turkey","latitude":"39.62966000","longitude":"43.36878000","wikiDataId":"Q7690521"},{"id":108608,"Name":"Tutak İlçesi","state_id":2193,"state_code":"04","state_name":"Ağrı","country_id":225,"country_code":"TR","country_name":"Turkey","latitude":"39.55042000","longitude":"42.77572000","wikiDataId":"Q5250179"}]