[{"id":152,"Name":"Ballsh","state_id":631,"state_code":"04","state_name":"Fier County","country_id":3,"country_code":"AL","country_name":"Albania","latitude":"40.59889000","longitude":"19.73472000","wikiDataId":"Q743016"},{"id":157,"Name":"Bashkia Divjakë","state_id":631,"state_code":"04","state_name":"Fier County","country_id":3,"country_code":"AL","country_name":"Albania","latitude":"40.95716000","longitude":"19.52364000","wikiDataId":"Q16350064"},{"id":160,"Name":"Bashkia Fier","state_id":631,"state_code":"04","state_name":"Fier County","country_id":3,"country_code":"AL","country_name":"Albania","latitude":"40.72937000","longitude":"19.48690000","wikiDataId":"Q16350064"},{"id":174,"Name":"Bashkia Mallakastër","state_id":631,"state_code":"04","state_name":"Fier County","country_id":3,"country_code":"AL","country_name":"Albania","latitude":"40.55669000","longitude":"19.77347000","wikiDataId":"Q16350064"},{"id":179,"Name":"Bashkia Patos","state_id":631,"state_code":"04","state_name":"Fier County","country_id":3,"country_code":"AL","country_name":"Albania","latitude":"40.67793000","longitude":"19.65591000","wikiDataId":"Q16350064"},{"id":196,"Name":"Divjakë","state_id":631,"state_code":"04","state_name":"Fier County","country_id":3,"country_code":"AL","country_name":"Albania","latitude":"40.99667000","longitude":"19.52944000","wikiDataId":"Q1945622"},{"id":200,"Name":"Fier","state_id":631,"state_code":"04","state_name":"Fier County","country_id":3,"country_code":"AL","country_name":"Albania","latitude":"40.72389000","longitude":"19.55611000","wikiDataId":"Q190897"},{"id":201,"Name":"Fier-Çifçi","state_id":631,"state_code":"04","state_name":"Fier County","country_id":3,"country_code":"AL","country_name":"Albania","latitude":"40.71667000","longitude":"19.56667000","wikiDataId":"Q22012402"},{"id":227,"Name":"Lushnjë","state_id":631,"state_code":"04","state_name":"Fier County","country_id":3,"country_code":"AL","country_name":"Albania","latitude":"40.94194000","longitude":"19.70500000","wikiDataId":"Q212680"},{"id":234,"Name":"Patos","state_id":631,"state_code":"04","state_name":"Fier County","country_id":3,"country_code":"AL","country_name":"Albania","latitude":"40.68333000","longitude":"19.61944000","wikiDataId":"Q18709"},{"id":235,"Name":"Patos Fshat","state_id":631,"state_code":"04","state_name":"Fier County","country_id":3,"country_code":"AL","country_name":"Albania","latitude":"40.64278000","longitude":"19.65083000","wikiDataId":"Q13044035"},{"id":241,"Name":"Roskovec","state_id":631,"state_code":"04","state_name":"Fier County","country_id":3,"country_code":"AL","country_name":"Albania","latitude":"40.73750000","longitude":"19.70222000","wikiDataId":"Q18746"},{"id":254,"Name":"Rrethi i Mallakastrës","state_id":631,"state_code":"04","state_name":"Fier County","country_id":3,"country_code":"AL","country_name":"Albania","latitude":"40.55000000","longitude":"19.78333000","wikiDataId":"Q211946"}]