[{"id":107157,"Name":"Amasya","state_id":2161,"state_code":"05","state_name":"Amasya","country_id":225,"country_code":"TR","country_name":"Turkey","latitude":"40.65333000","longitude":"35.83306000","wikiDataId":"Q170532"},{"id":107457,"Name":"Dedeköy","state_id":2161,"state_code":"05","state_name":"Amasya","country_id":225,"country_code":"TR","country_name":"Turkey","latitude":"40.74752000","longitude":"35.04249000","wikiDataId":"Q2672686"},{"id":107716,"Name":"Göynücek","state_id":2161,"state_code":"05","state_name":"Amasya","country_id":225,"country_code":"TR","country_name":"Turkey","latitude":"40.39917000","longitude":"35.52500000","wikiDataId":"Q6710593"},{"id":107737,"Name":"Gümüşhacıköy","state_id":2161,"state_code":"05","state_name":"Amasya","country_id":225,"country_code":"TR","country_name":"Turkey","latitude":"40.87306000","longitude":"35.21472000","wikiDataId":"Q1003182"},{"id":107781,"Name":"Hamamözü İlçesi","state_id":2161,"state_code":"05","state_name":"Amasya","country_id":225,"country_code":"TR","country_name":"Turkey","latitude":"40.79539000","longitude":"35.03367000","wikiDataId":"Q2670691"},{"id":108195,"Name":"Merkez","state_id":2161,"state_code":"05","state_name":"Amasya","country_id":225,"country_code":"TR","country_name":"Turkey","latitude":"40.61939000","longitude":"35.87016000","wikiDataId":"Q3055997"},{"id":108200,"Name":"Merzifon İlçesi","state_id":2161,"state_code":"05","state_name":"Amasya","country_id":225,"country_code":"TR","country_name":"Turkey","latitude":"40.88348000","longitude":"35.47116000","wikiDataId":"Q958135"},{"id":108500,"Name":"Suluova","state_id":2161,"state_code":"05","state_name":"Amasya","country_id":225,"country_code":"TR","country_name":"Turkey","latitude":"40.83129000","longitude":"35.64788000","wikiDataId":"Q5248613"},{"id":108554,"Name":"Taşova","state_id":2161,"state_code":"05","state_name":"Amasya","country_id":225,"country_code":"TR","country_name":"Turkey","latitude":"40.75972000","longitude":"36.32250000","wikiDataId":"Q1023307"}]