[{"id":134652,"Name":"Harsīn","state_id":3919,"state_code":"05","state_name":"Kermanshah","country_id":103,"country_code":"IR","country_name":"Iran","latitude":"34.27210000","longitude":"47.58610000","wikiDataId":"Q889116"},{"id":134657,"Name":"Javānrūd","state_id":3919,"state_code":"05","state_name":"Kermanshah","country_id":103,"country_code":"IR","country_name":"Iran","latitude":"34.79611000","longitude":"46.51722000","wikiDataId":"Q42053"},{"id":134661,"Name":"Kahrīz","state_id":3919,"state_code":"05","state_name":"Kermanshah","country_id":103,"country_code":"IR","country_name":"Iran","latitude":"34.38380000","longitude":"47.05530000","wikiDataId":"Q945447"},{"id":134663,"Name":"Kangāvar","state_id":3919,"state_code":"05","state_name":"Kermanshah","country_id":103,"country_code":"IR","country_name":"Iran","latitude":"34.50430000","longitude":"47.96530000","wikiDataId":"Q720604"},{"id":134668,"Name":"Kermanshah","state_id":3919,"state_code":"05","state_name":"Kermanshah","country_id":103,"country_code":"IR","country_name":"Iran","latitude":"34.31417000","longitude":"47.06500000","wikiDataId":"Q180078"},{"id":134733,"Name":"Pāveh","state_id":3919,"state_code":"05","state_name":"Kermanshah","country_id":103,"country_code":"IR","country_name":"Iran","latitude":"35.04340000","longitude":"46.35650000","wikiDataId":"Q720608"},{"id":134770,"Name":"Sarpol-e Z̄ahāb","state_id":3919,"state_code":"05","state_name":"Kermanshah","country_id":103,"country_code":"IR","country_name":"Iran","latitude":"34.46109000","longitude":"45.86264000","wikiDataId":"Q168843"},{"id":134851,"Name":"Shahrestān-e Dālāhū","state_id":3919,"state_code":"05","state_name":"Kermanshah","country_id":103,"country_code":"IR","country_name":"Iran","latitude":"34.41667000","longitude":"46.25000000","wikiDataId":"Q498106"},{"id":134860,"Name":"Shahrestān-e Eslāmābād-e Gharb","state_id":3919,"state_code":"05","state_name":"Kermanshah","country_id":103,"country_code":"IR","country_name":"Iran","latitude":"34.05000000","longitude":"46.66667000","wikiDataId":"Q498106"},{"id":134890,"Name":"Shahrestān-e Gīlān-e Gharb","state_id":3919,"state_code":"05","state_name":"Kermanshah","country_id":103,"country_code":"IR","country_name":"Iran","latitude":"34.13333000","longitude":"46.00000000","wikiDataId":"Q721034"},{"id":134891,"Name":"Shahrestān-e Harsīn","state_id":3919,"state_code":"05","state_name":"Kermanshah","country_id":103,"country_code":"IR","country_name":"Iran","latitude":"34.35000000","longitude":"47.48333000","wikiDataId":"Q721034"},{"id":134896,"Name":"Shahrestān-e Javānrūd","state_id":3919,"state_code":"05","state_name":"Kermanshah","country_id":103,"country_code":"IR","country_name":"Iran","latitude":"34.86667000","longitude":"46.30000000","wikiDataId":"Q721034"},{"id":134907,"Name":"Shahrestān-e Kangāvar","state_id":3919,"state_code":"05","state_name":"Kermanshah","country_id":103,"country_code":"IR","country_name":"Iran","latitude":"34.48333000","longitude":"47.93333000","wikiDataId":"Q721034"},{"id":134910,"Name":"Shahrestān-e Kermānshāh","state_id":3919,"state_code":"05","state_name":"Kermanshah","country_id":103,"country_code":"IR","country_name":"Iran","latitude":"34.33333000","longitude":"47.00000000","wikiDataId":"Q1264551"},{"id":134997,"Name":"Shahrestān-e Pāveh","state_id":3919,"state_code":"05","state_name":"Kermanshah","country_id":103,"country_code":"IR","country_name":"Iran","latitude":"35.05000000","longitude":"46.26667000","wikiDataId":"Q5099954"},{"id":135002,"Name":"Shahrestān-e Qaşr-e Shīrīn","state_id":3919,"state_code":"05","state_name":"Kermanshah","country_id":103,"country_code":"IR","country_name":"Iran","latitude":"34.20000000","longitude":"45.63333000","wikiDataId":"Q5099954"},{"id":135008,"Name":"Shahrestān-e Ravānsar","state_id":3919,"state_code":"05","state_name":"Kermanshah","country_id":103,"country_code":"IR","country_name":"Iran","latitude":"34.75000000","longitude":"46.65000000","wikiDataId":"Q5099954"},{"id":135094,"Name":"Shahrestān-e Şaḩneh","state_id":3919,"state_code":"05","state_name":"Kermanshah","country_id":103,"country_code":"IR","country_name":"Iran","latitude":"34.58333000","longitude":"47.51667000","wikiDataId":"Q1277854"},{"id":135056,"Name":"Shahrestān-e S̄alās̄-e Bābā Jānī","state_id":3919,"state_code":"05","state_name":"Kermanshah","country_id":103,"country_code":"IR","country_name":"Iran","latitude":"34.81667000","longitude":"45.98333000","wikiDataId":"Q1286233"},{"id":135025,"Name":"Shahrestān-e Sarpol-e Z̄ahāb","state_id":3919,"state_code":"05","state_name":"Kermanshah","country_id":103,"country_code":"IR","country_name":"Iran","latitude":"34.50000000","longitude":"45.85000000","wikiDataId":"Q5099954"},{"id":135120,"Name":"Sonqor","state_id":3919,"state_code":"05","state_name":"Kermanshah","country_id":103,"country_code":"IR","country_name":"Iran","latitude":"34.78187000","longitude":"47.59945000","wikiDataId":"Q3964916"}]