[{"id":21800,"Name":"Abreus","state_id":287,"state_code":"06","state_name":"Cienfuegos Province","country_id":56,"country_code":"CU","country_name":"Cuba","latitude":"22.27797000","longitude":"-80.56931000","wikiDataId":"Q23806009"},{"id":21801,"Name":"Aguada de Pasajeros","state_id":287,"state_code":"06","state_name":"Cienfuegos Province","country_id":56,"country_code":"CU","country_name":"Cuba","latitude":"22.38520000","longitude":"-80.84792000","wikiDataId":"Q23806009"},{"id":21834,"Name":"Cienfuegos","state_id":287,"state_code":"06","state_name":"Cienfuegos Province","country_id":56,"country_code":"CU","country_name":"Cuba","latitude":"22.14957000","longitude":"-80.44662000","wikiDataId":"Q1060628"},{"id":21843,"Name":"Cruces","state_id":287,"state_code":"06","state_name":"Cienfuegos Province","country_id":56,"country_code":"CU","country_name":"Cuba","latitude":"22.34203000","longitude":"-80.27021000","wikiDataId":"Q1129122"},{"id":21845,"Name":"Cumanayagua","state_id":287,"state_code":"06","state_name":"Cienfuegos Province","country_id":56,"country_code":"CU","country_name":"Cuba","latitude":"22.15247000","longitude":"-80.20354000","wikiDataId":"Q5044"},{"id":21883,"Name":"Lajas","state_id":287,"state_code":"06","state_name":"Cienfuegos Province","country_id":56,"country_code":"CU","country_name":"Cuba","latitude":"22.41479000","longitude":"-80.29310000","wikiDataId":"Q5045"},{"id":21903,"Name":"Municipio de Abreus","state_id":287,"state_code":"06","state_name":"Cienfuegos Province","country_id":56,"country_code":"CU","country_name":"Cuba","latitude":"22.19229000","longitude":"-80.71465000","wikiDataId":"Q331384"},{"id":21910,"Name":"Municipio de Cienfuegos","state_id":287,"state_code":"06","state_name":"Cienfuegos Province","country_id":56,"country_code":"CU","country_name":"Cuba","latitude":"22.15000000","longitude":"-80.45000000","wikiDataId":"Q190005"},{"id":21940,"Name":"Palmira","state_id":287,"state_code":"06","state_name":"Cienfuegos Province","country_id":56,"country_code":"CU","country_name":"Cuba","latitude":"22.24126000","longitude":"-80.39110000","wikiDataId":"Q5008"},{"id":21953,"Name":"Rodas","state_id":287,"state_code":"06","state_name":"Cienfuegos Province","country_id":56,"country_code":"CU","country_name":"Cuba","latitude":"22.34184000","longitude":"-80.55596000","wikiDataId":"Q21610104"}]