[{"id":88929,"Name":"Alfarelos","state_id":2246,"state_code":"06","state_name":"Coimbra","country_id":177,"country_code":"PT","country_name":"Portugal","latitude":"40.15057000","longitude":"-8.65326000","wikiDataId":"Q2094565"},{"id":88938,"Name":"Alhadas","state_id":2246,"state_code":"06","state_name":"Coimbra","country_id":177,"country_code":"PT","country_name":"Portugal","latitude":"40.18607000","longitude":"-8.79057000","wikiDataId":"Q1024149"},{"id":88972,"Name":"Ançã","state_id":2246,"state_code":"06","state_name":"Coimbra","country_id":177,"country_code":"PT","country_name":"Portugal","latitude":"40.27161000","longitude":"-8.52090000","wikiDataId":"Q31884098"},{"id":88977,"Name":"Arazede","state_id":2246,"state_code":"06","state_name":"Coimbra","country_id":177,"country_code":"PT","country_name":"Portugal","latitude":"40.28627000","longitude":"-8.64999000","wikiDataId":"Q626815"},{"id":88984,"Name":"Arganil","state_id":2246,"state_code":"06","state_name":"Coimbra","country_id":177,"country_code":"PT","country_name":"Portugal","latitude":"40.21826000","longitude":"-8.05403000","wikiDataId":"Q31887734"},{"id":88998,"Name":"Assafarge","state_id":2246,"state_code":"06","state_name":"Coimbra","country_id":177,"country_code":"PT","country_name":"Portugal","latitude":"40.15895000","longitude":"-8.43167000","wikiDataId":"Q738614"},{"id":89050,"Name":"Buarcos","state_id":2246,"state_code":"06","state_name":"Coimbra","country_id":177,"country_code":"PT","country_name":"Portugal","latitude":"40.16604000","longitude":"-8.87680000","wikiDataId":"Q33790615"},{"id":89088,"Name":"Cantanhede","state_id":2246,"state_code":"06","state_name":"Coimbra","country_id":177,"country_code":"PT","country_name":"Portugal","latitude":"40.36354000","longitude":"-8.60549000","wikiDataId":"Q426945"},{"id":89091,"Name":"Carapinheira","state_id":2246,"state_code":"06","state_name":"Coimbra","country_id":177,"country_code":"PT","country_name":"Portugal","latitude":"40.20620000","longitude":"-8.64810000","wikiDataId":"Q1035405"},{"id":89122,"Name":"Coimbra","state_id":2246,"state_code":"06","state_name":"Coimbra","country_id":177,"country_code":"PT","country_name":"Portugal","latitude":"40.20564000","longitude":"-8.41955000","wikiDataId":"Q3348861"},{"id":89126,"Name":"Condeixa-a-Nova","state_id":2246,"state_code":"06","state_name":"Coimbra","country_id":177,"country_code":"PT","country_name":"Portugal","latitude":"40.10639000","longitude":"-8.49632000","wikiDataId":"Q138830"},{"id":89182,"Name":"Figueira da Foz","state_id":2246,"state_code":"06","state_name":"Coimbra","country_id":177,"country_code":"PT","country_name":"Portugal","latitude":"40.15085000","longitude":"-8.86179000","wikiDataId":"Q428459"},{"id":89222,"Name":"Góis","state_id":2246,"state_code":"06","state_name":"Coimbra","country_id":177,"country_code":"PT","country_name":"Portugal","latitude":"40.12535000","longitude":"-8.08340000","wikiDataId":"Q425410"},{"id":89238,"Name":"Lavos","state_id":2246,"state_code":"06","state_name":"Coimbra","country_id":177,"country_code":"PT","country_name":"Portugal","latitude":"40.09363000","longitude":"-8.82826000","wikiDataId":"Q35712820"},{"id":89249,"Name":"Lorvão","state_id":2246,"state_code":"06","state_name":"Coimbra","country_id":177,"country_code":"PT","country_name":"Portugal","latitude":"40.25938000","longitude":"-8.31683000","wikiDataId":"Q1454968"},{"id":89256,"Name":"Lousã","state_id":2246,"state_code":"06","state_name":"Coimbra","country_id":177,"country_code":"PT","country_name":"Portugal","latitude":"40.11673000","longitude":"-8.24921000","wikiDataId":"Q35719737"},{"id":89303,"Name":"Mira","state_id":2246,"state_code":"06","state_name":"Coimbra","country_id":177,"country_code":"PT","country_name":"Portugal","latitude":"40.44559000","longitude":"-8.73849000","wikiDataId":"Q1006418"},{"id":89304,"Name":"Miranda do Corvo","state_id":2246,"state_code":"06","state_name":"Coimbra","country_id":177,"country_code":"PT","country_name":"Portugal","latitude":"40.09318000","longitude":"-8.33261000","wikiDataId":"Q370187"},{"id":89325,"Name":"Montemor-o-Velho","state_id":2246,"state_code":"06","state_name":"Coimbra","country_id":177,"country_code":"PT","country_name":"Portugal","latitude":"40.19385000","longitude":"-8.66696000","wikiDataId":"Q538407"},{"id":89368,"Name":"Oliveira do Hospital","state_id":2246,"state_code":"06","state_name":"Coimbra","country_id":177,"country_code":"PT","country_name":"Portugal","latitude":"40.35522000","longitude":"-7.86481000","wikiDataId":"Q990381"},{"id":89369,"Name":"Oliveira do Mondego","state_id":2246,"state_code":"06","state_name":"Coimbra","country_id":177,"country_code":"PT","country_name":"Portugal","latitude":"40.32305000","longitude":"-8.22367000","wikiDataId":"Q990381"},{"id":89378,"Name":"Pampilhosa da Serra","state_id":2246,"state_code":"06","state_name":"Coimbra","country_id":177,"country_code":"PT","country_name":"Portugal","latitude":"40.04620000","longitude":"-7.95182000","wikiDataId":"Q1000099"},{"id":89393,"Name":"Penacova","state_id":2246,"state_code":"06","state_name":"Coimbra","country_id":177,"country_code":"PT","country_name":"Portugal","latitude":"40.26884000","longitude":"-8.28237000","wikiDataId":"Q1005038"},{"id":89399,"Name":"Penela","state_id":2246,"state_code":"06","state_name":"Coimbra","country_id":177,"country_code":"PT","country_name":"Portugal","latitude":"40.03333000","longitude":"-8.38333000","wikiDataId":"Q576924"},{"id":89410,"Name":"Poiares","state_id":2246,"state_code":"06","state_name":"Coimbra","country_id":177,"country_code":"PT","country_name":"Portugal","latitude":"40.21026000","longitude":"-8.25746000","wikiDataId":"Q49361444"},{"id":89497,"Name":"Santa Clara","state_id":2246,"state_code":"06","state_name":"Coimbra","country_id":177,"country_code":"PT","country_name":"Portugal","latitude":"40.19985000","longitude":"-8.44018000","wikiDataId":"Q49366995"},{"id":89516,"Name":"Santo António dos Olivais","state_id":2246,"state_code":"06","state_name":"Coimbra","country_id":177,"country_code":"PT","country_name":"Portugal","latitude":"40.21805000","longitude":"-8.40523000","wikiDataId":"Q49367033"},{"id":89582,"Name":"São Pedro de Alva","state_id":2246,"state_code":"06","state_name":"Coimbra","country_id":177,"country_code":"PT","country_name":"Portugal","latitude":"40.30044000","longitude":"-8.16623000","wikiDataId":"Q33503188"},{"id":89552,"Name":"Soure","state_id":2246,"state_code":"06","state_name":"Coimbra","country_id":177,"country_code":"PT","country_name":"Portugal","latitude":"40.05989000","longitude":"-8.62605000","wikiDataId":"Q543993"},{"id":89616,"Name":"Tábua","state_id":2246,"state_code":"06","state_name":"Coimbra","country_id":177,"country_code":"PT","country_name":"Portugal","latitude":"40.36207000","longitude":"-8.02936000","wikiDataId":"Q988846"},{"id":89596,"Name":"Tavarede","state_id":2246,"state_code":"06","state_name":"Coimbra","country_id":177,"country_code":"PT","country_name":"Portugal","latitude":"40.16692000","longitude":"-8.84568000","wikiDataId":"Q2118692"},{"id":89603,"Name":"Tocha","state_id":2246,"state_code":"06","state_name":"Coimbra","country_id":177,"country_code":"PT","country_name":"Portugal","latitude":"40.31308000","longitude":"-8.75339000","wikiDataId":"Q33506118"},{"id":89611,"Name":"Travanca","state_id":2246,"state_code":"06","state_name":"Coimbra","country_id":177,"country_code":"PT","country_name":"Portugal","latitude":"40.32357000","longitude":"-8.18687000","wikiDataId":"Q1850950"},{"id":89660,"Name":"Vila Nova de Poiares","state_id":2246,"state_code":"06","state_name":"Coimbra","country_id":177,"country_code":"PT","country_name":"Portugal","latitude":"40.22129000","longitude":"-8.24105000","wikiDataId":"Q425817"}]