[{"id":134555,"Name":"Abadan","state_id":3917,"state_code":"06","state_name":"Khuzestan","country_id":103,"country_code":"IR","country_name":"Iran","latitude":"30.33920000","longitude":"48.30430000","wikiDataId":"Q63049"},{"id":134558,"Name":"Aghajari","state_id":3917,"state_code":"06","state_name":"Khuzestan","country_id":103,"country_code":"IR","country_name":"Iran","latitude":"30.70060000","longitude":"49.83150000","wikiDataId":"Q889045"},{"id":134561,"Name":"Ahvaz","state_id":3917,"state_code":"06","state_name":"Khuzestan","country_id":103,"country_code":"IR","country_name":"Iran","latitude":"31.31901000","longitude":"48.68420000","wikiDataId":"Q170366"},{"id":134599,"Name":"Bāgh Shahrestān-e Malek","state_id":3917,"state_code":"06","state_name":"Khuzestan","country_id":103,"country_code":"IR","country_name":"Iran","latitude":"31.50000000","longitude":"49.91667000","wikiDataId":"Q1799624"},{"id":134584,"Name":"Behbahān","state_id":3917,"state_code":"06","state_name":"Khuzestan","country_id":103,"country_code":"IR","country_name":"Iran","latitude":"30.59590000","longitude":"50.24170000","wikiDataId":"Q2159871"},{"id":134649,"Name":"Gotvand","state_id":3917,"state_code":"06","state_name":"Khuzestan","country_id":103,"country_code":"IR","country_name":"Iran","latitude":"32.21667000","longitude":"48.80000000","wikiDataId":"Q188155"},{"id":134650,"Name":"Hamidiyeh","state_id":3917,"state_code":"06","state_name":"Khuzestan","country_id":103,"country_code":"IR","country_name":"Iran","latitude":"31.48107000","longitude":"48.43303000","wikiDataId":"Q188155"},{"id":134658,"Name":"Jongīyeh","state_id":3917,"state_code":"06","state_name":"Khuzestan","country_id":103,"country_code":"IR","country_name":"Iran","latitude":"31.25583000","longitude":"48.61667000","wikiDataId":"Q42053"},{"id":134665,"Name":"Karun","state_id":3917,"state_code":"06","state_name":"Khuzestan","country_id":103,"country_code":"IR","country_name":"Iran","latitude":"31.27618000","longitude":"48.64174000","wikiDataId":"Q36529"},{"id":134675,"Name":"Khorramshahr","state_id":3917,"state_code":"06","state_name":"Khuzestan","country_id":103,"country_code":"IR","country_name":"Iran","latitude":"30.44079000","longitude":"48.18428000","wikiDataId":"Q458396"},{"id":134699,"Name":"Masjed Soleymān","state_id":3917,"state_code":"06","state_name":"Khuzestan","country_id":103,"country_code":"IR","country_name":"Iran","latitude":"31.93640000","longitude":"49.30390000","wikiDataId":"Q643172"},{"id":134723,"Name":"Omīdīyeh","state_id":3917,"state_code":"06","state_name":"Khuzestan","country_id":103,"country_code":"IR","country_name":"Iran","latitude":"30.76277000","longitude":"49.70226000","wikiDataId":"Q719776"},{"id":134757,"Name":"Rāmhormoz","state_id":3917,"state_code":"06","state_name":"Khuzestan","country_id":103,"country_code":"IR","country_name":"Iran","latitude":"31.27997000","longitude":"49.60351000","wikiDataId":"Q888697"},{"id":134758,"Name":"Rāmshīr","state_id":3917,"state_code":"06","state_name":"Khuzestan","country_id":103,"country_code":"IR","country_name":"Iran","latitude":"30.89315000","longitude":"49.40787000","wikiDataId":"Q862341"},{"id":135148,"Name":"sedeyen-e Yek","state_id":3917,"state_code":"06","state_name":"Khuzestan","country_id":103,"country_code":"IR","country_name":"Iran","latitude":"31.36205000","longitude":"48.81833000","wikiDataId":"Q139024"},{"id":135109,"Name":"Shādegān","state_id":3917,"state_code":"06","state_name":"Khuzestan","country_id":103,"country_code":"IR","country_name":"Iran","latitude":"30.64924000","longitude":"48.66497000","wikiDataId":"Q778162"},{"id":134780,"Name":"Shahrak-e Kūlūrī","state_id":3917,"state_code":"06","state_name":"Khuzestan","country_id":103,"country_code":"IR","country_name":"Iran","latitude":"32.35276000","longitude":"48.47059000","wikiDataId":"Q721029"},{"id":135080,"Name":"Shahrestān-e Ābādān","state_id":3917,"state_code":"06","state_name":"Khuzestan","country_id":103,"country_code":"IR","country_name":"Iran","latitude":"30.21667000","longitude":"48.53333000","wikiDataId":"Q1286247"},{"id":134787,"Name":"Shahrestān-e Ahvāz","state_id":3917,"state_code":"06","state_name":"Khuzestan","country_id":103,"country_code":"IR","country_name":"Iran","latitude":"31.25000000","longitude":"48.65000000","wikiDataId":"Q498106"},{"id":134789,"Name":"Shahrestān-e Andīkā","state_id":3917,"state_code":"06","state_name":"Khuzestan","country_id":103,"country_code":"IR","country_name":"Iran","latitude":"32.16667000","longitude":"49.53333000","wikiDataId":"Q498106"},{"id":134790,"Name":"Shahrestān-e Andīmeshk","state_id":3917,"state_code":"06","state_name":"Khuzestan","country_id":103,"country_code":"IR","country_name":"Iran","latitude":"32.70000000","longitude":"48.30000000","wikiDataId":"Q498106"},{"id":134804,"Name":"Shahrestān-e Bandar-e Māhshahr","state_id":3917,"state_code":"06","state_name":"Khuzestan","country_id":103,"country_code":"IR","country_name":"Iran","latitude":"30.63333000","longitude":"49.11667000","wikiDataId":"Q498106"},{"id":134824,"Name":"Shahrestān-e Bāvī","state_id":3917,"state_code":"06","state_name":"Khuzestan","country_id":103,"country_code":"IR","country_name":"Iran","latitude":"31.50000000","longitude":"48.95000000","wikiDataId":"Q498106"},{"id":134808,"Name":"Shahrestān-e Behbahān","state_id":3917,"state_code":"06","state_name":"Khuzestan","country_id":103,"country_code":"IR","country_name":"Iran","latitude":"30.56667000","longitude":"50.20000000","wikiDataId":"Q498106"},{"id":134843,"Name":"Shahrestān-e Dasht-e Āzādegān","state_id":3917,"state_code":"06","state_name":"Khuzestan","country_id":103,"country_code":"IR","country_name":"Iran","latitude":"31.70000000","longitude":"48.06667000","wikiDataId":"Q498106"},{"id":134850,"Name":"Shahrestān-e Dezfūl","state_id":3917,"state_code":"06","state_name":"Khuzestan","country_id":103,"country_code":"IR","country_name":"Iran","latitude":"32.56667000","longitude":"48.78333000","wikiDataId":"Q498106"},{"id":134893,"Name":"Shahrestān-e Hendījān","state_id":3917,"state_code":"06","state_name":"Khuzestan","country_id":103,"country_code":"IR","country_name":"Iran","latitude":"30.33333000","longitude":"49.60000000","wikiDataId":"Q721034"},{"id":135093,"Name":"Shahrestān-e Īz̄eh","state_id":3917,"state_code":"06","state_name":"Khuzestan","country_id":103,"country_code":"IR","country_name":"Iran","latitude":"31.91667000","longitude":"49.98333000","wikiDataId":"Q1277854"},{"id":134945,"Name":"Shahrestān-e Lālī","state_id":3917,"state_code":"06","state_name":"Khuzestan","country_id":103,"country_code":"IR","country_name":"Iran","latitude":"32.41667000","longitude":"49.16667000","wikiDataId":"Q1264551"},{"id":134957,"Name":"Shahrestān-e Masjed Soleymān","state_id":3917,"state_code":"06","state_name":"Khuzestan","country_id":103,"country_code":"IR","country_name":"Iran","latitude":"31.98333000","longitude":"49.26667000","wikiDataId":"Q1264551"},{"id":134988,"Name":"Shahrestān-e Omīdīyeh","state_id":3917,"state_code":"06","state_name":"Khuzestan","country_id":103,"country_code":"IR","country_name":"Iran","latitude":"30.75000000","longitude":"49.70000000","wikiDataId":"Q5099954"},{"id":135013,"Name":"Shahrestān-e Rāmhormoz","state_id":3917,"state_code":"06","state_name":"Khuzestan","country_id":103,"country_code":"IR","country_name":"Iran","latitude":"31.21667000","longitude":"49.65000000","wikiDataId":"Q5099954"},{"id":135015,"Name":"Shahrestān-e Rāmshīr","state_id":3917,"state_code":"06","state_name":"Khuzestan","country_id":103,"country_code":"IR","country_name":"Iran","latitude":"30.96667000","longitude":"49.38333000","wikiDataId":"Q5099954"},{"id":135040,"Name":"Shahrestān-e Shādegān","state_id":3917,"state_code":"06","state_name":"Khuzestan","country_id":103,"country_code":"IR","country_name":"Iran","latitude":"30.66667000","longitude":"48.66667000","wikiDataId":"Q1286233"},{"id":135047,"Name":"Shahrestān-e Shūsh","state_id":3917,"state_code":"06","state_name":"Khuzestan","country_id":103,"country_code":"IR","country_name":"Iran","latitude":"32.03333000","longitude":"48.21667000","wikiDataId":"Q1286233"},{"id":135048,"Name":"Shahrestān-e Shūshtar","state_id":3917,"state_code":"06","state_name":"Khuzestan","country_id":103,"country_code":"IR","country_name":"Iran","latitude":"31.90000000","longitude":"48.85000000","wikiDataId":"Q1286233"},{"id":135113,"Name":"Shūsh","state_id":3917,"state_code":"06","state_name":"Khuzestan","country_id":103,"country_code":"IR","country_name":"Iran","latitude":"32.19420000","longitude":"48.24360000","wikiDataId":"Q10881114"},{"id":135114,"Name":"Shūshtar","state_id":3917,"state_code":"06","state_name":"Khuzestan","country_id":103,"country_code":"IR","country_name":"Iran","latitude":"32.04972000","longitude":"48.84843000","wikiDataId":"Q643386"},{"id":135122,"Name":"Sūsangerd","state_id":3917,"state_code":"06","state_name":"Khuzestan","country_id":103,"country_code":"IR","country_name":"Iran","latitude":"31.56350000","longitude":"48.18958000","wikiDataId":"Q888309"}]