[{"id":65180,"Name":"Anak","state_id":4004,"state_code":"06","state_name":"North Hwanghae Province","country_id":115,"country_code":"KP","country_name":"North Korea","latitude":"38.51083000","longitude":"125.49417000","wikiDataId":"Q3398703"},{"id":65203,"Name":"Hŭkkyo-ri","state_id":4004,"state_code":"06","state_name":"North Hwanghae Province","country_id":115,"country_code":"KP","country_name":"North Korea","latitude":"38.79861000","longitude":"125.79194000","wikiDataId":"Q489829"},{"id":65200,"Name":"Hwangju-ŭp","state_id":4004,"state_code":"06","state_name":"North Hwanghae Province","country_id":115,"country_code":"KP","country_name":"North Korea","latitude":"38.67028000","longitude":"125.77611000","wikiDataId":"Q48888"},{"id":65212,"Name":"Koksan","state_id":4004,"state_code":"06","state_name":"North Hwanghae Province","country_id":115,"country_code":"KP","country_name":"North Korea","latitude":"38.78194000","longitude":"126.66639000","wikiDataId":"Q714873"},{"id":65237,"Name":"Sariwŏn","state_id":4004,"state_code":"06","state_name":"North Hwanghae Province","country_id":115,"country_code":"KP","country_name":"North Korea","latitude":"38.50722000","longitude":"125.75583000","wikiDataId":"Q505807"},{"id":65240,"Name":"Sinmak","state_id":4004,"state_code":"06","state_name":"North Hwanghae Province","country_id":115,"country_code":"KP","country_name":"North Korea","latitude":"38.41667000","longitude":"126.23333000","wikiDataId":"Q505807"},{"id":65243,"Name":"Songnim","state_id":4004,"state_code":"06","state_name":"North Hwanghae Province","country_id":115,"country_code":"KP","country_name":"North Korea","latitude":"38.75417000","longitude":"125.64500000","wikiDataId":"Q505930"}]