[{"id":109069,"Name":"Gamba","state_id":1473,"state_code":"07","state_name":"Zanzibar North","country_id":218,"country_code":"TZ","country_name":"Tanzania","latitude":"-5.90000000","longitude":"39.30000000","wikiDataId":"Q49349721"},{"id":109112,"Name":"Kijini","state_id":1473,"state_code":"07","state_name":"Zanzibar North","country_id":218,"country_code":"TZ","country_name":"Tanzania","latitude":"-5.85000000","longitude":"39.31667000","wikiDataId":"Q244509"},{"id":109131,"Name":"Kiwengwa","state_id":1473,"state_code":"07","state_name":"Zanzibar North","country_id":218,"country_code":"TZ","country_name":"Tanzania","latitude":"-5.98957000","longitude":"39.37680000","wikiDataId":"Q11929863"},{"id":109201,"Name":"Mkokotoni","state_id":1473,"state_code":"07","state_name":"Zanzibar North","country_id":218,"country_code":"TZ","country_name":"Tanzania","latitude":"-5.87506000","longitude":"39.25523000","wikiDataId":"Q2086390"},{"id":109261,"Name":"Nungwi","state_id":1473,"state_code":"07","state_name":"Zanzibar North","country_id":218,"country_code":"TZ","country_name":"Tanzania","latitude":"-5.72651000","longitude":"39.29870000","wikiDataId":"Q7192944"}]