[{"id":79686,"Name":"Årøysund","state_id":1008,"state_code":"07","state_name":"Vestfold","country_id":165,"country_code":"NO","country_name":"Norway","latitude":"59.18321000","longitude":"10.45743000","wikiDataId":"Q1788218"},{"id":79689,"Name":"Åsgårdstrand","state_id":1008,"state_code":"07","state_name":"Vestfold","country_id":165,"country_code":"NO","country_name":"Norway","latitude":"59.34938000","longitude":"10.46948000","wikiDataId":"Q271269"},{"id":79065,"Name":"Barkåker","state_id":1008,"state_code":"07","state_name":"Vestfold","country_id":165,"country_code":"NO","country_name":"Norway","latitude":"59.31859000","longitude":"10.38963000","wikiDataId":"Q1785120"},{"id":79070,"Name":"Berger","state_id":1008,"state_code":"07","state_name":"Vestfold","country_id":165,"country_code":"NO","country_name":"Norway","latitude":"59.54994000","longitude":"10.38641000","wikiDataId":"Q3366014"},{"id":79168,"Name":"Færder","state_id":1008,"state_code":"07","state_name":"Vestfold","country_id":165,"country_code":"NO","country_name":"Norway","latitude":"59.22791000","longitude":"10.41530000","wikiDataId":"Q42320251"},{"id":79195,"Name":"Gullhaug","state_id":1008,"state_code":"07","state_name":"Vestfold","country_id":165,"country_code":"NO","country_name":"Norway","latitude":"59.50130000","longitude":"10.25224000","wikiDataId":"Q2275078"},{"id":79229,"Name":"Holmestrand","state_id":1008,"state_code":"07","state_name":"Vestfold","country_id":165,"country_code":"NO","country_name":"Norway","latitude":"59.48976000","longitude":"10.31515000","wikiDataId":"Q483871"},{"id":79236,"Name":"Horten","state_id":1008,"state_code":"07","state_name":"Vestfold","country_id":165,"country_code":"NO","country_name":"Norway","latitude":"59.41547000","longitude":"10.48527000","wikiDataId":"Q109048"},{"id":79304,"Name":"Larvik","state_id":1008,"state_code":"07","state_name":"Vestfold","country_id":165,"country_code":"NO","country_name":"Norway","latitude":"59.05234000","longitude":"10.02701000","wikiDataId":"Q156125"},{"id":79361,"Name":"Melsomvik","state_id":1008,"state_code":"07","state_name":"Vestfold","country_id":165,"country_code":"NO","country_name":"Norway","latitude":"59.22394000","longitude":"10.33616000","wikiDataId":"Q1777265"},{"id":79441,"Name":"Re","state_id":1008,"state_code":"07","state_name":"Vestfold","country_id":165,"country_code":"NO","country_name":"Norway","latitude":"59.35056000","longitude":"10.24763000","wikiDataId":"Q499570"},{"id":79480,"Name":"Sande","state_id":1008,"state_code":"07","state_name":"Vestfold","country_id":165,"country_code":"NO","country_name":"Norway","latitude":"59.59362000","longitude":"10.20757000","wikiDataId":"Q183029"},{"id":79482,"Name":"Sandefjord","state_id":1008,"state_code":"07","state_name":"Vestfold","country_id":165,"country_code":"NO","country_name":"Norway","latitude":"59.12881000","longitude":"10.21971000","wikiDataId":"Q109005"},{"id":79494,"Name":"Selvik","state_id":1008,"state_code":"07","state_name":"Vestfold","country_id":165,"country_code":"NO","country_name":"Norway","latitude":"59.56645000","longitude":"10.26004000","wikiDataId":"Q2354706"},{"id":79495,"Name":"Sem","state_id":1008,"state_code":"07","state_name":"Vestfold","country_id":165,"country_code":"NO","country_name":"Norway","latitude":"59.28230000","longitude":"10.33004000","wikiDataId":"Q3355934"},{"id":79518,"Name":"Skoppum","state_id":1008,"state_code":"07","state_name":"Vestfold","country_id":165,"country_code":"NO","country_name":"Norway","latitude":"59.38613000","longitude":"10.41077000","wikiDataId":"Q2490964"},{"id":79539,"Name":"Stavern","state_id":1008,"state_code":"07","state_name":"Vestfold","country_id":165,"country_code":"NO","country_name":"Norway","latitude":"59.00000000","longitude":"10.03333000","wikiDataId":"Q1541556"},{"id":79545,"Name":"Stokke","state_id":1008,"state_code":"07","state_name":"Vestfold","country_id":165,"country_code":"NO","country_name":"Norway","latitude":"59.22255000","longitude":"10.30055000","wikiDataId":"Q513649"},{"id":79570,"Name":"Svelvik","state_id":1008,"state_code":"07","state_name":"Vestfold","country_id":165,"country_code":"NO","country_name":"Norway","latitude":"59.60677000","longitude":"10.40225000","wikiDataId":"Q48701"},{"id":79596,"Name":"Tjøme","state_id":1008,"state_code":"07","state_name":"Vestfold","country_id":165,"country_code":"NO","country_name":"Norway","latitude":"59.11090000","longitude":"10.39330000","wikiDataId":"Q48801"},{"id":79619,"Name":"Tønsberg","state_id":1008,"state_code":"07","state_name":"Vestfold","country_id":165,"country_code":"NO","country_name":"Norway","latitude":"59.26754000","longitude":"10.40762000","wikiDataId":"Q10853792"}]