[{"id":135151,"Name":"Ābādeh","state_id":3939,"state_code":"07","state_name":"Fars","country_id":103,"country_code":"IR","country_name":"Iran","latitude":"31.16080000","longitude":"52.65060000","wikiDataId":"Q192928"},{"id":134562,"Name":"Akbarābād","state_id":3939,"state_code":"07","state_name":"Fars","country_id":103,"country_code":"IR","country_name":"Iran","latitude":"29.24640000","longitude":"52.77930000","wikiDataId":"Q170366"},{"id":134626,"Name":"Dārāb","state_id":3939,"state_code":"07","state_name":"Fars","country_id":103,"country_code":"IR","country_name":"Iran","latitude":"28.75194000","longitude":"54.54444000","wikiDataId":"Q719977"},{"id":134638,"Name":"Fasā","state_id":3939,"state_code":"07","state_name":"Fars","country_id":103,"country_code":"IR","country_name":"Iran","latitude":"28.93830000","longitude":"53.64820000","wikiDataId":"Q2614253"},{"id":134642,"Name":"Fīrūzābād","state_id":3939,"state_code":"07","state_name":"Fars","country_id":103,"country_code":"IR","country_name":"Iran","latitude":"28.84380000","longitude":"52.57070000","wikiDataId":"Q720952"},{"id":134644,"Name":"Gerāsh","state_id":3939,"state_code":"07","state_name":"Fars","country_id":103,"country_code":"IR","country_name":"Iran","latitude":"27.66966000","longitude":"54.13586000","wikiDataId":"Q720672"},{"id":134684,"Name":"Kāzerūn","state_id":3939,"state_code":"07","state_name":"Fars","country_id":103,"country_code":"IR","country_name":"Iran","latitude":"29.61919000","longitude":"51.65350000","wikiDataId":"Q721060"},{"id":134694,"Name":"Mamasanī","state_id":3939,"state_code":"07","state_name":"Fars","country_id":103,"country_code":"IR","country_name":"Iran","latitude":"30.03333000","longitude":"51.38333000","wikiDataId":"Q2538472"},{"id":134696,"Name":"Marvdasht","state_id":3939,"state_code":"07","state_name":"Fars","country_id":103,"country_code":"IR","country_name":"Iran","latitude":"30.08333000","longitude":"52.66667000","wikiDataId":"Q604990"},{"id":134704,"Name":"Mohr","state_id":3939,"state_code":"07","state_name":"Fars","country_id":103,"country_code":"IR","country_name":"Iran","latitude":"27.55520000","longitude":"52.88360000","wikiDataId":"Q2617085"},{"id":134713,"Name":"Neyrīz","state_id":3939,"state_code":"07","state_name":"Fars","country_id":103,"country_code":"IR","country_name":"Iran","latitude":"29.19880000","longitude":"54.32780000","wikiDataId":"Q888715"},{"id":134721,"Name":"Nūrābād","state_id":3939,"state_code":"07","state_name":"Fars","country_id":103,"country_code":"IR","country_name":"Iran","latitude":"30.11405000","longitude":"51.52174000","wikiDataId":"Q719764"},{"id":134732,"Name":"Pāsārgād","state_id":3939,"state_code":"07","state_name":"Fars","country_id":103,"country_code":"IR","country_name":"Iran","latitude":"30.20194000","longitude":"53.18000000","wikiDataId":"Q720064"},{"id":134755,"Name":"Rostam","state_id":3939,"state_code":"07","state_name":"Fars","country_id":103,"country_code":"IR","country_name":"Iran","latitude":"30.40000000","longitude":"51.41667000","wikiDataId":"Q967688"},{"id":134778,"Name":"Shahr-e Qadīm-e Lār","state_id":3939,"state_code":"07","state_name":"Fars","country_id":103,"country_code":"IR","country_name":"Iran","latitude":"27.68336000","longitude":"54.34172000","wikiDataId":"Q721029"},{"id":135079,"Name":"Shahrestān-e Ābādeh","state_id":3939,"state_code":"07","state_name":"Fars","country_id":103,"country_code":"IR","country_name":"Iran","latitude":"31.25000000","longitude":"52.50000000","wikiDataId":"Q1286247"},{"id":134795,"Name":"Shahrestān-e Arsanjān","state_id":3939,"state_code":"07","state_name":"Fars","country_id":103,"country_code":"IR","country_name":"Iran","latitude":"29.80000000","longitude":"53.41667000","wikiDataId":"Q498106"},{"id":134807,"Name":"Shahrestān-e Bavānāt","state_id":3939,"state_code":"07","state_name":"Fars","country_id":103,"country_code":"IR","country_name":"Iran","latitude":"30.33333000","longitude":"53.66667000","wikiDataId":"Q498106"},{"id":134853,"Name":"Shahrestān-e Dārāb","state_id":3939,"state_code":"07","state_name":"Fars","country_id":103,"country_code":"IR","country_name":"Iran","latitude":"28.56667000","longitude":"54.95000000","wikiDataId":"Q498106"},{"id":134856,"Name":"Shahrestān-e Eqlīd","state_id":3939,"state_code":"07","state_name":"Fars","country_id":103,"country_code":"IR","country_name":"Iran","latitude":"30.70000000","longitude":"52.40000000","wikiDataId":"Q498106"},{"id":134861,"Name":"Shahrestān-e Estahbān","state_id":3939,"state_code":"07","state_name":"Fars","country_id":103,"country_code":"IR","country_name":"Iran","latitude":"29.11667000","longitude":"54.00000000","wikiDataId":"Q498106"},{"id":134868,"Name":"Shahrestān-e Farāshband","state_id":3939,"state_code":"07","state_name":"Fars","country_id":103,"country_code":"IR","country_name":"Iran","latitude":"28.75000000","longitude":"52.25000000","wikiDataId":"Q1277889"},{"id":134870,"Name":"Shahrestān-e Fasā","state_id":3939,"state_code":"07","state_name":"Fars","country_id":103,"country_code":"IR","country_name":"Iran","latitude":"28.96667000","longitude":"53.76667000","wikiDataId":"Q721034"},{"id":134876,"Name":"Shahrestān-e Fīrūzābād","state_id":3939,"state_code":"07","state_name":"Fars","country_id":103,"country_code":"IR","country_name":"Iran","latitude":"28.91667000","longitude":"52.56667000","wikiDataId":"Q721034"},{"id":134883,"Name":"Shahrestān-e Gerāsh","state_id":3939,"state_code":"07","state_name":"Fars","country_id":103,"country_code":"IR","country_name":"Iran","latitude":"27.65000000","longitude":"53.65000000","wikiDataId":"Q721034"},{"id":134908,"Name":"Shahrestān-e Kavār","state_id":3939,"state_code":"07","state_name":"Fars","country_id":103,"country_code":"IR","country_name":"Iran","latitude":"29.21667000","longitude":"52.73333000","wikiDataId":"Q721034"},{"id":134936,"Name":"Shahrestān-e Kāzerūn","state_id":3939,"state_code":"07","state_name":"Fars","country_id":103,"country_code":"IR","country_name":"Iran","latitude":"29.50000000","longitude":"51.78333000","wikiDataId":"Q1264551"},{"id":134914,"Name":"Shahrestān-e Kherāmeh","state_id":3939,"state_code":"07","state_name":"Fars","country_id":103,"country_code":"IR","country_name":"Iran","latitude":"29.50000000","longitude":"53.25000000","wikiDataId":"Q1264551"},{"id":134919,"Name":"Shahrestān-e Khorrambīd","state_id":3939,"state_code":"07","state_name":"Fars","country_id":103,"country_code":"IR","country_name":"Iran","latitude":"30.50000000","longitude":"53.08333000","wikiDataId":"Q1264551"},{"id":134946,"Name":"Shahrestān-e Lāmerd","state_id":3939,"state_code":"07","state_name":"Fars","country_id":103,"country_code":"IR","country_name":"Iran","latitude":"27.36667000","longitude":"53.38333000","wikiDataId":"Q1264551"},{"id":134947,"Name":"Shahrestān-e Lārestān","state_id":3939,"state_code":"07","state_name":"Fars","country_id":103,"country_code":"IR","country_name":"Iran","latitude":"27.75000000","longitude":"54.45000000","wikiDataId":"Q1264551"},{"id":134982,"Name":"Shahrestān-e Neyrīz","state_id":3939,"state_code":"07","state_name":"Fars","country_id":103,"country_code":"IR","country_name":"Iran","latitude":"29.33333000","longitude":"54.33333000","wikiDataId":"Q5099954"},{"id":134996,"Name":"Shahrestān-e Pāsārgād","state_id":3939,"state_code":"07","state_name":"Fars","country_id":103,"country_code":"IR","country_name":"Iran","latitude":"30.13333000","longitude":"53.15000000","wikiDataId":"Q5099954"},{"id":135005,"Name":"Shahrestān-e Qīr va Kārzīn","state_id":3939,"state_code":"07","state_name":"Fars","country_id":103,"country_code":"IR","country_name":"Iran","latitude":"28.31667000","longitude":"52.90000000","wikiDataId":"Q5099954"},{"id":135026,"Name":"Shahrestān-e Sarvestān","state_id":3939,"state_code":"07","state_name":"Fars","country_id":103,"country_code":"IR","country_name":"Iran","latitude":"29.21667000","longitude":"53.13333000","wikiDataId":"Q5099954"},{"id":135035,"Name":"Shahrestān-e Sepīdān","state_id":3939,"state_code":"07","state_name":"Fars","country_id":103,"country_code":"IR","country_name":"Iran","latitude":"30.15000000","longitude":"52.10000000","wikiDataId":"Q1286233"},{"id":135046,"Name":"Shahrestān-e Shīrāz","state_id":3939,"state_code":"07","state_name":"Fars","country_id":103,"country_code":"IR","country_name":"Iran","latitude":"29.58333000","longitude":"52.50000000","wikiDataId":"Q1286233"},{"id":135073,"Name":"Shahrestān-e Zarrīn Dasht","state_id":3939,"state_code":"07","state_name":"Fars","country_id":103,"country_code":"IR","country_name":"Iran","latitude":"28.30000000","longitude":"54.46667000","wikiDataId":"Q1286247"},{"id":135108,"Name":"Shiraz","state_id":3939,"state_code":"07","state_name":"Fars","country_id":103,"country_code":"IR","country_name":"Iran","latitude":"29.61031000","longitude":"52.53113000","wikiDataId":"Q6397066"}]