[{"id":54404,"Name":"Bjelovar","state_id":734,"state_code":"07","state_name":"Bjelovar-Bilogora County","country_id":55,"country_code":"HR","country_name":"Croatia","latitude":"45.89861000","longitude":"16.84889000","wikiDataId":"Q5707"},{"id":54418,"Name":"Brezovac","state_id":734,"state_code":"07","state_name":"Bjelovar-Bilogora County","country_id":55,"country_code":"HR","country_name":"Croatia","latitude":"45.86750000","longitude":"16.84083000","wikiDataId":"Q326957"},{"id":55017,"Name":"Čazma","state_id":734,"state_code":"07","state_name":"Bjelovar-Bilogora County","country_id":55,"country_code":"HR","country_name":"Croatia","latitude":"45.74818000","longitude":"16.61390000","wikiDataId":"Q337888"},{"id":54449,"Name":"Daruvar","state_id":734,"state_code":"07","state_name":"Bjelovar-Bilogora County","country_id":55,"country_code":"HR","country_name":"Croatia","latitude":"45.59056000","longitude":"17.22500000","wikiDataId":"Q399430"},{"id":54453,"Name":"Dežanovac","state_id":734,"state_code":"07","state_name":"Bjelovar-Bilogora County","country_id":55,"country_code":"HR","country_name":"Croatia","latitude":"45.57056000","longitude":"17.08667000","wikiDataId":"Q1284363"},{"id":55025,"Name":"Đulovac","state_id":734,"state_code":"07","state_name":"Bjelovar-Bilogora County","country_id":55,"country_code":"HR","country_name":"Croatia","latitude":"45.66588000","longitude":"17.42981000","wikiDataId":"Q318961"},{"id":54489,"Name":"Garešnica","state_id":734,"state_code":"07","state_name":"Bjelovar-Bilogora County","country_id":55,"country_code":"HR","country_name":"Croatia","latitude":"45.57444000","longitude":"16.94139000","wikiDataId":"Q399127"},{"id":54505,"Name":"Grad Bjelovar","state_id":734,"state_code":"07","state_name":"Bjelovar-Bilogora County","country_id":55,"country_code":"HR","country_name":"Croatia","latitude":"45.90172000","longitude":"16.84522000","wikiDataId":"Q319276"},{"id":54571,"Name":"Grad Čazma","state_id":734,"state_code":"07","state_name":"Bjelovar-Bilogora County","country_id":55,"country_code":"HR","country_name":"Croatia","latitude":"45.75000000","longitude":"16.61667000","wikiDataId":"Q1194688"},{"id":54508,"Name":"Grad Daruvar","state_id":734,"state_code":"07","state_name":"Bjelovar-Bilogora County","country_id":55,"country_code":"HR","country_name":"Croatia","latitude":"45.60000000","longitude":"17.23333000","wikiDataId":"Q319276"},{"id":54515,"Name":"Grad Garešnica","state_id":734,"state_code":"07","state_name":"Bjelovar-Bilogora County","country_id":55,"country_code":"HR","country_name":"Croatia","latitude":"45.56667000","longitude":"16.93333000","wikiDataId":"Q1722"},{"id":54517,"Name":"Grad Grubišno Polje","state_id":734,"state_code":"07","state_name":"Bjelovar-Bilogora County","country_id":55,"country_code":"HR","country_name":"Croatia","latitude":"45.70000000","longitude":"17.16667000","wikiDataId":"Q1722"},{"id":54588,"Name":"Grubišno Polje","state_id":734,"state_code":"07","state_name":"Bjelovar-Bilogora County","country_id":55,"country_code":"HR","country_name":"Croatia","latitude":"45.70214000","longitude":"17.17268000","wikiDataId":"Q679801"},{"id":54589,"Name":"Gudovac","state_id":734,"state_code":"07","state_name":"Bjelovar-Bilogora County","country_id":55,"country_code":"HR","country_name":"Croatia","latitude":"45.88028000","longitude":"16.78083000","wikiDataId":"Q2216988"},{"id":54593,"Name":"Hercegovac","state_id":734,"state_code":"07","state_name":"Bjelovar-Bilogora County","country_id":55,"country_code":"HR","country_name":"Croatia","latitude":"45.65861000","longitude":"17.01361000","wikiDataId":"Q589758"},{"id":54607,"Name":"Ivanska","state_id":734,"state_code":"07","state_name":"Bjelovar-Bilogora County","country_id":55,"country_code":"HR","country_name":"Croatia","latitude":"45.77889000","longitude":"16.81194000","wikiDataId":"Q1284343"},{"id":54630,"Name":"Kapela","state_id":734,"state_code":"07","state_name":"Bjelovar-Bilogora County","country_id":55,"country_code":"HR","country_name":"Croatia","latitude":"45.98543000","longitude":"16.85174000","wikiDataId":"Q174235"},{"id":54658,"Name":"Končanica","state_id":734,"state_code":"07","state_name":"Bjelovar-Bilogora County","country_id":55,"country_code":"HR","country_name":"Croatia","latitude":"45.63611000","longitude":"17.16639000","wikiDataId":"Q1293873"},{"id":54831,"Name":"Predavac","state_id":734,"state_code":"07","state_name":"Bjelovar-Bilogora County","country_id":55,"country_code":"HR","country_name":"Croatia","latitude":"45.93583000","longitude":"16.78333000","wikiDataId":"Q636217"},{"id":54869,"Name":"Rovišće","state_id":734,"state_code":"07","state_name":"Bjelovar-Bilogora County","country_id":55,"country_code":"HR","country_name":"Croatia","latitude":"45.94472000","longitude":"16.73500000","wikiDataId":"Q1287435"},{"id":55028,"Name":"Šandrovac","state_id":734,"state_code":"07","state_name":"Bjelovar-Bilogora County","country_id":55,"country_code":"HR","country_name":"Croatia","latitude":"45.90556000","longitude":"17.02111000","wikiDataId":"Q1284823"},{"id":54886,"Name":"Severin","state_id":734,"state_code":"07","state_name":"Bjelovar-Bilogora County","country_id":55,"country_code":"HR","country_name":"Croatia","latitude":"45.84152000","longitude":"16.96950000","wikiDataId":"Q1017892"},{"id":54891,"Name":"Sirač","state_id":734,"state_code":"07","state_name":"Bjelovar-Bilogora County","country_id":55,"country_code":"HR","country_name":"Croatia","latitude":"45.52333000","longitude":"17.25500000","wikiDataId":"Q1184841"},{"id":54960,"Name":"Velika Pisanica","state_id":734,"state_code":"07","state_name":"Bjelovar-Bilogora County","country_id":55,"country_code":"HR","country_name":"Croatia","latitude":"45.80160000","longitude":"17.06551000","wikiDataId":"Q1293874"},{"id":54962,"Name":"Veliki Grđevac","state_id":734,"state_code":"07","state_name":"Bjelovar-Bilogora County","country_id":55,"country_code":"HR","country_name":"Croatia","latitude":"45.75028000","longitude":"17.04750000","wikiDataId":"Q744840"},{"id":55038,"Name":"Ždralovi","state_id":734,"state_code":"07","state_name":"Bjelovar-Bilogora County","country_id":55,"country_code":"HR","country_name":"Croatia","latitude":"45.87639000","longitude":"16.87500000","wikiDataId":"Q685701"},{"id":55013,"Name":"Zrinski Topolovac","state_id":734,"state_code":"07","state_name":"Bjelovar-Bilogora County","country_id":55,"country_code":"HR","country_name":"Croatia","latitude":"46.02120000","longitude":"16.75509000","wikiDataId":"Q217932"}]