[{"id":65194,"Name":"Hamhŭng","state_id":4000,"state_code":"08","state_name":"South Hamgyong Province","country_id":115,"country_code":"KP","country_name":"North Korea","latitude":"39.91833000","longitude":"127.53639000","wikiDataId":"Q109356"},{"id":65199,"Name":"Hongwŏn","state_id":4000,"state_code":"08","state_name":"South Hamgyong Province","country_id":115,"country_code":"KP","country_name":"North Korea","latitude":"40.02528000","longitude":"127.95583000","wikiDataId":"Q48888"},{"id":65204,"Name":"Hŭngnam","state_id":4000,"state_code":"08","state_name":"South Hamgyong Province","country_id":115,"country_code":"KP","country_name":"North Korea","latitude":"39.83167000","longitude":"127.61861000","wikiDataId":"Q489829"},{"id":65205,"Name":"Iwŏn-ŭp","state_id":4000,"state_code":"08","state_name":"South Hamgyong Province","country_id":115,"country_code":"KP","country_name":"North Korea","latitude":"40.32306000","longitude":"128.65528000","wikiDataId":"Q489829"},{"id":65215,"Name":"Kowŏn-ŭp","state_id":4000,"state_code":"08","state_name":"South Hamgyong Province","country_id":115,"country_code":"KP","country_name":"North Korea","latitude":"39.43806000","longitude":"127.24306000","wikiDataId":"Q714873"},{"id":65235,"Name":"Samho-rodongjagu","state_id":4000,"state_code":"08","state_name":"South Hamgyong Province","country_id":115,"country_code":"KP","country_name":"North Korea","latitude":"39.94750000","longitude":"127.87111000","wikiDataId":"Q514136"},{"id":65241,"Name":"Sinsang-ni","state_id":4000,"state_code":"08","state_name":"South Hamgyong Province","country_id":115,"country_code":"KP","country_name":"North Korea","latitude":"39.65028000","longitude":"127.40583000","wikiDataId":"Q505807"},{"id":65258,"Name":"Yŏnggwang-ŭp","state_id":4000,"state_code":"08","state_name":"South Hamgyong Province","country_id":115,"country_code":"KP","country_name":"North Korea","latitude":"40.01833000","longitude":"127.45472000","wikiDataId":"Q109374"},{"id":65254,"Name":"Yuktae-dong","state_id":4000,"state_code":"08","state_name":"South Hamgyong Province","country_id":115,"country_code":"KP","country_name":"North Korea","latitude":"40.02472000","longitude":"128.15972000","wikiDataId":"Q109374"}]