[{"id":102806,"Name":"Abū ‘Arīsh","state_id":2858,"state_code":"09","state_name":"Jizan","country_id":194,"country_code":"SA","country_name":"Saudi Arabia","latitude":"16.96887000","longitude":"42.83251000","wikiDataId":"Q2821731"},{"id":148745,"Name":"Abu Radif","state_id":2858,"state_code":"09","state_name":"Jizan","country_id":194,"country_code":"SA","country_name":"Saudi Arabia","latitude":"16.61860000","longitude":"43.13110000","wikiDataId":"Q4670320"},{"id":102807,"Name":"Ad Darb","state_id":2858,"state_code":"09","state_name":"Jizan","country_id":194,"country_code":"SA","country_name":"Saudi Arabia","latitude":"17.72285000","longitude":"42.25261000","wikiDataId":"Q31868833"},{"id":148746,"Name":"Ad Dur`iyah","state_id":2858,"state_code":"09","state_name":"Jizan","country_id":194,"country_code":"SA","country_name":"Saudi Arabia","latitude":"16.58420000","longitude":"42.84310000","wikiDataId":"Q4678145"},{"id":148747,"Name":"Adh Dhagharir","state_id":2858,"state_code":"09","state_name":"Jizan","country_id":194,"country_code":"SA","country_name":"Saudi Arabia","latitude":"16.67780000","longitude":"42.95920000","wikiDataId":"Q4682447"},{"id":148775,"Name":"Al `Ulayin","state_id":2858,"state_code":"09","state_name":"Jizan","country_id":194,"country_code":"SA","country_name":"Saudi Arabia","latitude":"17.15000000","longitude":"43.17080000","wikiDataId":"Q4705036"},{"id":148776,"Name":"Al `Usaylah","state_id":2858,"state_code":"09","state_name":"Jizan","country_id":194,"country_code":"SA","country_name":"Saudi Arabia","latitude":"16.92030000","longitude":"42.73530000","wikiDataId":"Q4705042"},{"id":148748,"Name":"Al Badawi","state_id":2858,"state_code":"09","state_name":"Jizan","country_id":194,"country_code":"SA","country_name":"Saudi Arabia","latitude":"16.63330000","longitude":"42.86500000","wikiDataId":"Q4703523"},{"id":148749,"Name":"Al Hadrur","state_id":2858,"state_code":"09","state_name":"Jizan","country_id":194,"country_code":"SA","country_name":"Saudi Arabia","latitude":"16.54360000","longitude":"42.86720000","wikiDataId":"Q4703936"},{"id":148750,"Name":"Al Hanashah","state_id":2858,"state_code":"09","state_name":"Jizan","country_id":194,"country_code":"SA","country_name":"Saudi Arabia","latitude":"16.55810000","longitude":"42.76530000","wikiDataId":"Q4703979"},{"id":148751,"Name":"Al Harani","state_id":2858,"state_code":"09","state_name":"Jizan","country_id":194,"country_code":"SA","country_name":"Saudi Arabia","latitude":"16.77500000","longitude":"42.90970000","wikiDataId":"Q4703982"},{"id":148752,"Name":"Al Hasamah","state_id":2858,"state_code":"09","state_name":"Jizan","country_id":194,"country_code":"SA","country_name":"Saudi Arabia","latitude":"16.68333333","longitude":"42.92694444","wikiDataId":"Q4703995"},{"id":148753,"Name":"Al Hijfar","state_id":2858,"state_code":"09","state_name":"Jizan","country_id":194,"country_code":"SA","country_name":"Saudi Arabia","latitude":"16.54440000","longitude":"42.84720000","wikiDataId":"Q4704031"},{"id":148754,"Name":"Al Jadi","state_id":2858,"state_code":"09","state_name":"Jizan","country_id":194,"country_code":"SA","country_name":"Saudi Arabia","latitude":"16.64500000","longitude":"42.99470000","wikiDataId":"Q4704098"},{"id":102822,"Name":"Al Jarādīyah","state_id":2858,"state_code":"09","state_name":"Jizan","country_id":194,"country_code":"SA","country_name":"Saudi Arabia","latitude":"16.57946000","longitude":"42.91240000","wikiDataId":"Q4704123"},{"id":148755,"Name":"Al Jawah","state_id":2858,"state_code":"09","state_name":"Jizan","country_id":194,"country_code":"SA","country_name":"Saudi Arabia","latitude":"16.95670000","longitude":"43.02970000","wikiDataId":"Q4704124"},{"id":148756,"Name":"Al Jirbah","state_id":2858,"state_code":"09","state_name":"Jizan","country_id":194,"country_code":"SA","country_name":"Saudi Arabia","latitude":"16.92640000","longitude":"42.88610000","wikiDataId":"Q4704149"},{"id":148757,"Name":"Al Karbus","state_id":2858,"state_code":"09","state_name":"Jizan","country_id":194,"country_code":"SA","country_name":"Saudi Arabia","latitude":"16.87330000","longitude":"42.63170000","wikiDataId":"Q4704179"},{"id":148758,"Name":"Al Kawahilah","state_id":2858,"state_code":"09","state_name":"Jizan","country_id":194,"country_code":"SA","country_name":"Saudi Arabia","latitude":"16.96140000","longitude":"42.67250000","wikiDataId":"Q4704184"},{"id":148759,"Name":"Al Khadra', Jizan","state_id":2858,"state_code":"09","state_name":"Jizan","country_id":194,"country_code":"SA","country_name":"Saudi Arabia","latitude":"16.58583333","longitude":"42.96333333","wikiDataId":"Q4704199"},{"id":148760,"Name":"Al Kharabah, Jizan","state_id":2858,"state_code":"09","state_name":"Jizan","country_id":194,"country_code":"SA","country_name":"Saudi Arabia","latitude":"16.75580000","longitude":"42.95470000","wikiDataId":"Q4704215"},{"id":148761,"Name":"Al Kharadilah","state_id":2858,"state_code":"09","state_name":"Jizan","country_id":194,"country_code":"SA","country_name":"Saudi Arabia","latitude":"16.92720000","longitude":"42.62640000","wikiDataId":"Q4704218"},{"id":148762,"Name":"Al Khashabiyah","state_id":2858,"state_code":"09","state_name":"Jizan","country_id":194,"country_code":"SA","country_name":"Saudi Arabia","latitude":"16.94030000","longitude":"42.64310000","wikiDataId":"Q4704221"},{"id":148763,"Name":"Al Khubah","state_id":2858,"state_code":"09","state_name":"Jizan","country_id":194,"country_code":"SA","country_name":"Saudi Arabia","latitude":"16.78860000","longitude":"43.22190000","wikiDataId":"Q4704234"},{"id":148764,"Name":"Al Kirs","state_id":2858,"state_code":"09","state_name":"Jizan","country_id":194,"country_code":"SA","country_name":"Saudi Arabia","latitude":"16.57720000","longitude":"42.94750000","wikiDataId":"Q4704248"},{"id":148765,"Name":"Al Luqiyah","state_id":2858,"state_code":"09","state_name":"Jizan","country_id":194,"country_code":"SA","country_name":"Saudi Arabia","latitude":"16.66060000","longitude":"43.04000000","wikiDataId":"Q4704316"},{"id":148766,"Name":"Al Ma`ayin","state_id":2858,"state_code":"09","state_name":"Jizan","country_id":194,"country_code":"SA","country_name":"Saudi Arabia","latitude":"16.61080000","longitude":"43.14720000","wikiDataId":"Q4704322"},{"id":148767,"Name":"Al Madaya","state_id":2858,"state_code":"09","state_name":"Jizan","country_id":194,"country_code":"SA","country_name":"Saudi Arabia","latitude":"16.76970000","longitude":"42.73110000","wikiDataId":"Q4704336"},{"id":148768,"Name":"Al Mali","state_id":2858,"state_code":"09","state_name":"Jizan","country_id":194,"country_code":"SA","country_name":"Saudi Arabia","latitude":"16.79530000","longitude":"42.95360000","wikiDataId":"Q4704365"},{"id":148769,"Name":"Al Mayasam","state_id":2858,"state_code":"09","state_name":"Jizan","country_id":194,"country_code":"SA","country_name":"Saudi Arabia","latitude":"16.94780000","longitude":"42.72110000","wikiDataId":"Q4704411"},{"id":148770,"Name":"Al Qa'im","state_id":2858,"state_code":"09","state_name":"Jizan","country_id":194,"country_code":"SA","country_name":"Saudi Arabia","latitude":"16.71944444","longitude":"42.97666667","wikiDataId":"Q4704618"},{"id":148771,"Name":"Al Quful","state_id":2858,"state_code":"09","state_name":"Jizan","country_id":194,"country_code":"SA","country_name":"Saudi Arabia","latitude":"16.67330000","longitude":"43.07890000","wikiDataId":"Q4704656"},{"id":148772,"Name":"Al Qurayb","state_id":2858,"state_code":"09","state_name":"Jizan","country_id":194,"country_code":"SA","country_name":"Saudi Arabia","latitude":"16.97500000","longitude":"42.72530000","wikiDataId":"Q4704659"},{"id":148773,"Name":"Al Quwah","state_id":2858,"state_code":"09","state_name":"Jizan","country_id":194,"country_code":"SA","country_name":"Saudi Arabia","latitude":"16.79940000","longitude":"43.22500000","wikiDataId":"Q4704665"},{"id":148774,"Name":"Al Wasili","state_id":2858,"state_code":"09","state_name":"Jizan","country_id":194,"country_code":"SA","country_name":"Saudi Arabia","latitude":"16.94690000","longitude":"42.69030000","wikiDataId":"Q4704944"},{"id":148777,"Name":"An Najamiyah","state_id":2858,"state_code":"09","state_name":"Jizan","country_id":194,"country_code":"SA","country_name":"Saudi Arabia","latitude":"16.56470000","longitude":"42.94390000","wikiDataId":"Q4750152"},{"id":148778,"Name":"Ar Rukubah","state_id":2858,"state_code":"09","state_name":"Jizan","country_id":194,"country_code":"SA","country_name":"Saudi Arabia","latitude":"16.62220000","longitude":"42.96750000","wikiDataId":"Q4783078"},{"id":148779,"Name":"Ash Shuqayq","state_id":2858,"state_code":"09","state_name":"Jizan","country_id":194,"country_code":"SA","country_name":"Saudi Arabia","latitude":"17.70305556","longitude":"42.02944444","wikiDataId":"Q6728515"},{"id":148780,"Name":"Bakhshat Yamani","state_id":2858,"state_code":"09","state_name":"Jizan","country_id":194,"country_code":"SA","country_name":"Saudi Arabia","latitude":"16.89860000","longitude":"42.59890000","wikiDataId":"Q4849388"},{"id":102854,"Name":"Farasān","state_id":2858,"state_code":"09","state_name":"Jizan","country_id":194,"country_code":"SA","country_name":"Saudi Arabia","latitude":"16.70222000","longitude":"42.11833000","wikiDataId":"Q268915"},{"id":148781,"Name":"Ghawiyah","state_id":2858,"state_code":"09","state_name":"Jizan","country_id":194,"country_code":"SA","country_name":"Saudi Arabia","latitude":"16.56500000","longitude":"43.11080000","wikiDataId":"Q5555962"},{"id":148782,"Name":"Hamayyah","state_id":2858,"state_code":"09","state_name":"Jizan","country_id":194,"country_code":"SA","country_name":"Saudi Arabia","latitude":"16.98940000","longitude":"43.16030000","wikiDataId":"Q5644176"},{"id":148783,"Name":"Hamdah","state_id":2858,"state_code":"09","state_name":"Jizan","country_id":194,"country_code":"SA","country_name":"Saudi Arabia","latitude":"16.76190000","longitude":"42.92220000","wikiDataId":"Q5644364"},{"id":102859,"Name":"Jizan","state_id":2858,"state_code":"09","state_name":"Jizan","country_id":194,"country_code":"SA","country_name":"Saudi Arabia","latitude":"16.88917000","longitude":"42.55111000","wikiDataId":"Q27660"},{"id":148784,"Name":"Juha, Saudi Arabia","state_id":2858,"state_code":"09","state_name":"Jizan","country_id":194,"country_code":"SA","country_name":"Saudi Arabia","latitude":"16.66940000","longitude":"42.89220000","wikiDataId":"Q6304998"},{"id":148785,"Name":"Ka`lul","state_id":2858,"state_code":"09","state_name":"Jizan","country_id":194,"country_code":"SA","country_name":"Saudi Arabia","latitude":"16.89750000","longitude":"42.84670000","wikiDataId":"Q6343192"},{"id":148786,"Name":"Khabath Sa`id","state_id":2858,"state_code":"09","state_name":"Jizan","country_id":194,"country_code":"SA","country_name":"Saudi Arabia","latitude":"16.99780000","longitude":"42.73220000","wikiDataId":"Q6398784"},{"id":148787,"Name":"Khalfah","state_id":2858,"state_code":"09","state_name":"Jizan","country_id":194,"country_code":"SA","country_name":"Saudi Arabia","latitude":"16.55470000","longitude":"43.08940000","wikiDataId":"Q6399426"},{"id":148788,"Name":"Khatib, Saudi Arabia","state_id":2858,"state_code":"09","state_name":"Jizan","country_id":194,"country_code":"SA","country_name":"Saudi Arabia","latitude":"16.89610000","longitude":"41.85750000","wikiDataId":"Q6400912"},{"id":148789,"Name":"Khumsiyah","state_id":2858,"state_code":"09","state_name":"Jizan","country_id":194,"country_code":"SA","country_name":"Saudi Arabia","latitude":"16.77140000","longitude":"42.80190000","wikiDataId":"Q6402967"},{"id":148790,"Name":"Khushaym","state_id":2858,"state_code":"09","state_name":"Jizan","country_id":194,"country_code":"SA","country_name":"Saudi Arabia","latitude":"16.88000000","longitude":"43.13720000","wikiDataId":"Q6403178"},{"id":148791,"Name":"Mahatah","state_id":2858,"state_code":"09","state_name":"Jizan","country_id":194,"country_code":"SA","country_name":"Saudi Arabia","latitude":"16.83330000","longitude":"43.16670000","wikiDataId":"Q6733466"},{"id":148792,"Name":"Malgocta","state_id":2858,"state_code":"09","state_name":"Jizan","country_id":194,"country_code":"SA","country_name":"Saudi Arabia","latitude":"16.99777778","longitude":"42.67388889","wikiDataId":"Q15244192"},{"id":102866,"Name":"Mislīyah","state_id":2858,"state_code":"09","state_name":"Jizan","country_id":194,"country_code":"SA","country_name":"Saudi Arabia","latitude":"17.45988000","longitude":"42.55720000","wikiDataId":"Q32140978"},{"id":102867,"Name":"Mizhirah","state_id":2858,"state_code":"09","state_name":"Jizan","country_id":194,"country_code":"SA","country_name":"Saudi Arabia","latitude":"16.82611000","longitude":"42.73333000","wikiDataId":"Q32141037"},{"id":148793,"Name":"Mukambal","state_id":2858,"state_code":"09","state_name":"Jizan","country_id":194,"country_code":"SA","country_name":"Saudi Arabia","latitude":"16.59360000","longitude":"43.03280000","wikiDataId":"Q6933393"},{"id":148794,"Name":"Mundaraq","state_id":2858,"state_code":"09","state_name":"Jizan","country_id":194,"country_code":"SA","country_name":"Saudi Arabia","latitude":"16.75420000","longitude":"43.14890000","wikiDataId":"Q6935735"},{"id":148795,"Name":"Muwassam","state_id":2858,"state_code":"09","state_name":"Jizan","country_id":194,"country_code":"SA","country_name":"Saudi Arabia","latitude":"16.41670000","longitude":"42.82580000","wikiDataId":"Q6944289"},{"id":148796,"Name":"Qitabir","state_id":2858,"state_code":"09","state_name":"Jizan","country_id":194,"country_code":"SA","country_name":"Saudi Arabia","latitude":"17.33330000","longitude":"43.25000000","wikiDataId":"Q7267934"},{"id":148797,"Name":"Quwayda'","state_id":2858,"state_code":"09","state_name":"Jizan","country_id":194,"country_code":"SA","country_name":"Saudi Arabia","latitude":"16.73333333","longitude":"42.89027778","wikiDataId":"Q7273029"},{"id":148798,"Name":"Rahwan","state_id":2858,"state_code":"09","state_name":"Jizan","country_id":194,"country_code":"SA","country_name":"Saudi Arabia","latitude":"16.83330000","longitude":"43.21670000","wikiDataId":"Q7283635"},{"id":148799,"Name":"Rawkhah","state_id":2858,"state_code":"09","state_name":"Jizan","country_id":194,"country_code":"SA","country_name":"Saudi Arabia","latitude":"16.94780000","longitude":"42.79330000","wikiDataId":"Q7297005"},{"id":102894,"Name":"Şabyā","state_id":2858,"state_code":"09","state_name":"Jizan","country_id":194,"country_code":"SA","country_name":"Saudi Arabia","latitude":"17.14950000","longitude":"42.62537000","wikiDataId":"Q32219237"},{"id":148800,"Name":"Sadiliyah","state_id":2858,"state_code":"09","state_name":"Jizan","country_id":194,"country_code":"SA","country_name":"Saudi Arabia","latitude":"16.92640000","longitude":"42.83000000","wikiDataId":"Q7397951"},{"id":148801,"Name":"Salamah","state_id":2858,"state_code":"09","state_name":"Jizan","country_id":194,"country_code":"SA","country_name":"Saudi Arabia","latitude":"16.97530000","longitude":"42.75640000","wikiDataId":"Q7403534"},{"id":102897,"Name":"Şāmitah","state_id":2858,"state_code":"09","state_name":"Jizan","country_id":194,"country_code":"SA","country_name":"Saudi Arabia","latitude":"16.59601000","longitude":"42.94435000","wikiDataId":"Q4164177"}]