[{"id":107054,"Name":"Acarlar","state_id":2187,"state_code":"09","state_name":"Aydın","country_id":225,"country_code":"TR","country_name":"Turkey","latitude":"37.82444000","longitude":"27.74667000","wikiDataId":"Q2006400"},{"id":107210,"Name":"Atça","state_id":2187,"state_code":"09","state_name":"Aydın","country_id":225,"country_code":"TR","country_name":"Turkey","latitude":"37.88859000","longitude":"28.21528000","wikiDataId":"Q780974"},{"id":107220,"Name":"Aydın","state_id":2187,"state_code":"09","state_name":"Aydın","country_id":225,"country_code":"TR","country_name":"Turkey","latitude":"37.84501000","longitude":"27.83963000","wikiDataId":"Q170457"},{"id":107381,"Name":"Bozdoğan","state_id":2187,"state_code":"09","state_name":"Aydın","country_id":225,"country_code":"TR","country_name":"Turkey","latitude":"37.67134000","longitude":"28.31395000","wikiDataId":"Q10259759"},{"id":107402,"Name":"Buharkent","state_id":2187,"state_code":"09","state_name":"Aydın","country_id":225,"country_code":"TR","country_name":"Turkey","latitude":"37.96397000","longitude":"28.74270000","wikiDataId":"Q581187"},{"id":108834,"Name":"Çine","state_id":2187,"state_code":"09","state_name":"Aydın","country_id":225,"country_code":"TR","country_name":"Turkey","latitude":"37.61266000","longitude":"28.05912000","wikiDataId":"Q2900960"},{"id":107441,"Name":"Dalama","state_id":2187,"state_code":"09","state_name":"Aydın","country_id":225,"country_code":"TR","country_name":"Turkey","latitude":"37.79028000","longitude":"28.06639000","wikiDataId":"Q5210196"},{"id":107454,"Name":"Davutlar","state_id":2187,"state_code":"09","state_name":"Aydın","country_id":225,"country_code":"TR","country_name":"Turkey","latitude":"37.73392000","longitude":"27.29283000","wikiDataId":"Q3233819"},{"id":107493,"Name":"Didim","state_id":2187,"state_code":"09","state_name":"Aydın","country_id":225,"country_code":"TR","country_name":"Turkey","latitude":"37.39305000","longitude":"27.29357000","wikiDataId":"Q1207056"},{"id":107553,"Name":"Efeler","state_id":2187,"state_code":"09","state_name":"Aydın","country_id":225,"country_code":"TR","country_name":"Turkey","latitude":"37.83835000","longitude":"27.84557000","wikiDataId":"Q16836589"},{"id":107668,"Name":"Germencik","state_id":2187,"state_code":"09","state_name":"Aydın","country_id":225,"country_code":"TR","country_name":"Turkey","latitude":"37.87056000","longitude":"27.60283000","wikiDataId":"Q963493"},{"id":108897,"Name":"İncirliova","state_id":2187,"state_code":"09","state_name":"Aydın","country_id":225,"country_code":"TR","country_name":"Turkey","latitude":"37.85222000","longitude":"27.72361000","wikiDataId":"Q2673990"},{"id":108911,"Name":"İsabeyli","state_id":2187,"state_code":"09","state_name":"Aydın","country_id":225,"country_code":"TR","country_name":"Turkey","latitude":"37.90147000","longitude":"28.26475000","wikiDataId":"Q4819763"},{"id":107893,"Name":"Karacasu","state_id":2187,"state_code":"09","state_name":"Aydın","country_id":225,"country_code":"TR","country_name":"Turkey","latitude":"37.74731000","longitude":"28.59402000","wikiDataId":"Q189697"},{"id":107929,"Name":"Karpuzlu","state_id":2187,"state_code":"09","state_name":"Aydın","country_id":225,"country_code":"TR","country_name":"Turkey","latitude":"37.55861000","longitude":"27.83528000","wikiDataId":"Q1023304"},{"id":108036,"Name":"Koçarlı","state_id":2187,"state_code":"09","state_name":"Aydın","country_id":225,"country_code":"TR","country_name":"Turkey","latitude":"37.76113000","longitude":"27.70583000","wikiDataId":"Q477171"},{"id":108084,"Name":"Köşk","state_id":2187,"state_code":"09","state_name":"Aydın","country_id":225,"country_code":"TR","country_name":"Turkey","latitude":"37.85333000","longitude":"28.05167000","wikiDataId":"Q993688"},{"id":108067,"Name":"Kuşadası","state_id":2187,"state_code":"09","state_name":"Aydın","country_id":225,"country_code":"TR","country_name":"Turkey","latitude":"37.86014000","longitude":"27.25713000","wikiDataId":"Q211952"},{"id":108063,"Name":"Kuyucak","state_id":2187,"state_code":"09","state_name":"Aydın","country_id":225,"country_code":"TR","country_name":"Turkey","latitude":"37.91330000","longitude":"28.45917000","wikiDataId":"Q1482869"},{"id":108243,"Name":"Nazilli","state_id":2187,"state_code":"09","state_name":"Aydın","country_id":225,"country_code":"TR","country_name":"Turkey","latitude":"37.93570000","longitude":"28.30609000","wikiDataId":"Q2252014"},{"id":108404,"Name":"Sarıkemer","state_id":2187,"state_code":"09","state_name":"Aydın","country_id":225,"country_code":"TR","country_name":"Turkey","latitude":"37.56609000","longitude":"27.36430000","wikiDataId":"Q4820144"},{"id":108515,"Name":"Söke","state_id":2187,"state_code":"09","state_name":"Aydın","country_id":225,"country_code":"TR","country_name":"Turkey","latitude":"37.74820000","longitude":"27.40614000","wikiDataId":"Q1004566"},{"id":108497,"Name":"Sultanhisar","state_id":2187,"state_code":"09","state_name":"Aydın","country_id":225,"country_code":"TR","country_name":"Turkey","latitude":"37.88989000","longitude":"28.15436000","wikiDataId":"Q657912"},{"id":108567,"Name":"Tepecik","state_id":2187,"state_code":"09","state_name":"Aydın","country_id":225,"country_code":"TR","country_name":"Turkey","latitude":"37.82358000","longitude":"27.87496000","wikiDataId":"Q7701250"},{"id":108704,"Name":"Yenipazar","state_id":2187,"state_code":"09","state_name":"Aydın","country_id":225,"country_code":"TR","country_name":"Turkey","latitude":"37.82332000","longitude":"28.19573000","wikiDataId":"Q1865363"}]