[{"id":134581,"Name":"Bardaskan","state_id":3927,"state_code":"09","state_name":"Razavi Khorasan","country_id":103,"country_code":"IR","country_name":"Iran","latitude":"35.26667000","longitude":"57.48333000","wikiDataId":"Q4576750"},{"id":134608,"Name":"Chenārān","state_id":3927,"state_code":"09","state_name":"Razavi Khorasan","country_id":103,"country_code":"IR","country_name":"Iran","latitude":"36.64546000","longitude":"59.12123000","wikiDataId":"Q2634871"},{"id":134613,"Name":"Dargaz","state_id":3927,"state_code":"09","state_name":"Razavi Khorasan","country_id":103,"country_code":"IR","country_name":"Iran","latitude":"37.33333000","longitude":"59.08333000","wikiDataId":"Q719986"},{"id":134628,"Name":"Dāvarzan","state_id":3927,"state_code":"09","state_name":"Razavi Khorasan","country_id":103,"country_code":"IR","country_name":"Iran","latitude":"36.33333000","longitude":"56.83333000","wikiDataId":"Q2407798"},{"id":134647,"Name":"Gonābād","state_id":3927,"state_code":"09","state_name":"Razavi Khorasan","country_id":103,"country_code":"IR","country_name":"Iran","latitude":"34.35287000","longitude":"58.68365000","wikiDataId":"Q721046"},{"id":134659,"Name":"Joveyn","state_id":3927,"state_code":"09","state_name":"Razavi Khorasan","country_id":103,"country_code":"IR","country_name":"Iran","latitude":"36.58333000","longitude":"57.51667000","wikiDataId":"Q42053"},{"id":134683,"Name":"Kāshmar","state_id":3927,"state_code":"09","state_name":"Razavi Khorasan","country_id":103,"country_code":"IR","country_name":"Iran","latitude":"35.23831000","longitude":"58.46558000","wikiDataId":"Q720403"},{"id":134698,"Name":"Mashhad","state_id":3927,"state_code":"09","state_name":"Razavi Khorasan","country_id":103,"country_code":"IR","country_name":"Iran","latitude":"36.31559000","longitude":"59.56796000","wikiDataId":"Q121157"},{"id":134714,"Name":"Neyshābūr","state_id":3927,"state_code":"09","state_name":"Razavi Khorasan","country_id":103,"country_code":"IR","country_name":"Iran","latitude":"36.21329000","longitude":"58.79575000","wikiDataId":"Q131350"},{"id":134747,"Name":"Qūchān","state_id":3927,"state_code":"09","state_name":"Razavi Khorasan","country_id":103,"country_code":"IR","country_name":"Iran","latitude":"37.10600000","longitude":"58.50955000","wikiDataId":"Q765793"},{"id":134762,"Name":"Sabzevar","state_id":3927,"state_code":"09","state_name":"Razavi Khorasan","country_id":103,"country_code":"IR","country_name":"Iran","latitude":"36.21260000","longitude":"57.68191000","wikiDataId":"Q765553"},{"id":134767,"Name":"Sarakhs","state_id":3927,"state_code":"09","state_name":"Razavi Khorasan","country_id":103,"country_code":"IR","country_name":"Iran","latitude":"36.54490000","longitude":"61.15770000","wikiDataId":"Q765536"},{"id":134801,"Name":"Shahrestān-e Bajestān","state_id":3927,"state_code":"09","state_name":"Razavi Khorasan","country_id":103,"country_code":"IR","country_name":"Iran","latitude":"34.58333000","longitude":"58.13333000","wikiDataId":"Q498106"},{"id":134821,"Name":"Shahrestān-e Bākharz","state_id":3927,"state_code":"09","state_name":"Razavi Khorasan","country_id":103,"country_code":"IR","country_name":"Iran","latitude":"35.01667000","longitude":"60.28333000","wikiDataId":"Q498106"},{"id":134827,"Name":"Shahrestān-e Bīnālūd","state_id":3927,"state_code":"09","state_name":"Razavi Khorasan","country_id":103,"country_code":"IR","country_name":"Iran","latitude":"36.26667000","longitude":"59.33333000","wikiDataId":"Q498106"},{"id":134833,"Name":"Shahrestān-e Chenārān","state_id":3927,"state_code":"09","state_name":"Razavi Khorasan","country_id":103,"country_code":"IR","country_name":"Iran","latitude":"36.66667000","longitude":"59.15000000","wikiDataId":"Q498106"},{"id":134869,"Name":"Shahrestān-e Farīmān","state_id":3927,"state_code":"09","state_name":"Razavi Khorasan","country_id":103,"country_code":"IR","country_name":"Iran","latitude":"35.70000000","longitude":"59.83333000","wikiDataId":"Q1277889"},{"id":134874,"Name":"Shahrestān-e Fīrūzeh","state_id":3927,"state_code":"09","state_name":"Razavi Khorasan","country_id":103,"country_code":"IR","country_name":"Iran","latitude":"36.30000000","longitude":"58.41667000","wikiDataId":"Q721034"},{"id":134887,"Name":"Shahrestān-e Gonābād","state_id":3927,"state_code":"09","state_name":"Razavi Khorasan","country_id":103,"country_code":"IR","country_name":"Iran","latitude":"34.38333000","longitude":"58.95000000","wikiDataId":"Q721034"},{"id":134897,"Name":"Shahrestān-e Joghatāy","state_id":3927,"state_code":"09","state_name":"Razavi Khorasan","country_id":103,"country_code":"IR","country_name":"Iran","latitude":"36.66667000","longitude":"57.03333000","wikiDataId":"Q721034"},{"id":134905,"Name":"Shahrestān-e Kalāt","state_id":3927,"state_code":"09","state_name":"Razavi Khorasan","country_id":103,"country_code":"IR","country_name":"Iran","latitude":"36.90000000","longitude":"59.90000000","wikiDataId":"Q721034"},{"id":134934,"Name":"Shahrestān-e Kāshmar","state_id":3927,"state_code":"09","state_name":"Razavi Khorasan","country_id":103,"country_code":"IR","country_name":"Iran","latitude":"35.43333000","longitude":"58.48333000","wikiDataId":"Q1264551"},{"id":134912,"Name":"Shahrestān-e Khalīlābād","state_id":3927,"state_code":"09","state_name":"Razavi Khorasan","country_id":103,"country_code":"IR","country_name":"Iran","latitude":"35.11667000","longitude":"58.20000000","wikiDataId":"Q1264551"},{"id":134921,"Name":"Shahrestān-e Khowshāb","state_id":3927,"state_code":"09","state_name":"Razavi Khorasan","country_id":103,"country_code":"IR","country_name":"Iran","latitude":"36.43333000","longitude":"58.06667000","wikiDataId":"Q1264551"},{"id":134922,"Name":"Shahrestān-e Khvāf","state_id":3927,"state_code":"09","state_name":"Razavi Khorasan","country_id":103,"country_code":"IR","country_name":"Iran","latitude":"34.50000000","longitude":"60.00000000","wikiDataId":"Q1264551"},{"id":134948,"Name":"Shahrestān-e Mah Velāt","state_id":3927,"state_code":"09","state_name":"Razavi Khorasan","country_id":103,"country_code":"IR","country_name":"Iran","latitude":"34.98333000","longitude":"58.78333000","wikiDataId":"Q1264551"},{"id":134983,"Name":"Shahrestān-e Neyshābūr","state_id":3927,"state_code":"09","state_name":"Razavi Khorasan","country_id":103,"country_code":"IR","country_name":"Iran","latitude":"36.21667000","longitude":"58.88333000","wikiDataId":"Q5099954"},{"id":135006,"Name":"Shahrestān-e Qūchān","state_id":3927,"state_code":"09","state_name":"Razavi Khorasan","country_id":103,"country_code":"IR","country_name":"Iran","latitude":"37.06667000","longitude":"58.65000000","wikiDataId":"Q5099954"},{"id":135011,"Name":"Shahrestān-e Roshtkhvār","state_id":3927,"state_code":"09","state_name":"Razavi Khorasan","country_id":103,"country_code":"IR","country_name":"Iran","latitude":"34.91667000","longitude":"59.36667000","wikiDataId":"Q5099954"},{"id":135021,"Name":"Shahrestān-e Sabzevār","state_id":3927,"state_code":"09","state_name":"Razavi Khorasan","country_id":103,"country_code":"IR","country_name":"Iran","latitude":"36.01667000","longitude":"57.41667000","wikiDataId":"Q5099954"},{"id":135066,"Name":"Shahrestān-e Tāybād","state_id":3927,"state_code":"09","state_name":"Razavi Khorasan","country_id":103,"country_code":"IR","country_name":"Iran","latitude":"34.73333000","longitude":"60.73333000","wikiDataId":"Q1286247"},{"id":135063,"Name":"Shahrestān-e Torbat-e Ḩeydarīyeh","state_id":3927,"state_code":"09","state_name":"Razavi Khorasan","country_id":103,"country_code":"IR","country_name":"Iran","latitude":"35.46667000","longitude":"59.10000000","wikiDataId":"Q1286247"},{"id":135062,"Name":"Shahrestān-e Torbat-e Jām","state_id":3927,"state_code":"09","state_name":"Razavi Khorasan","country_id":103,"country_code":"IR","country_name":"Iran","latitude":"35.46667000","longitude":"60.78333000","wikiDataId":"Q1286247"},{"id":135076,"Name":"Shahrestān-e Zāveh","state_id":3927,"state_code":"09","state_name":"Razavi Khorasan","country_id":103,"country_code":"IR","country_name":"Iran","latitude":"35.28333000","longitude":"59.73333000","wikiDataId":"Q1286247"},{"id":135135,"Name":"Tāybād","state_id":3927,"state_code":"09","state_name":"Razavi Khorasan","country_id":103,"country_code":"IR","country_name":"Iran","latitude":"34.74000000","longitude":"60.77560000","wikiDataId":"Q655078"},{"id":135132,"Name":"Torbat-e Ḩeydarīyeh","state_id":3927,"state_code":"09","state_name":"Razavi Khorasan","country_id":103,"country_code":"IR","country_name":"Iran","latitude":"35.27401000","longitude":"59.21949000","wikiDataId":"Q765528"},{"id":135131,"Name":"Torbat-e Jām","state_id":3927,"state_code":"09","state_name":"Razavi Khorasan","country_id":103,"country_code":"IR","country_name":"Iran","latitude":"35.24400000","longitude":"60.62250000","wikiDataId":"Q765715"}]