[{"id":130237,"Name":"Huyện Bắc Sơn","state_id":3792,"state_code":"09","state_name":"Lạng Sơn","country_id":240,"country_code":"VN","country_name":"Vietnam","latitude":"21.83801000","longitude":"106.27690000","wikiDataId":"Q4838559"},{"id":130220,"Name":"Huyện Bình Gia","state_id":3792,"state_code":"09","state_name":"Lạng Sơn","country_id":240,"country_code":"VN","country_name":"Vietnam","latitude":"22.07281000","longitude":"106.30410000","wikiDataId":"Q3710671"},{"id":130244,"Name":"Huyện Cao Lộc","state_id":3792,"state_code":"09","state_name":"Lạng Sơn","country_id":240,"country_code":"VN","country_name":"Vietnam","latitude":"21.89857000","longitude":"106.85435000","wikiDataId":"Q4838559"},{"id":130246,"Name":"Huyện Chi Lăng","state_id":3792,"state_code":"09","state_name":"Lạng Sơn","country_id":240,"country_code":"VN","country_name":"Vietnam","latitude":"21.67602000","longitude":"106.62925000","wikiDataId":"Q4838559"},{"id":130531,"Name":"Huyện Đình Lập","state_id":3792,"state_code":"09","state_name":"Lạng Sơn","country_id":240,"country_code":"VN","country_name":"Vietnam","latitude":"21.54210000","longitude":"107.12925000","wikiDataId":"Q5295738"},{"id":130308,"Name":"Huyện Hũu Lũng","state_id":3792,"state_code":"09","state_name":"Lạng Sơn","country_id":240,"country_code":"VN","country_name":"Vietnam","latitude":"21.54474000","longitude":"106.34386000","wikiDataId":"Q5874252"},{"id":130507,"Name":"Huyện Vặn Quan","state_id":3792,"state_code":"09","state_name":"Lạng Sơn","country_id":240,"country_code":"VN","country_name":"Vietnam","latitude":"21.83333000","longitude":"106.54942000","wikiDataId":"Q7932536"},{"id":130572,"Name":"Lạng Sơn","state_id":3792,"state_code":"09","state_name":"Lạng Sơn","country_id":240,"country_code":"VN","country_name":"Vietnam","latitude":"21.85264000","longitude":"106.76101000","wikiDataId":"Q33383"}]