[{"id":143237,"Name":"Abrigada","state_id":4859,"state_code":"09","state_name":"Guarda","country_id":177,"country_code":"PT","country_name":"Portugal","latitude":"39.14472222","longitude":"-9.01861111","wikiDataId":"Q331438"},{"id":143297,"Name":"Açores","state_id":4859,"state_code":"09","state_name":"Guarda","country_id":177,"country_code":"PT","country_name":"Portugal","latitude":"40.64500000","longitude":"-7.30527778","wikiDataId":"Q23978"},{"id":143238,"Name":"Adão","state_id":4859,"state_code":"09","state_name":"Guarda","country_id":177,"country_code":"PT","country_name":"Portugal","latitude":"40.45916667","longitude":"-7.16500000","wikiDataId":"Q32652"},{"id":143239,"Name":"Agualva","state_id":4859,"state_code":"09","state_name":"Guarda","country_id":177,"country_code":"PT","country_name":"Portugal","latitude":"38.77004444","longitude":"-9.29881111","wikiDataId":"Q397872"},{"id":143760,"Name":"Águas Belas","state_id":4859,"state_code":"09","state_name":"Guarda","country_id":177,"country_code":"PT","country_name":"Portugal","latitude":"40.37472222","longitude":"-7.16694444","wikiDataId":"Q249788"},{"id":143240,"Name":"Aguiar da Beira","state_id":4859,"state_code":"09","state_name":"Guarda","country_id":177,"country_code":"PT","country_name":"Portugal","latitude":"40.81726000","longitude":"-7.54431000","wikiDataId":"Q175373"},{"id":143241,"Name":"Ajuda","state_id":4859,"state_code":"09","state_name":"Guarda","country_id":177,"country_code":"PT","country_name":"Portugal","latitude":"38.70750000","longitude":"-9.19833333","wikiDataId":"Q413311"},{"id":143242,"Name":"Albardo","state_id":4859,"state_code":"09","state_name":"Guarda","country_id":177,"country_code":"PT","country_name":"Portugal","latitude":"40.51145000","longitude":"-7.13028000","wikiDataId":"Q32676"},{"id":143243,"Name":"Alcabideche","state_id":4859,"state_code":"09","state_name":"Guarda","country_id":177,"country_code":"PT","country_name":"Portugal","latitude":"38.73361111","longitude":"-9.40916667","wikiDataId":"Q31877422"},{"id":143244,"Name":"Alcains","state_id":4859,"state_code":"09","state_name":"Guarda","country_id":177,"country_code":"PT","country_name":"Portugal","latitude":"39.91540278","longitude":"-7.46107778","wikiDataId":"Q1024258"},{"id":143246,"Name":"Alcântara","state_id":4859,"state_code":"09","state_name":"Guarda","country_id":177,"country_code":"PT","country_name":"Portugal","latitude":"38.70638889","longitude":"-9.17416667","wikiDataId":"Q1017927"},{"id":143245,"Name":"Alcoentre","state_id":4859,"state_code":"09","state_name":"Guarda","country_id":177,"country_code":"PT","country_name":"Portugal","latitude":"39.20861111","longitude":"-8.95944444","wikiDataId":"Q31877572"},{"id":143252,"Name":"Aldeia da Ponte","state_id":4859,"state_code":"09","state_name":"Guarda","country_id":177,"country_code":"PT","country_name":"Portugal","latitude":"40.41348889","longitude":"-6.86908333","wikiDataId":"Q1523604"},{"id":143253,"Name":"Aldeia da Ribeira","state_id":4859,"state_code":"09","state_name":"Guarda","country_id":177,"country_code":"PT","country_name":"Portugal","latitude":"40.45666667","longitude":"-6.89777778","wikiDataId":"Q2120278"},{"id":143254,"Name":"Aldeia de Santo António","state_id":4859,"state_code":"09","state_name":"Guarda","country_id":177,"country_code":"PT","country_name":"Portugal","latitude":"40.34305556","longitude":"-7.13638889","wikiDataId":"Q1507986"},{"id":143255,"Name":"Aldeia do Bispo","state_id":4859,"state_code":"09","state_name":"Guarda","country_id":177,"country_code":"PT","country_name":"Portugal","latitude":"40.32333333","longitude":"-6.84805556","wikiDataId":"Q664597"},{"id":143247,"Name":"Aldeia Galega da Merceana","state_id":4859,"state_code":"09","state_name":"Guarda","country_id":177,"country_code":"PT","country_name":"Portugal","latitude":"39.08222222","longitude":"-9.11194444","wikiDataId":"Q2119101"},{"id":143248,"Name":"Aldeia Gavinha","state_id":4859,"state_code":"09","state_name":"Guarda","country_id":177,"country_code":"PT","country_name":"Portugal","latitude":"39.08444444","longitude":"-9.09638889","wikiDataId":"Q2119745"},{"id":143249,"Name":"Aldeia Nova, Miranda do Douro","state_id":4859,"state_code":"09","state_name":"Guarda","country_id":177,"country_code":"PT","country_name":"Portugal","latitude":"40.72584000","longitude":"-7.42384000","wikiDataId":"Q61742386"},{"id":143250,"Name":"Aldeia Velha","state_id":4859,"state_code":"09","state_name":"Guarda","country_id":177,"country_code":"PT","country_name":"Portugal","latitude":"40.34333333","longitude":"-6.86750000","wikiDataId":"Q1759365"},{"id":143251,"Name":"Aldeia Viçosa","state_id":4859,"state_code":"09","state_name":"Guarda","country_id":177,"country_code":"PT","country_name":"Portugal","latitude":"40.57888889","longitude":"-7.31777778","wikiDataId":"Q32581"},{"id":143256,"Name":"Aldeias","state_id":4859,"state_code":"09","state_name":"Guarda","country_id":177,"country_code":"PT","country_name":"Portugal","latitude":"40.46861111","longitude":"-7.59805556","wikiDataId":"Q32638"},{"id":143257,"Name":"Alenquer","state_id":4859,"state_code":"09","state_name":"Guarda","country_id":177,"country_code":"PT","country_name":"Portugal","latitude":"39.05000000","longitude":"-9.01666667","wikiDataId":"Q988830"},{"id":143258,"Name":"Alfaiates","state_id":4859,"state_code":"09","state_name":"Guarda","country_id":177,"country_code":"PT","country_name":"Portugal","latitude":"40.39111111","longitude":"-6.91333333","wikiDataId":"Q2120310"},{"id":143259,"Name":"Alfornelos","state_id":4859,"state_code":"09","state_name":"Guarda","country_id":177,"country_code":"PT","country_name":"Portugal","latitude":"38.76333333","longitude":"-9.20638889","wikiDataId":"Q1021359"},{"id":143260,"Name":"Alfragide","state_id":4859,"state_code":"09","state_name":"Guarda","country_id":177,"country_code":"PT","country_name":"Portugal","latitude":"38.73203000","longitude":"-9.21920000","wikiDataId":"Q1982948"},{"id":143265,"Name":"Algés","state_id":4859,"state_code":"09","state_name":"Guarda","country_id":177,"country_code":"PT","country_name":"Portugal","latitude":"38.69949722","longitude":"-9.22927222","wikiDataId":"Q1975409"},{"id":143261,"Name":"Algodres","state_id":4859,"state_code":"09","state_name":"Guarda","country_id":177,"country_code":"PT","country_name":"Portugal","latitude":"40.95250000","longitude":"-7.05472222","wikiDataId":"Q23989"},{"id":143262,"Name":"Alguber","state_id":4859,"state_code":"09","state_name":"Guarda","country_id":177,"country_code":"PT","country_name":"Portugal","latitude":"39.27583333","longitude":"-9.01888889","wikiDataId":"Q2119125"},{"id":143263,"Name":"Algueirão","state_id":4859,"state_code":"09","state_name":"Guarda","country_id":177,"country_code":"PT","country_name":"Portugal","latitude":"38.79764000","longitude":"-9.34370000","wikiDataId":"Q2119125"},{"id":143264,"Name":"Algueirão–Mem Martins","state_id":4859,"state_code":"09","state_name":"Guarda","country_id":177,"country_code":"PT","country_name":"Portugal","latitude":"38.79411389","longitude":"-9.34510833","wikiDataId":"Q180972"},{"id":143266,"Name":"Alhandra","state_id":4859,"state_code":"09","state_name":"Guarda","country_id":177,"country_code":"PT","country_name":"Portugal","latitude":"38.92732000","longitude":"-9.00864000","wikiDataId":"Q1803660"},{"id":143267,"Name":"Almargem","state_id":4859,"state_code":"09","state_name":"Guarda","country_id":177,"country_code":"PT","country_name":"Portugal","latitude":"38.84472222","longitude":"-9.27305556","wikiDataId":"Q31879382"},{"id":143268,"Name":"Almargem do Bispo","state_id":4859,"state_code":"09","state_name":"Guarda","country_id":177,"country_code":"PT","country_name":"Portugal","latitude":"38.84750000","longitude":"-9.27138889","wikiDataId":"Q2119224"},{"id":143269,"Name":"Almeida","state_id":4859,"state_code":"09","state_name":"Guarda","country_id":177,"country_code":"PT","country_name":"Portugal","latitude":"40.73070000","longitude":"-6.90594000","wikiDataId":"Q617889"},{"id":143270,"Name":"Almendra","state_id":4859,"state_code":"09","state_name":"Guarda","country_id":177,"country_code":"PT","country_name":"Portugal","latitude":"40.99284444","longitude":"-7.05756944","wikiDataId":"Q2120319"},{"id":143271,"Name":"Almofala","state_id":4859,"state_code":"09","state_name":"Guarda","country_id":177,"country_code":"PT","country_name":"Portugal","latitude":"40.86027778","longitude":"-6.84861111","wikiDataId":"Q24018"},{"id":143272,"Name":"Alto do Pina","state_id":4859,"state_code":"09","state_name":"Guarda","country_id":177,"country_code":"PT","country_name":"Portugal","latitude":"38.74027778","longitude":"-9.12805556","wikiDataId":"Q443627"},{"id":143273,"Name":"Alvalade","state_id":4859,"state_code":"09","state_name":"Guarda","country_id":177,"country_code":"PT","country_name":"Portugal","latitude":"38.74694444","longitude":"-9.13611111","wikiDataId":"Q448231"},{"id":143274,"Name":"Alvendre","state_id":4859,"state_code":"09","state_name":"Guarda","country_id":177,"country_code":"PT","country_name":"Portugal","latitude":"40.58500000","longitude":"-7.25833333","wikiDataId":"Q32565"},{"id":143275,"Name":"Alverca da Beira","state_id":4859,"state_code":"09","state_name":"Guarda","country_id":177,"country_code":"PT","country_name":"Portugal","latitude":"40.70055556","longitude":"-7.21750000","wikiDataId":"Q1430189"},{"id":143276,"Name":"Alverca do Ribatejo","state_id":4859,"state_code":"09","state_name":"Guarda","country_id":177,"country_code":"PT","country_name":"Portugal","latitude":"38.89866111","longitude":"-9.03947778","wikiDataId":"Q431690"},{"id":143277,"Name":"Alvoco da Serra","state_id":4859,"state_code":"09","state_name":"Guarda","country_id":177,"country_code":"PT","country_name":"Portugal","latitude":"40.29555556","longitude":"-7.67027778","wikiDataId":"Q449532"},{"id":143278,"Name":"Amadora","state_id":4859,"state_code":"09","state_name":"Guarda","country_id":177,"country_code":"PT","country_name":"Portugal","latitude":"38.75000000","longitude":"-9.23333333","wikiDataId":"Q189166"},{"id":143279,"Name":"Ameixoeira","state_id":4859,"state_code":"09","state_name":"Guarda","country_id":177,"country_code":"PT","country_name":"Portugal","latitude":"38.78777778","longitude":"-9.15250000","wikiDataId":"Q461261"},{"id":143280,"Name":"Amoreira","state_id":4859,"state_code":"09","state_name":"Guarda","country_id":177,"country_code":"PT","country_name":"Portugal","latitude":"40.58805556","longitude":"-7.01555556","wikiDataId":"Q23993"},{"id":143281,"Name":"Anjos","state_id":4859,"state_code":"09","state_name":"Guarda","country_id":177,"country_code":"PT","country_name":"Portugal","latitude":"38.72388889","longitude":"-9.13638889","wikiDataId":"Q551464"},{"id":143282,"Name":"Apelação","state_id":4859,"state_code":"09","state_name":"Guarda","country_id":177,"country_code":"PT","country_name":"Portugal","latitude":"38.81500000","longitude":"-9.13249000","wikiDataId":"Q618141"},{"id":143283,"Name":"Arcozelo","state_id":4859,"state_code":"09","state_name":"Guarda","country_id":177,"country_code":"PT","country_name":"Portugal","latitude":"40.54055556","longitude":"-7.62722222","wikiDataId":"Q32628"},{"id":143284,"Name":"Arranhó","state_id":4859,"state_code":"09","state_name":"Guarda","country_id":177,"country_code":"PT","country_name":"Portugal","latitude":"38.95371667","longitude":"-9.13497778","wikiDataId":"Q699206"},{"id":143285,"Name":"Arrifana","state_id":4859,"state_code":"09","state_name":"Guarda","country_id":177,"country_code":"PT","country_name":"Portugal","latitude":"40.56972222","longitude":"-7.21027778","wikiDataId":"Q32672"},{"id":143286,"Name":"Arruda Dos Vinhos","state_id":4859,"state_code":"09","state_name":"Guarda","country_id":177,"country_code":"PT","country_name":"Portugal","latitude":"38.97172000","longitude":"-9.08807000","wikiDataId":"Q32672"},{"id":143287,"Name":"Atalaia","state_id":4859,"state_code":"09","state_name":"Guarda","country_id":177,"country_code":"PT","country_name":"Portugal","latitude":"40.66000000","longitude":"-7.03305556","wikiDataId":"Q753268"},{"id":143288,"Name":"Aveiras de Baixo","state_id":4859,"state_code":"09","state_name":"Guarda","country_id":177,"country_code":"PT","country_name":"Portugal","latitude":"39.11138889","longitude":"-8.86916667","wikiDataId":"Q790339"},{"id":143289,"Name":"Aveiras de Cima","state_id":4859,"state_code":"09","state_name":"Guarda","country_id":177,"country_code":"PT","country_name":"Portugal","latitude":"39.13769444","longitude":"-8.89995556","wikiDataId":"Q790340"},{"id":143291,"Name":"Avelãs da Ribeira","state_id":4859,"state_code":"09","state_name":"Guarda","country_id":177,"country_code":"PT","country_name":"Portugal","latitude":"40.67773000","longitude":"-7.21492000","wikiDataId":"Q32654"},{"id":143290,"Name":"Aveloso","state_id":4859,"state_code":"09","state_name":"Guarda","country_id":177,"country_code":"PT","country_name":"Portugal","latitude":"40.93111111","longitude":"-7.31666667","wikiDataId":"Q790400"},{"id":143292,"Name":"Azambuja","state_id":4859,"state_code":"09","state_name":"Guarda","country_id":177,"country_code":"PT","country_name":"Portugal","latitude":"39.06666667","longitude":"-8.86666667","wikiDataId":"Q634164"},{"id":143293,"Name":"Azambuja (town)","state_id":4859,"state_code":"09","state_name":"Guarda","country_id":177,"country_code":"PT","country_name":"Portugal","latitude":"39.07027778","longitude":"-8.86833333","wikiDataId":"Q31894609"},{"id":143294,"Name":"Azenhas do Mar","state_id":4859,"state_code":"09","state_name":"Guarda","country_id":177,"country_code":"PT","country_name":"Portugal","latitude":"38.84055556","longitude":"-9.46000000","wikiDataId":"Q1648341"},{"id":143295,"Name":"Azevo","state_id":4859,"state_code":"09","state_name":"Guarda","country_id":177,"country_code":"PT","country_name":"Portugal","latitude":"40.85166667","longitude":"-7.13138889","wikiDataId":"Q651803"},{"id":143296,"Name":"Azueira","state_id":4859,"state_code":"09","state_name":"Guarda","country_id":177,"country_code":"PT","country_name":"Portugal","latitude":"39.00653000","longitude":"-9.27475000","wikiDataId":"Q31894809"},{"id":143298,"Name":"Baraçal","state_id":4859,"state_code":"09","state_name":"Guarda","country_id":177,"country_code":"PT","country_name":"Portugal","latitude":"40.39357000","longitude":"-7.08522000","wikiDataId":"Q807296"},{"id":143299,"Name":"Barcarena","state_id":4859,"state_code":"09","state_name":"Guarda","country_id":177,"country_code":"PT","country_name":"Portugal","latitude":"38.73250000","longitude":"-9.28000000","wikiDataId":"Q31910854"},{"id":143300,"Name":"Barreira","state_id":4859,"state_code":"09","state_name":"Guarda","country_id":177,"country_code":"PT","country_name":"Portugal","latitude":"40.91111111","longitude":"-7.18638889","wikiDataId":"Q808848"},{"id":143301,"Name":"Beato","state_id":4859,"state_code":"09","state_name":"Guarda","country_id":177,"country_code":"PT","country_name":"Portugal","latitude":"38.73472222","longitude":"-9.10583333","wikiDataId":"Q686717"},{"id":143302,"Name":"Belas","state_id":4859,"state_code":"09","state_name":"Guarda","country_id":177,"country_code":"PT","country_name":"Portugal","latitude":"38.76666667","longitude":"-9.26666667","wikiDataId":"Q815283"},{"id":143303,"Name":"Bendada","state_id":4859,"state_code":"09","state_name":"Guarda","country_id":177,"country_code":"PT","country_name":"Portugal","latitude":"40.37083333","longitude":"-7.25472222","wikiDataId":"Q816746"},{"id":143304,"Name":"Benespera","state_id":4859,"state_code":"09","state_name":"Guarda","country_id":177,"country_code":"PT","country_name":"Portugal","latitude":"40.44027778","longitude":"-7.27638889","wikiDataId":"Q32612"},{"id":143305,"Name":"Benfica","state_id":4859,"state_code":"09","state_name":"Guarda","country_id":177,"country_code":"PT","country_name":"Portugal","latitude":"38.75111111","longitude":"-9.20222222","wikiDataId":"Q534230"},{"id":143306,"Name":"Bismula","state_id":4859,"state_code":"09","state_name":"Guarda","country_id":177,"country_code":"PT","country_name":"Portugal","latitude":"40.44694444","longitude":"-6.96444444","wikiDataId":"Q866595"},{"id":143307,"Name":"Bobadela","state_id":4859,"state_code":"09","state_name":"Guarda","country_id":177,"country_code":"PT","country_name":"Portugal","latitude":"38.80663000","longitude":"-9.09731000","wikiDataId":"Q888361"},{"id":143308,"Name":"Bouça Cova","state_id":4859,"state_code":"09","state_name":"Guarda","country_id":177,"country_code":"PT","country_name":"Portugal","latitude":"40.70464000","longitude":"-7.23830000","wikiDataId":"Q895329"},{"id":143309,"Name":"Brandoa","state_id":4859,"state_code":"09","state_name":"Guarda","country_id":177,"country_code":"PT","country_name":"Portugal","latitude":"38.76611111","longitude":"-9.21444444","wikiDataId":"Q266202"},{"id":143310,"Name":"Bucelas","state_id":4859,"state_code":"09","state_name":"Guarda","country_id":177,"country_code":"PT","country_name":"Portugal","latitude":"38.90000000","longitude":"-9.11666667","wikiDataId":"Q997658"},{"id":143311,"Name":"Buraca","state_id":4859,"state_code":"09","state_name":"Guarda","country_id":177,"country_code":"PT","country_name":"Portugal","latitude":"38.74222222","longitude":"-9.20944444","wikiDataId":"Q1010176"},{"id":143312,"Name":"Cabanas de Torres","state_id":4859,"state_code":"09","state_name":"Guarda","country_id":177,"country_code":"PT","country_name":"Portugal","latitude":"39.15631000","longitude":"-9.06328000","wikiDataId":"Q1024717"},{"id":143313,"Name":"Cabeça","state_id":4859,"state_code":"09","state_name":"Guarda","country_id":177,"country_code":"PT","country_name":"Portugal","latitude":"40.31916667","longitude":"-7.73527778","wikiDataId":"Q1024799"},{"id":143314,"Name":"Cacem","state_id":4859,"state_code":"09","state_name":"Guarda","country_id":177,"country_code":"PT","country_name":"Portugal","latitude":"38.77042000","longitude":"-9.30809000","wikiDataId":"Q1025066"},{"id":143315,"Name":"Cachoeiras","state_id":4859,"state_code":"09","state_name":"Guarda","country_id":177,"country_code":"PT","country_name":"Portugal","latitude":"38.98583333","longitude":"-9.01638889","wikiDataId":"Q1025044"},{"id":143316,"Name":"Cadafais","state_id":4859,"state_code":"09","state_name":"Guarda","country_id":177,"country_code":"PT","country_name":"Portugal","latitude":"39.00444444","longitude":"-9.00416667","wikiDataId":"Q687504"},{"id":143317,"Name":"Cadafaz","state_id":4859,"state_code":"09","state_name":"Guarda","country_id":177,"country_code":"PT","country_name":"Portugal","latitude":"40.58472222","longitude":"-7.36194444","wikiDataId":"Q24020"},{"id":143318,"Name":"Cadaval","state_id":4859,"state_code":"09","state_name":"Guarda","country_id":177,"country_code":"PT","country_name":"Portugal","latitude":"39.24621000","longitude":"-9.06738000","wikiDataId":"Q33661928"},{"id":143319,"Name":"Calhandriz","state_id":4859,"state_code":"09","state_name":"Guarda","country_id":177,"country_code":"PT","country_name":"Portugal","latitude":"38.92500000","longitude":"-9.06777778","wikiDataId":"Q748055"},{"id":143320,"Name":"Camarate","state_id":4859,"state_code":"09","state_name":"Guarda","country_id":177,"country_code":"PT","country_name":"Portugal","latitude":"38.80358000","longitude":"-9.12809000","wikiDataId":"Q1028029"},{"id":143321,"Name":"Campelos","state_id":4859,"state_code":"09","state_name":"Guarda","country_id":177,"country_code":"PT","country_name":"Portugal","latitude":"39.20000000","longitude":"-9.23333333","wikiDataId":"Q582153"},{"id":143322,"Name":"Campo Grande","state_id":4859,"state_code":"09","state_name":"Guarda","country_id":177,"country_code":"PT","country_name":"Portugal","latitude":"38.75694444","longitude":"-9.15361111","wikiDataId":"Q963573"},{"id":143323,"Name":"Campolide","state_id":4859,"state_code":"09","state_name":"Guarda","country_id":177,"country_code":"PT","country_name":"Portugal","latitude":"38.72638889","longitude":"-9.16333333","wikiDataId":"Q1031527"},{"id":143324,"Name":"Caneças","state_id":4859,"state_code":"09","state_name":"Guarda","country_id":177,"country_code":"PT","country_name":"Portugal","latitude":"38.81666667","longitude":"-9.23333333","wikiDataId":"Q1026716"},{"id":143325,"Name":"Carapito","state_id":4859,"state_code":"09","state_name":"Guarda","country_id":177,"country_code":"PT","country_name":"Portugal","latitude":"40.76759000","longitude":"-7.45447000","wikiDataId":"Q1035417"},{"id":143326,"Name":"Carcavelos","state_id":4859,"state_code":"09","state_name":"Guarda","country_id":177,"country_code":"PT","country_name":"Portugal","latitude":"38.69220000","longitude":"-9.33327000","wikiDataId":"Q663893"},{"id":143327,"Name":"Cardosas","state_id":4859,"state_code":"09","state_name":"Guarda","country_id":177,"country_code":"PT","country_name":"Portugal","latitude":"38.97722222","longitude":"-9.04083333","wikiDataId":"Q430228"},{"id":143328,"Name":"Carmões","state_id":4859,"state_code":"09","state_name":"Guarda","country_id":177,"country_code":"PT","country_name":"Portugal","latitude":"39.05777778","longitude":"-9.13416667","wikiDataId":"Q119690"},{"id":143329,"Name":"Carnaxide","state_id":4859,"state_code":"09","state_name":"Guarda","country_id":177,"country_code":"PT","country_name":"Portugal","latitude":"38.72666667","longitude":"-9.24166667","wikiDataId":"Q1013271"},{"id":143330,"Name":"Carnicães","state_id":4859,"state_code":"09","state_name":"Guarda","country_id":177,"country_code":"PT","country_name":"Portugal","latitude":"40.73333333","longitude":"-7.31833333","wikiDataId":"Q611889"},{"id":143331,"Name":"Carnide","state_id":4859,"state_code":"09","state_name":"Guarda","country_id":177,"country_code":"PT","country_name":"Portugal","latitude":"38.76083333","longitude":"-9.18361111","wikiDataId":"Q1044020"},{"id":143332,"Name":"Carnota","state_id":4859,"state_code":"09","state_name":"Guarda","country_id":177,"country_code":"PT","country_name":"Portugal","latitude":"39.03361111","longitude":"-9.07166667","wikiDataId":"Q224591"},{"id":143333,"Name":"Carragozela","state_id":4859,"state_code":"09","state_name":"Guarda","country_id":177,"country_code":"PT","country_name":"Portugal","latitude":"40.40572000","longitude":"-7.76077000","wikiDataId":"Q1044862"},{"id":143334,"Name":"Carrapichana","state_id":4859,"state_code":"09","state_name":"Guarda","country_id":177,"country_code":"PT","country_name":"Portugal","latitude":"40.56194444","longitude":"-7.48694444","wikiDataId":"Q24147"},{"id":143335,"Name":"Carregado","state_id":4859,"state_code":"09","state_name":"Guarda","country_id":177,"country_code":"PT","country_name":"Portugal","latitude":"39.02334000","longitude":"-8.96450000","wikiDataId":"Q1044914"},{"id":143336,"Name":"Carvalhal","state_id":4859,"state_code":"09","state_name":"Guarda","country_id":177,"country_code":"PT","country_name":"Portugal","latitude":"40.88361111","longitude":"-7.28361111","wikiDataId":"Q1046073"},{"id":143337,"Name":"Carvoeira","state_id":4859,"state_code":"09","state_name":"Guarda","country_id":177,"country_code":"PT","country_name":"Portugal","latitude":"39.08055556","longitude":"-9.16222222","wikiDataId":"Q388896"},{"id":143339,"Name":"Casal de Cambra","state_id":4859,"state_code":"09","state_name":"Guarda","country_id":177,"country_code":"PT","country_name":"Portugal","latitude":"38.80236000","longitude":"-9.23188000","wikiDataId":"Q1046749"},{"id":143340,"Name":"Casal de Cinza","state_id":4859,"state_code":"09","state_name":"Guarda","country_id":177,"country_code":"PT","country_name":"Portugal","latitude":"40.54416667","longitude":"-7.16416667","wikiDataId":"Q32563"},{"id":143338,"Name":"Casal Vasco","state_id":4859,"state_code":"09","state_name":"Guarda","country_id":177,"country_code":"PT","country_name":"Portugal","latitude":"40.63792000","longitude":"-7.55538000","wikiDataId":"Q33796618"},{"id":143341,"Name":"Casas do Soeiro","state_id":4859,"state_code":"09","state_name":"Guarda","country_id":177,"country_code":"PT","country_name":"Portugal","latitude":"40.61888889","longitude":"-7.40638889","wikiDataId":"Q24207"},{"id":143342,"Name":"Cascais","state_id":4859,"state_code":"09","state_name":"Guarda","country_id":177,"country_code":"PT","country_name":"Portugal","latitude":"38.69681000","longitude":"-9.42147000","wikiDataId":"Q273059"},{"id":143343,"Name":"Castanheira","state_id":4859,"state_code":"09","state_name":"Guarda","country_id":177,"country_code":"PT","country_name":"Portugal","latitude":"40.57472222","longitude":"-7.07944444","wikiDataId":"Q32582"},{"id":143344,"Name":"Castanheira do Ribatejo","state_id":4859,"state_code":"09","state_name":"Guarda","country_id":177,"country_code":"PT","country_name":"Portugal","latitude":"38.98333333","longitude":"-8.96666667","wikiDataId":"Q1048511"},{"id":143345,"Name":"Casteição","state_id":4859,"state_code":"09","state_name":"Guarda","country_id":177,"country_code":"PT","country_name":"Portugal","latitude":"40.88083333","longitude":"-7.32583333","wikiDataId":"Q1048590"},{"id":143346,"Name":"Casteleiro","state_id":4859,"state_code":"09","state_name":"Guarda","country_id":177,"country_code":"PT","country_name":"Portugal","latitude":"40.30222222","longitude":"-7.23166667","wikiDataId":"Q1048661"},{"id":143347,"Name":"Castelo (Lisbon)","state_id":4859,"state_code":"09","state_name":"Guarda","country_id":177,"country_code":"PT","country_name":"Portugal","latitude":"38.71361111","longitude":"-9.13333333","wikiDataId":"Q978535"},{"id":143348,"Name":"Castelo Bom","state_id":4859,"state_code":"09","state_name":"Guarda","country_id":177,"country_code":"PT","country_name":"Portugal","latitude":"40.62027778","longitude":"-6.90055556","wikiDataId":"Q24191"},{"id":143349,"Name":"Castelo Melhor","state_id":4859,"state_code":"09","state_name":"Guarda","country_id":177,"country_code":"PT","country_name":"Portugal","latitude":"41.02750000","longitude":"-7.06500000","wikiDataId":"Q1048970"},{"id":143350,"Name":"Castelo Rodrigo","state_id":4859,"state_code":"09","state_name":"Guarda","country_id":177,"country_code":"PT","country_name":"Portugal","latitude":"40.87555556","longitude":"-6.96388889","wikiDataId":"Q1048976"},{"id":143351,"Name":"Cativelos","state_id":4859,"state_code":"09","state_name":"Guarda","country_id":177,"country_code":"PT","country_name":"Portugal","latitude":"40.53083333","longitude":"-7.68194444","wikiDataId":"Q1018782"},{"id":143352,"Name":"Cavadoude","state_id":4859,"state_code":"09","state_name":"Guarda","country_id":177,"country_code":"PT","country_name":"Portugal","latitude":"40.58472222","longitude":"-7.28666667","wikiDataId":"Q32576"},{"id":143353,"Name":"Caxias","state_id":4859,"state_code":"09","state_name":"Guarda","country_id":177,"country_code":"PT","country_name":"Portugal","latitude":"38.70000000","longitude":"-9.28333333","wikiDataId":"Q33210"},{"id":143354,"Name":"Cedovim","state_id":4859,"state_code":"09","state_name":"Guarda","country_id":177,"country_code":"PT","country_name":"Portugal","latitude":"41.03333333","longitude":"-7.31666667","wikiDataId":"Q1030123"},{"id":143355,"Name":"Celorico da Beira","state_id":4859,"state_code":"09","state_name":"Guarda","country_id":177,"country_code":"PT","country_name":"Portugal","latitude":"40.63333333","longitude":"-7.40000000","wikiDataId":"Q523596"},{"id":143356,"Name":"Cercal","state_id":4859,"state_code":"09","state_name":"Guarda","country_id":177,"country_code":"PT","country_name":"Portugal","latitude":"39.23388889","longitude":"-8.99833333","wikiDataId":"Q377823"},{"id":143357,"Name":"Cerdeira","state_id":4859,"state_code":"09","state_name":"Guarda","country_id":177,"country_code":"PT","country_name":"Portugal","latitude":"40.51416667","longitude":"-7.04666667","wikiDataId":"Q1054894"},{"id":143358,"Name":"Cerejo","state_id":4859,"state_code":"09","state_name":"Guarda","country_id":177,"country_code":"PT","country_name":"Portugal","latitude":"40.72944444","longitude":"-7.22361111","wikiDataId":"Q600284"},{"id":143359,"Name":"Charneca","state_id":4859,"state_code":"09","state_name":"Guarda","country_id":177,"country_code":"PT","country_name":"Portugal","latitude":"38.78527778","longitude":"-9.14500000","wikiDataId":"Q1067627"},{"id":143361,"Name":"Chãs","state_id":4859,"state_code":"09","state_name":"Guarda","country_id":177,"country_code":"PT","country_name":"Portugal","latitude":"40.98972222","longitude":"-7.17027778","wikiDataId":"Q1090906"},{"id":143360,"Name":"Cheleiros","state_id":4859,"state_code":"09","state_name":"Guarda","country_id":177,"country_code":"PT","country_name":"Portugal","latitude":"38.88972222","longitude":"-9.32888889","wikiDataId":"Q770211"},{"id":143362,"Name":"Codesseiro","state_id":4859,"state_code":"09","state_name":"Guarda","country_id":177,"country_code":"PT","country_name":"Portugal","latitude":"40.65111111","longitude":"-7.20500000","wikiDataId":"Q32651"},{"id":143363,"Name":"Cogula","state_id":4859,"state_code":"09","state_name":"Guarda","country_id":177,"country_code":"PT","country_name":"Portugal","latitude":"40.81277778","longitude":"-7.26138889","wikiDataId":"Q1107053"},{"id":143364,"Name":"Colares","state_id":4859,"state_code":"09","state_name":"Guarda","country_id":177,"country_code":"PT","country_name":"Portugal","latitude":"38.80206000","longitude":"-9.46305000","wikiDataId":"Q1107623"},{"id":143365,"Name":"Coração de Jesus","state_id":4859,"state_code":"09","state_name":"Guarda","country_id":177,"country_code":"PT","country_name":"Portugal","latitude":"38.72416667","longitude":"-9.14500000","wikiDataId":"Q1026670"},{"id":143366,"Name":"Coriscada","state_id":4859,"state_code":"09","state_name":"Guarda","country_id":177,"country_code":"PT","country_name":"Portugal","latitude":"40.86197000","longitude":"-7.20372000","wikiDataId":"Q33801000"},{"id":143367,"Name":"Cortiçada","state_id":4859,"state_code":"09","state_name":"Guarda","country_id":177,"country_code":"PT","country_name":"Portugal","latitude":"40.76500000","longitude":"-7.54222222","wikiDataId":"Q1135623"},{"id":143368,"Name":"Cortiçô","state_id":4859,"state_code":"09","state_name":"Guarda","country_id":177,"country_code":"PT","country_name":"Portugal","latitude":"40.66305556","longitude":"-7.49472222","wikiDataId":"Q32684"},{"id":143369,"Name":"Cortiçô da Serra","state_id":4859,"state_code":"09","state_name":"Guarda","country_id":177,"country_code":"PT","country_name":"Portugal","latitude":"40.60124000","longitude":"-7.43426000","wikiDataId":"Q24209"},{"id":143370,"Name":"Coruche","state_id":4859,"state_code":"09","state_name":"Guarda","country_id":177,"country_code":"PT","country_name":"Portugal","latitude":"40.79361111","longitude":"-7.54083333","wikiDataId":"Q1135661"},{"id":143371,"Name":"Corujeira","state_id":4859,"state_code":"09","state_name":"Guarda","country_id":177,"country_code":"PT","country_name":"Portugal","latitude":"40.50609000","longitude":"-7.32803000","wikiDataId":"Q32569"},{"id":143374,"Name":"Cótimos","state_id":4859,"state_code":"09","state_name":"Guarda","country_id":177,"country_code":"PT","country_name":"Portugal","latitude":"40.82750000","longitude":"-7.23972222","wikiDataId":"Q1150896"},{"id":143372,"Name":"Cruz Quebrada - Dafundo","state_id":4859,"state_code":"09","state_name":"Guarda","country_id":177,"country_code":"PT","country_name":"Portugal","latitude":"38.70611111","longitude":"-9.25055556","wikiDataId":"Q1021364"},{"id":143373,"Name":"Custoias","state_id":4859,"state_code":"09","state_name":"Guarda","country_id":177,"country_code":"PT","country_name":"Portugal","latitude":"41.10527778","longitude":"-7.32083333","wikiDataId":"Q34798089"},{"id":143375,"Name":"Damaia","state_id":4859,"state_code":"09","state_name":"Guarda","country_id":177,"country_code":"PT","country_name":"Portugal","latitude":"38.74527778","longitude":"-9.21833333","wikiDataId":"Q377919"},{"id":143376,"Name":"Dois Portos","state_id":4859,"state_code":"09","state_name":"Guarda","country_id":177,"country_code":"PT","country_name":"Portugal","latitude":"39.03840000","longitude":"-9.18556000","wikiDataId":"Q1234975"},{"id":143377,"Name":"Dornelas","state_id":4859,"state_code":"09","state_name":"Guarda","country_id":177,"country_code":"PT","country_name":"Portugal","latitude":"40.73105000","longitude":"-7.55894000","wikiDataId":"Q1245694"},{"id":143378,"Name":"Eirado","state_id":4859,"state_code":"09","state_name":"Guarda","country_id":177,"country_code":"PT","country_name":"Portugal","latitude":"40.77333333","longitude":"-7.49000000","wikiDataId":"Q647956"},{"id":143379,"Name":"Encarnação","state_id":4859,"state_code":"09","state_name":"Guarda","country_id":177,"country_code":"PT","country_name":"Portugal","latitude":"39.03333333","longitude":"-9.36805556","wikiDataId":"Q1024864"},{"id":143380,"Name":"Enxara do Bispo","state_id":4859,"state_code":"09","state_name":"Guarda","country_id":177,"country_code":"PT","country_name":"Portugal","latitude":"38.99194444","longitude":"-9.24083333","wikiDataId":"Q637142"},{"id":143381,"Name":"Ericeira","state_id":4859,"state_code":"09","state_name":"Guarda","country_id":177,"country_code":"PT","country_name":"Portugal","latitude":"38.96277778","longitude":"-9.41527778","wikiDataId":"Q1351868"},{"id":143382,"Name":"Ervas Tenras","state_id":4859,"state_code":"09","state_name":"Guarda","country_id":177,"country_code":"PT","country_name":"Portugal","latitude":"40.74055556","longitude":"-7.18611111","wikiDataId":"Q1279919"},{"id":143383,"Name":"Ervedosa","state_id":4859,"state_code":"09","state_name":"Guarda","country_id":177,"country_code":"PT","country_name":"Portugal","latitude":"40.84694444","longitude":"-7.17611111","wikiDataId":"Q1362590"},{"id":143384,"Name":"Escalhão","state_id":4859,"state_code":"09","state_name":"Guarda","country_id":177,"country_code":"PT","country_name":"Portugal","latitude":"40.94944444","longitude":"-6.92611111","wikiDataId":"Q1366789"},{"id":143385,"Name":"Estoril","state_id":4859,"state_code":"09","state_name":"Guarda","country_id":177,"country_code":"PT","country_name":"Portugal","latitude":"38.70571000","longitude":"-9.39773000","wikiDataId":"Q193305"},{"id":143386,"Name":"Faia","state_id":4859,"state_code":"09","state_name":"Guarda","country_id":177,"country_code":"PT","country_name":"Portugal","latitude":"40.56055556","longitude":"-7.31027778","wikiDataId":"Q32675"},{"id":143387,"Name":"Falagueira","state_id":4859,"state_code":"09","state_name":"Guarda","country_id":177,"country_code":"PT","country_name":"Portugal","latitude":"38.75903000","longitude":"-9.21988000","wikiDataId":"Q1024775"},{"id":143388,"Name":"Famalicão","state_id":4859,"state_code":"09","state_name":"Guarda","country_id":177,"country_code":"PT","country_name":"Portugal","latitude":"40.44361111","longitude":"-7.37722222","wikiDataId":"Q32643"},{"id":143389,"Name":"Famões","state_id":4859,"state_code":"09","state_name":"Guarda","country_id":177,"country_code":"PT","country_name":"Portugal","latitude":"38.78333333","longitude":"-9.21666667","wikiDataId":"Q375205"},{"id":143390,"Name":"Fanhões","state_id":4859,"state_code":"09","state_name":"Guarda","country_id":177,"country_code":"PT","country_name":"Portugal","latitude":"38.88111111","longitude":"-9.15250000","wikiDataId":"Q1395657"},{"id":143391,"Name":"Fernão Joanes","state_id":4859,"state_code":"09","state_name":"Guarda","country_id":177,"country_code":"PT","country_name":"Portugal","latitude":"40.48694444","longitude":"-7.35527778","wikiDataId":"Q32673"},{"id":143397,"Name":"Fiães","state_id":4859,"state_code":"09","state_name":"Guarda","country_id":177,"country_code":"PT","country_name":"Portugal","latitude":"40.73305556","longitude":"-7.37305556","wikiDataId":"Q1422129"},{"id":143392,"Name":"Figueira de Castelo Rodrigo","state_id":4859,"state_code":"09","state_name":"Guarda","country_id":177,"country_code":"PT","country_name":"Portugal","latitude":"40.90000000","longitude":"-6.96666667","wikiDataId":"Q644782"},{"id":143393,"Name":"Figueira do Guincho","state_id":4859,"state_code":"09","state_name":"Guarda","country_id":177,"country_code":"PT","country_name":"Portugal","latitude":"38.75000000","longitude":"-9.46666667","wikiDataId":"Q49350155"},{"id":143395,"Name":"Figueiró da Granja","state_id":4859,"state_code":"09","state_name":"Guarda","country_id":177,"country_code":"PT","country_name":"Portugal","latitude":"40.62805556","longitude":"-7.49916667","wikiDataId":"Q32655"},{"id":143396,"Name":"Figueiró da Serra","state_id":4859,"state_code":"09","state_name":"Guarda","country_id":177,"country_code":"PT","country_name":"Portugal","latitude":"40.54055556","longitude":"-7.48888889","wikiDataId":"Q32575"},{"id":143394,"Name":"Figueiros","state_id":4859,"state_code":"09","state_name":"Guarda","country_id":177,"country_code":"PT","country_name":"Portugal","latitude":"39.27946000","longitude":"-9.05083000","wikiDataId":"Q915093"},{"id":143414,"Name":"Fóios","state_id":4859,"state_code":"09","state_name":"Guarda","country_id":177,"country_code":"PT","country_name":"Portugal","latitude":"40.28666667","longitude":"-6.89250000","wikiDataId":"Q1479607"},{"id":143398,"Name":"Folgosinho","state_id":4859,"state_code":"09","state_name":"Guarda","country_id":177,"country_code":"PT","country_name":"Portugal","latitude":"40.50944444","longitude":"-7.51388889","wikiDataId":"Q32653"},{"id":143399,"Name":"Folhadosa","state_id":4859,"state_code":"09","state_name":"Guarda","country_id":177,"country_code":"PT","country_name":"Portugal","latitude":"40.37944444","longitude":"-7.78472222","wikiDataId":"Q1435387"},{"id":143400,"Name":"Fontanelas","state_id":4859,"state_code":"09","state_name":"Guarda","country_id":177,"country_code":"PT","country_name":"Portugal","latitude":"38.85000000","longitude":"-9.43333333","wikiDataId":"Q5465145"},{"id":143401,"Name":"Fonte Longa","state_id":4859,"state_code":"09","state_name":"Guarda","country_id":177,"country_code":"PT","country_name":"Portugal","latitude":"41.01305556","longitude":"-7.23361111","wikiDataId":"Q1284330"},{"id":143402,"Name":"Forninhos","state_id":4859,"state_code":"09","state_name":"Guarda","country_id":177,"country_code":"PT","country_name":"Portugal","latitude":"40.70472222","longitude":"-7.55416667","wikiDataId":"Q1437869"},{"id":143403,"Name":"Forno Telheiro","state_id":4859,"state_code":"09","state_name":"Guarda","country_id":177,"country_code":"PT","country_name":"Portugal","latitude":"40.67333333","longitude":"-7.39777778","wikiDataId":"Q23996"},{"id":143404,"Name":"Fornos de Algodres","state_id":4859,"state_code":"09","state_name":"Guarda","country_id":177,"country_code":"PT","country_name":"Portugal","latitude":"40.61666667","longitude":"-7.53333333","wikiDataId":"Q641715"},{"id":143405,"Name":"Forte da Casa","state_id":4859,"state_code":"09","state_name":"Guarda","country_id":177,"country_code":"PT","country_name":"Portugal","latitude":"38.87391000","longitude":"-9.05216000","wikiDataId":"Q1438943"},{"id":143406,"Name":"Freches","state_id":4859,"state_code":"09","state_name":"Guarda","country_id":177,"country_code":"PT","country_name":"Portugal","latitude":"40.73166667","longitude":"-7.34638889","wikiDataId":"Q1430269"},{"id":143407,"Name":"Freineda","state_id":4859,"state_code":"09","state_name":"Guarda","country_id":177,"country_code":"PT","country_name":"Portugal","latitude":"40.58305556","longitude":"-6.89111111","wikiDataId":"Q24140"},{"id":143408,"Name":"Freiria","state_id":4859,"state_code":"09","state_name":"Guarda","country_id":177,"country_code":"PT","country_name":"Portugal","latitude":"39.02739000","longitude":"-9.31995000","wikiDataId":"Q1454635"},{"id":143409,"Name":"Freixeda do Torrão","state_id":4859,"state_code":"09","state_name":"Guarda","country_id":177,"country_code":"PT","country_name":"Portugal","latitude":"40.89027778","longitude":"-7.03222222","wikiDataId":"Q1384914"},{"id":143410,"Name":"Freixedas","state_id":4859,"state_code":"09","state_name":"Guarda","country_id":177,"country_code":"PT","country_name":"Portugal","latitude":"40.69194444","longitude":"-7.16305556","wikiDataId":"Q749351"},{"id":143411,"Name":"Freixo","state_id":4859,"state_code":"09","state_name":"Guarda","country_id":177,"country_code":"PT","country_name":"Portugal","latitude":"40.61861111","longitude":"-7.01027778","wikiDataId":"Q24136"},{"id":143412,"Name":"Freixo de Numão","state_id":4859,"state_code":"09","state_name":"Guarda","country_id":177,"country_code":"PT","country_name":"Portugal","latitude":"41.06666667","longitude":"-7.21666667","wikiDataId":"Q1454978"},{"id":143413,"Name":"Frielas","state_id":4859,"state_code":"09","state_name":"Guarda","country_id":177,"country_code":"PT","country_name":"Portugal","latitude":"38.82583333","longitude":"-9.14444444","wikiDataId":"Q1024850"},{"id":143415,"Name":"Gagos","state_id":4859,"state_code":"09","state_name":"Guarda","country_id":177,"country_code":"PT","country_name":"Portugal","latitude":"40.58388889","longitude":"-7.11472222","wikiDataId":"Q32567"},{"id":143416,"Name":"Girabolhos","state_id":4859,"state_code":"09","state_name":"Guarda","country_id":177,"country_code":"PT","country_name":"Portugal","latitude":"40.50944444","longitude":"-7.73666667","wikiDataId":"Q1526603"},{"id":143417,"Name":"Gonçalo","state_id":4859,"state_code":"09","state_name":"Guarda","country_id":177,"country_code":"PT","country_name":"Portugal","latitude":"40.41666667","longitude":"-7.35000000","wikiDataId":"Q32578"},{"id":143418,"Name":"Gonçalo Bocas","state_id":4859,"state_code":"09","state_name":"Guarda","country_id":177,"country_code":"PT","country_name":"Portugal","latitude":"40.57666667","longitude":"-7.17750000","wikiDataId":"Q32639"},{"id":143419,"Name":"Gouveia","state_id":4859,"state_code":"09","state_name":"Guarda","country_id":177,"country_code":"PT","country_name":"Portugal","latitude":"40.50000000","longitude":"-7.60000000","wikiDataId":"Q599317"},{"id":143423,"Name":"Graça","state_id":4859,"state_code":"09","state_name":"Guarda","country_id":177,"country_code":"PT","country_name":"Portugal","latitude":"38.71722222","longitude":"-9.13083333","wikiDataId":"Q1520260"},{"id":143420,"Name":"Gradil","state_id":4859,"state_code":"09","state_name":"Guarda","country_id":177,"country_code":"PT","country_name":"Portugal","latitude":"38.98222222","longitude":"-9.28083333","wikiDataId":"Q1024960"},{"id":143421,"Name":"Gradiz","state_id":4859,"state_code":"09","state_name":"Guarda","country_id":177,"country_code":"PT","country_name":"Portugal","latitude":"40.85944444","longitude":"-7.52861111","wikiDataId":"Q1541256"},{"id":143422,"Name":"Granja","state_id":4859,"state_code":"09","state_name":"Guarda","country_id":177,"country_code":"PT","country_name":"Portugal","latitude":"40.75201000","longitude":"-7.20428000","wikiDataId":"Q1543139"},{"id":143424,"Name":"Guarda","state_id":4859,"state_code":"09","state_name":"Guarda","country_id":177,"country_code":"PT","country_name":"Portugal","latitude":"40.53638889","longitude":"-7.26833333","wikiDataId":"Q750594"},{"id":143425,"Name":"Guilheiro","state_id":4859,"state_code":"09","state_name":"Guarda","country_id":177,"country_code":"PT","country_name":"Portugal","latitude":"40.89805556","longitude":"-7.40972222","wikiDataId":"Q1469748"},{"id":143426,"Name":"Horta","state_id":4859,"state_code":"09","state_name":"Guarda","country_id":177,"country_code":"PT","country_name":"Portugal","latitude":"41.06777778","longitude":"-7.31055556","wikiDataId":"Q1630175"},{"id":143427,"Name":"Igreja Nova","state_id":4859,"state_code":"09","state_name":"Guarda","country_id":177,"country_code":"PT","country_name":"Portugal","latitude":"38.91694444","longitude":"-9.31944444","wikiDataId":"Q1024983"},{"id":143428,"Name":"Infias","state_id":4859,"state_code":"09","state_name":"Guarda","country_id":177,"country_code":"PT","country_name":"Portugal","latitude":"40.63000000","longitude":"-7.53944444","wikiDataId":"Q32701"},{"id":143429,"Name":"Jarmelo São Miguel","state_id":4859,"state_code":"09","state_name":"Guarda","country_id":177,"country_code":"PT","country_name":"Portugal","latitude":"40.60040000","longitude":"-7.14915000","wikiDataId":"Q45893"},{"id":143430,"Name":"Jarmelo São Pedro","state_id":4859,"state_code":"09","state_name":"Guarda","country_id":177,"country_code":"PT","country_name":"Portugal","latitude":"40.59447000","longitude":"-7.13016000","wikiDataId":"Q45878"},{"id":143431,"Name":"João Antão","state_id":4859,"state_code":"09","state_name":"Guarda","country_id":177,"country_code":"PT","country_name":"Portugal","latitude":"40.46443000","longitude":"-7.23940000","wikiDataId":"Q32688"},{"id":143433,"Name":"Junça","state_id":4859,"state_code":"09","state_name":"Guarda","country_id":177,"country_code":"PT","country_name":"Portugal","latitude":"40.68138889","longitude":"-6.88555556","wikiDataId":"Q24205"},{"id":143432,"Name":"Juncais","state_id":4859,"state_code":"09","state_name":"Guarda","country_id":177,"country_code":"PT","country_name":"Portugal","latitude":"40.60944444","longitude":"-7.50750000","wikiDataId":"Q32571"},{"id":143434,"Name":"Lagarinhos","state_id":4859,"state_code":"09","state_name":"Guarda","country_id":177,"country_code":"PT","country_name":"Portugal","latitude":"40.48583333","longitude":"-7.66944444","wikiDataId":"Q32647"},{"id":143435,"Name":"Lajeosa","state_id":4859,"state_code":"09","state_name":"Guarda","country_id":177,"country_code":"PT","country_name":"Portugal","latitude":"40.34353000","longitude":"-6.81621000","wikiDataId":"Q1013111"},{"id":143436,"Name":"Lajeosa do Mondego","state_id":4859,"state_code":"09","state_name":"Guarda","country_id":177,"country_code":"PT","country_name":"Portugal","latitude":"40.62750000","longitude":"-7.33750000","wikiDataId":"Q24145"},{"id":143437,"Name":"Lajes","state_id":4859,"state_code":"09","state_name":"Guarda","country_id":177,"country_code":"PT","country_name":"Portugal","latitude":"40.48361111","longitude":"-7.71638889","wikiDataId":"Q1800786"},{"id":143438,"Name":"Lamas","state_id":4859,"state_code":"09","state_name":"Guarda","country_id":177,"country_code":"PT","country_name":"Portugal","latitude":"39.21114000","longitude":"-9.06151000","wikiDataId":"Q1024811"},{"id":143439,"Name":"Lamegal","state_id":4859,"state_code":"09","state_name":"Guarda","country_id":177,"country_code":"PT","country_name":"Portugal","latitude":"40.66500000","longitude":"-7.07972222","wikiDataId":"Q126158"},{"id":143440,"Name":"Lameiras","state_id":4859,"state_code":"09","state_name":"Guarda","country_id":177,"country_code":"PT","country_name":"Portugal","latitude":"40.71138889","longitude":"-7.10444444","wikiDataId":"Q1801513"},{"id":143441,"Name":"Lapa","state_id":4859,"state_code":"09","state_name":"Guarda","country_id":177,"country_code":"PT","country_name":"Portugal","latitude":"38.71189000","longitude":"-9.16007000","wikiDataId":"Q1631359"},{"id":143442,"Name":"Lapa Dos Dinheiros","state_id":4859,"state_code":"09","state_name":"Guarda","country_id":177,"country_code":"PT","country_name":"Portugal","latitude":"40.37888889","longitude":"-7.70944444","wikiDataId":"Q1498704"},{"id":143443,"Name":"Leomil","state_id":4859,"state_code":"09","state_name":"Guarda","country_id":177,"country_code":"PT","country_name":"Portugal","latitude":"40.63527778","longitude":"-6.96416667","wikiDataId":"Q23999"},{"id":143444,"Name":"Linda-a-Velha","state_id":4859,"state_code":"09","state_name":"Guarda","country_id":177,"country_code":"PT","country_name":"Portugal","latitude":"38.71446000","longitude":"-9.24220000","wikiDataId":"Q1013294"},{"id":143445,"Name":"Linhares (Celorico da Beira)","state_id":4859,"state_code":"09","state_name":"Guarda","country_id":177,"country_code":"PT","country_name":"Portugal","latitude":"40.54083333","longitude":"-7.46111111","wikiDataId":"Q24142"},{"id":143446,"Name":"Lisbon","state_id":4859,"state_code":"09","state_name":"Guarda","country_id":177,"country_code":"PT","country_name":"Portugal","latitude":"38.71666667","longitude":"-9.16666667","wikiDataId":"Q597"},{"id":143447,"Name":"Longroiva","state_id":4859,"state_code":"09","state_name":"Guarda","country_id":177,"country_code":"PT","country_name":"Portugal","latitude":"40.98103000","longitude":"-7.20334000","wikiDataId":"Q1725783"},{"id":143448,"Name":"Loriga","state_id":4859,"state_code":"09","state_name":"Guarda","country_id":177,"country_code":"PT","country_name":"Portugal","latitude":"40.31666667","longitude":"-7.68333333","wikiDataId":"Q734336"},{"id":143449,"Name":"Loures","state_id":4859,"state_code":"09","state_name":"Guarda","country_id":177,"country_code":"PT","country_name":"Portugal","latitude":"38.83333333","longitude":"-9.16666667","wikiDataId":"Q917535"},{"id":143450,"Name":"Lourinhã","state_id":4859,"state_code":"09","state_name":"Guarda","country_id":177,"country_code":"PT","country_name":"Portugal","latitude":"39.25000000","longitude":"-9.31666667","wikiDataId":"Q986017"},{"id":143451,"Name":"Lousa","state_id":4859,"state_code":"09","state_name":"Guarda","country_id":177,"country_code":"PT","country_name":"Portugal","latitude":"38.89171000","longitude":"-9.20972000","wikiDataId":"Q595642"},{"id":143452,"Name":"Lumiar","state_id":4859,"state_code":"09","state_name":"Guarda","country_id":177,"country_code":"PT","country_name":"Portugal","latitude":"38.76527778","longitude":"-9.15861111","wikiDataId":"Q924723"},{"id":143474,"Name":"Maçainhas","state_id":4859,"state_code":"09","state_name":"Guarda","country_id":177,"country_code":"PT","country_name":"Portugal","latitude":"40.53666667","longitude":"-7.30250000","wikiDataId":"Q32669"},{"id":143475,"Name":"Maçal do Chão","state_id":4859,"state_code":"09","state_name":"Guarda","country_id":177,"country_code":"PT","country_name":"Portugal","latitude":"40.69171000","longitude":"-7.29178000","wikiDataId":"Q24193"},{"id":143453,"Name":"Maceira","state_id":4859,"state_code":"09","state_name":"Guarda","country_id":177,"country_code":"PT","country_name":"Portugal","latitude":"40.68555556","longitude":"-7.47166667","wikiDataId":"Q32708"},{"id":143476,"Name":"Maçussa","state_id":4859,"state_code":"09","state_name":"Guarda","country_id":177,"country_code":"PT","country_name":"Portugal","latitude":"39.19472222","longitude":"-8.86722222","wikiDataId":"Q1894283"},{"id":143454,"Name":"Madalena","state_id":4859,"state_code":"09","state_name":"Guarda","country_id":177,"country_code":"PT","country_name":"Portugal","latitude":"38.71000000","longitude":"-9.13472222","wikiDataId":"Q387982"},{"id":143455,"Name":"Mafra","state_id":4859,"state_code":"09","state_name":"Guarda","country_id":177,"country_code":"PT","country_name":"Portugal","latitude":"38.93333333","longitude":"-9.33333333","wikiDataId":"Q986419"},{"id":143456,"Name":"Malcata","state_id":4859,"state_code":"09","state_name":"Guarda","country_id":177,"country_code":"PT","country_name":"Portugal","latitude":"40.29990000","longitude":"-7.06147000","wikiDataId":"Q1886957"},{"id":143457,"Name":"Malhada Sorda","state_id":4859,"state_code":"09","state_name":"Guarda","country_id":177,"country_code":"PT","country_name":"Portugal","latitude":"40.53638889","longitude":"-6.91444444","wikiDataId":"Q24010"},{"id":143458,"Name":"Malpartida","state_id":4859,"state_code":"09","state_name":"Guarda","country_id":177,"country_code":"PT","country_name":"Portugal","latitude":"40.76000000","longitude":"-6.86666667","wikiDataId":"Q24005"},{"id":143459,"Name":"Malveira","state_id":4859,"state_code":"09","state_name":"Guarda","country_id":177,"country_code":"PT","country_name":"Portugal","latitude":"38.93059000","longitude":"-9.26165000","wikiDataId":"Q604302"},{"id":143460,"Name":"Mangualde da Serra","state_id":4859,"state_code":"09","state_name":"Guarda","country_id":177,"country_code":"PT","country_name":"Portugal","latitude":"40.46638889","longitude":"-7.62166667","wikiDataId":"Q32694"},{"id":143461,"Name":"Manigoto","state_id":4859,"state_code":"09","state_name":"Guarda","country_id":177,"country_code":"PT","country_name":"Portugal","latitude":"40.70833333","longitude":"-7.07583333","wikiDataId":"Q590276"},{"id":143462,"Name":"Manique do Intendente","state_id":4859,"state_code":"09","state_name":"Guarda","country_id":177,"country_code":"PT","country_name":"Portugal","latitude":"39.22111111","longitude":"-8.89361111","wikiDataId":"Q1575170"},{"id":143463,"Name":"Manteigas","state_id":4859,"state_code":"09","state_name":"Guarda","country_id":177,"country_code":"PT","country_name":"Portugal","latitude":"40.40000000","longitude":"-7.53333333","wikiDataId":"Q986093"},{"id":143464,"Name":"Manteigas (São Pedro)","state_id":4859,"state_code":"09","state_name":"Guarda","country_id":177,"country_code":"PT","country_name":"Portugal","latitude":"40.36611111","longitude":"-7.54611111","wikiDataId":"Q45895"},{"id":143465,"Name":"Marialva","state_id":4859,"state_code":"09","state_name":"Guarda","country_id":177,"country_code":"PT","country_name":"Portugal","latitude":"40.91000000","longitude":"-7.23166667","wikiDataId":"Q670426"},{"id":143466,"Name":"Marmeleiro","state_id":4859,"state_code":"09","state_name":"Guarda","country_id":177,"country_code":"PT","country_name":"Portugal","latitude":"40.46861111","longitude":"-7.11416667","wikiDataId":"Q32659"},{"id":143467,"Name":"Marteleira","state_id":4859,"state_code":"09","state_name":"Guarda","country_id":177,"country_code":"PT","country_name":"Portugal","latitude":"39.21305556","longitude":"-9.28333333","wikiDataId":"Q1902992"},{"id":143503,"Name":"Mártires","state_id":4859,"state_code":"09","state_name":"Guarda","country_id":177,"country_code":"PT","country_name":"Portugal","latitude":"38.70861111","longitude":"-9.14166667","wikiDataId":"Q432607"},{"id":143468,"Name":"Marvila","state_id":4859,"state_code":"09","state_name":"Guarda","country_id":177,"country_code":"PT","country_name":"Portugal","latitude":"38.74527778","longitude":"-9.10416667","wikiDataId":"Q1786435"},{"id":143469,"Name":"Massamá","state_id":4859,"state_code":"09","state_name":"Guarda","country_id":177,"country_code":"PT","country_name":"Portugal","latitude":"38.75564000","longitude":"-9.28427000","wikiDataId":"Q1907450"},{"id":143470,"Name":"Mata de Lobos","state_id":4859,"state_code":"09","state_name":"Guarda","country_id":177,"country_code":"PT","country_name":"Portugal","latitude":"40.91691000","longitude":"-6.88804000","wikiDataId":"Q1668791"},{"id":143471,"Name":"Matacães","state_id":4859,"state_code":"09","state_name":"Guarda","country_id":177,"country_code":"PT","country_name":"Portugal","latitude":"39.09277778","longitude":"-9.21222222","wikiDataId":"Q1908045"},{"id":143472,"Name":"Matança","state_id":4859,"state_code":"09","state_name":"Guarda","country_id":177,"country_code":"PT","country_name":"Portugal","latitude":"40.67888889","longitude":"-7.52888889","wikiDataId":"Q32712"},{"id":143473,"Name":"Maxial","state_id":4859,"state_code":"09","state_name":"Guarda","country_id":177,"country_code":"PT","country_name":"Portugal","latitude":"39.14301000","longitude":"-9.16898000","wikiDataId":"Q1759782"},{"id":143477,"Name":"Meca","state_id":4859,"state_code":"09","state_name":"Guarda","country_id":177,"country_code":"PT","country_name":"Portugal","latitude":"39.08972222","longitude":"-9.02555556","wikiDataId":"Q1452082"},{"id":143504,"Name":"Mêda","state_id":4859,"state_code":"09","state_name":"Guarda","country_id":177,"country_code":"PT","country_name":"Portugal","latitude":"40.96666667","longitude":"-7.26666667","wikiDataId":"Q990335"},{"id":143478,"Name":"Meios","state_id":4859,"state_code":"09","state_name":"Guarda","country_id":177,"country_code":"PT","country_name":"Portugal","latitude":"40.49361111","longitude":"-7.35916667","wikiDataId":"Q32574"},{"id":143479,"Name":"Melo","state_id":4859,"state_code":"09","state_name":"Guarda","country_id":177,"country_code":"PT","country_name":"Portugal","latitude":"40.51944444","longitude":"-7.53361111","wikiDataId":"Q32580"},{"id":143480,"Name":"Mem Martins","state_id":4859,"state_code":"09","state_name":"Guarda","country_id":177,"country_code":"PT","country_name":"Portugal","latitude":"38.79443000","longitude":"-9.34284000","wikiDataId":"Q32580"},{"id":143481,"Name":"Mercês","state_id":4859,"state_code":"09","state_name":"Guarda","country_id":177,"country_code":"PT","country_name":"Portugal","latitude":"38.71611111","longitude":"-9.14888889","wikiDataId":"Q182737"},{"id":143482,"Name":"Mesquitela","state_id":4859,"state_code":"09","state_name":"Guarda","country_id":177,"country_code":"PT","country_name":"Portugal","latitude":"40.58805556","longitude":"-7.48944444","wikiDataId":"Q24201"},{"id":143483,"Name":"Milharado","state_id":4859,"state_code":"09","state_name":"Guarda","country_id":177,"country_code":"PT","country_name":"Portugal","latitude":"38.94722222","longitude":"-9.19916667","wikiDataId":"Q35729849"},{"id":143484,"Name":"Mina","state_id":4859,"state_code":"09","state_name":"Guarda","country_id":177,"country_code":"PT","country_name":"Portugal","latitude":"38.76166667","longitude":"-9.23611111","wikiDataId":"Q1894295"},{"id":143485,"Name":"Minhocal","state_id":4859,"state_code":"09","state_name":"Guarda","country_id":177,"country_code":"PT","country_name":"Portugal","latitude":"40.68944444","longitude":"-7.34666667","wikiDataId":"Q24023"},{"id":143486,"Name":"Mira-Sintra","state_id":4859,"state_code":"09","state_name":"Guarda","country_id":177,"country_code":"PT","country_name":"Portugal","latitude":"38.78417000","longitude":"-9.30148000","wikiDataId":"Q1270529"},{"id":143487,"Name":"Miragaia","state_id":4859,"state_code":"09","state_name":"Guarda","country_id":177,"country_code":"PT","country_name":"Portugal","latitude":"39.23583333","longitude":"-9.26500000","wikiDataId":"Q959668"},{"id":143488,"Name":"Miuzela","state_id":4859,"state_code":"09","state_name":"Guarda","country_id":177,"country_code":"PT","country_name":"Portugal","latitude":"40.51055556","longitude":"-7.00500000","wikiDataId":"Q24127"},{"id":143489,"Name":"Mizarela","state_id":4859,"state_code":"09","state_name":"Guarda","country_id":177,"country_code":"PT","country_name":"Portugal","latitude":"40.55746000","longitude":"-7.34107000","wikiDataId":"Q32692"},{"id":143490,"Name":"Moimenta da Serra","state_id":4859,"state_code":"09","state_name":"Guarda","country_id":177,"country_code":"PT","country_name":"Portugal","latitude":"40.47359000","longitude":"-7.63839000","wikiDataId":"Q32705"},{"id":143491,"Name":"Moimentinha","state_id":4859,"state_code":"09","state_name":"Guarda","country_id":177,"country_code":"PT","country_name":"Portugal","latitude":"40.74555556","longitude":"-7.22777778","wikiDataId":"Q1688175"},{"id":143492,"Name":"Moita","state_id":4859,"state_code":"09","state_name":"Guarda","country_id":177,"country_code":"PT","country_name":"Portugal","latitude":"40.30000000","longitude":"-7.19750000","wikiDataId":"Q1943106"},{"id":143493,"Name":"Moita dos Ferreiros","state_id":4859,"state_code":"09","state_name":"Guarda","country_id":177,"country_code":"PT","country_name":"Portugal","latitude":"39.24825000","longitude":"-9.22355000","wikiDataId":"Q1943106"},{"id":143494,"Name":"Moledo","state_id":4859,"state_code":"09","state_name":"Guarda","country_id":177,"country_code":"PT","country_name":"Portugal","latitude":"39.28388889","longitude":"-9.25722222","wikiDataId":"Q1024954"},{"id":143495,"Name":"Monte Abraão","state_id":4859,"state_code":"09","state_name":"Guarda","country_id":177,"country_code":"PT","country_name":"Portugal","latitude":"38.75840000","longitude":"-9.26527000","wikiDataId":"Q1945710"},{"id":143496,"Name":"Monte Estoril","state_id":4859,"state_code":"09","state_name":"Guarda","country_id":177,"country_code":"PT","country_name":"Portugal","latitude":"38.70636000","longitude":"-9.40595000","wikiDataId":"Q6022399"},{"id":143497,"Name":"Monte Redondo","state_id":4859,"state_code":"09","state_name":"Guarda","country_id":177,"country_code":"PT","country_name":"Portugal","latitude":"39.11500000","longitude":"-9.20444444","wikiDataId":"Q1755149"},{"id":143498,"Name":"Montelavar","state_id":4859,"state_code":"09","state_name":"Guarda","country_id":177,"country_code":"PT","country_name":"Portugal","latitude":"38.86968000","longitude":"-9.31581000","wikiDataId":"Q1946059"},{"id":143499,"Name":"Moreira de Rei","state_id":4859,"state_code":"09","state_name":"Guarda","country_id":177,"country_code":"PT","country_name":"Portugal","latitude":"40.83915000","longitude":"-7.32316000","wikiDataId":"Q1947512"},{"id":143505,"Name":"Mós","state_id":4859,"state_code":"09","state_name":"Guarda","country_id":177,"country_code":"PT","country_name":"Portugal","latitude":"41.11306000","longitude":"-7.19717000","wikiDataId":"Q1452343"},{"id":143500,"Name":"Moscavide","state_id":4859,"state_code":"09","state_name":"Guarda","country_id":177,"country_code":"PT","country_name":"Portugal","latitude":"38.77929000","longitude":"-9.10222000","wikiDataId":"Q35734150"},{"id":143501,"Name":"Murça","state_id":4859,"state_code":"09","state_name":"Guarda","country_id":177,"country_code":"PT","country_name":"Portugal","latitude":"41.10055556","longitude":"-7.23138889","wikiDataId":"Q1953936"},{"id":143502,"Name":"Muxagata","state_id":4859,"state_code":"09","state_name":"Guarda","country_id":177,"country_code":"PT","country_name":"Portugal","latitude":"41.03611111","longitude":"-7.15000000","wikiDataId":"Q1956170"},{"id":143506,"Name":"Nabais","state_id":4859,"state_code":"09","state_name":"Guarda","country_id":177,"country_code":"PT","country_name":"Portugal","latitude":"40.52000000","longitude":"-7.55555556","wikiDataId":"Q32671"},{"id":143507,"Name":"Nave","state_id":4859,"state_code":"09","state_name":"Guarda","country_id":177,"country_code":"PT","country_name":"Portugal","latitude":"40.39821000","longitude":"-6.96030000","wikiDataId":"Q1972321"},{"id":143508,"Name":"Nave de Haver","state_id":4859,"state_code":"09","state_name":"Guarda","country_id":177,"country_code":"PT","country_name":"Portugal","latitude":"40.52166667","longitude":"-6.83416667","wikiDataId":"Q24133"},{"id":143509,"Name":"Nespereira","state_id":4859,"state_code":"09","state_name":"Guarda","country_id":177,"country_code":"PT","country_name":"Portugal","latitude":"40.51722222","longitude":"-7.60972222","wikiDataId":"Q32668"},{"id":143510,"Name":"Nossa Senhora de Fátima","state_id":4859,"state_code":"09","state_name":"Guarda","country_id":177,"country_code":"PT","country_name":"Portugal","latitude":"38.73916667","longitude":"-9.15083333","wikiDataId":"Q1752948"},{"id":143511,"Name":"Numão","state_id":4859,"state_code":"09","state_name":"Guarda","country_id":177,"country_code":"PT","country_name":"Portugal","latitude":"41.09750000","longitude":"-7.29111111","wikiDataId":"Q2005054"},{"id":143512,"Name":"Odivelas","state_id":4859,"state_code":"09","state_name":"Guarda","country_id":177,"country_code":"PT","country_name":"Portugal","latitude":"38.80000000","longitude":"-9.18333333","wikiDataId":"Q850837"},{"id":143513,"Name":"Odivelas Municipality","state_id":4859,"state_code":"09","state_name":"Guarda","country_id":177,"country_code":"PT","country_name":"Portugal","latitude":"38.79705000","longitude":"-9.19108000","wikiDataId":"Q3348715"},{"id":143514,"Name":"Oeiras","state_id":4859,"state_code":"09","state_name":"Guarda","country_id":177,"country_code":"PT","country_name":"Portugal","latitude":"38.69704444","longitude":"-9.30165278","wikiDataId":"Q926700"},{"id":143515,"Name":"Oeiras e São Julião da Barra","state_id":4859,"state_code":"09","state_name":"Guarda","country_id":177,"country_code":"PT","country_name":"Portugal","latitude":"38.69722222","longitude":"-9.30833333","wikiDataId":"Q1863492"},{"id":143516,"Name":"Olhalvo","state_id":4859,"state_code":"09","state_name":"Guarda","country_id":177,"country_code":"PT","country_name":"Portugal","latitude":"39.09861111","longitude":"-9.06388889","wikiDataId":"Q2019798"},{"id":143517,"Name":"Olival de Basto","state_id":4859,"state_code":"09","state_name":"Guarda","country_id":177,"country_code":"PT","country_name":"Portugal","latitude":"38.79083333","longitude":"-9.16722222","wikiDataId":"Q1024249"},{"id":143518,"Name":"Olival do Basto","state_id":4859,"state_code":"09","state_name":"Guarda","country_id":177,"country_code":"PT","country_name":"Portugal","latitude":"38.79083333","longitude":"-9.16611111","wikiDataId":"Q49358934"},{"id":143519,"Name":"Ota","state_id":4859,"state_code":"09","state_name":"Guarda","country_id":177,"country_code":"PT","country_name":"Portugal","latitude":"39.11000000","longitude":"-8.98972222","wikiDataId":"Q951481"},{"id":143520,"Name":"Outeiro da Cabeça","state_id":4859,"state_code":"09","state_name":"Guarda","country_id":177,"country_code":"PT","country_name":"Portugal","latitude":"39.19222222","longitude":"-9.18222222","wikiDataId":"Q2041940"},{"id":143521,"Name":"Outeiro de Gatos","state_id":4859,"state_code":"09","state_name":"Guarda","country_id":177,"country_code":"PT","country_name":"Portugal","latitude":"40.95222222","longitude":"-7.30222222","wikiDataId":"Q2041942"},{"id":143529,"Name":"Paço de Arcos","state_id":4859,"state_code":"09","state_name":"Guarda","country_id":177,"country_code":"PT","country_name":"Portugal","latitude":"38.69500000","longitude":"-9.29361111","wikiDataId":"Q2065632"},{"id":143530,"Name":"Paços da Serra","state_id":4859,"state_code":"09","state_name":"Guarda","country_id":177,"country_code":"PT","country_name":"Portugal","latitude":"40.45972222","longitude":"-7.65055556","wikiDataId":"Q32646"},{"id":143522,"Name":"Painho","state_id":4859,"state_code":"09","state_name":"Guarda","country_id":177,"country_code":"PT","country_name":"Portugal","latitude":"39.30222222","longitude":"-9.04944444","wikiDataId":"Q1024948"},{"id":143523,"Name":"Pala","state_id":4859,"state_code":"09","state_name":"Guarda","country_id":177,"country_code":"PT","country_name":"Portugal","latitude":"40.76305556","longitude":"-7.15111111","wikiDataId":"Q919898"},{"id":143524,"Name":"Palhais","state_id":4859,"state_code":"09","state_name":"Guarda","country_id":177,"country_code":"PT","country_name":"Portugal","latitude":"40.81666667","longitude":"-7.43000000","wikiDataId":"Q2047784"},{"id":143525,"Name":"Panoias de Cima","state_id":4859,"state_code":"09","state_name":"Guarda","country_id":177,"country_code":"PT","country_name":"Portugal","latitude":"40.49777778","longitude":"-7.23277778","wikiDataId":"Q32658"},{"id":143526,"Name":"Parada","state_id":4859,"state_code":"09","state_name":"Guarda","country_id":177,"country_code":"PT","country_name":"Portugal","latitude":"40.53972222","longitude":"-7.03777778","wikiDataId":"Q24123"},{"id":143527,"Name":"Paranhos","state_id":4859,"state_code":"09","state_name":"Guarda","country_id":177,"country_code":"PT","country_name":"Portugal","latitude":"40.48635000","longitude":"-7.79454000","wikiDataId":"Q179487"},{"id":143528,"Name":"Parede","state_id":4859,"state_code":"09","state_name":"Guarda","country_id":177,"country_code":"PT","country_name":"Portugal","latitude":"38.69328000","longitude":"-9.35695000","wikiDataId":"Q2052148"},{"id":143531,"Name":"Pega","state_id":4859,"state_code":"09","state_name":"Guarda","country_id":177,"country_code":"PT","country_name":"Portugal","latitude":"40.42861111","longitude":"-7.14444444","wikiDataId":"Q45907"},{"id":143532,"Name":"Pena","state_id":4859,"state_code":"09","state_name":"Guarda","country_id":177,"country_code":"PT","country_name":"Portugal","latitude":"38.72138889","longitude":"-9.14000000","wikiDataId":"Q1233617"},{"id":143533,"Name":"Pena Lobo","state_id":4859,"state_code":"09","state_name":"Guarda","country_id":177,"country_code":"PT","country_name":"Portugal","latitude":"40.39277778","longitude":"-7.20388889","wikiDataId":"Q1242414"},{"id":143534,"Name":"Pena Verde","state_id":4859,"state_code":"09","state_name":"Guarda","country_id":177,"country_code":"PT","country_name":"Portugal","latitude":"40.72833333","longitude":"-7.50527778","wikiDataId":"Q2068574"},{"id":143536,"Name":"Penha de Águia","state_id":4859,"state_code":"09","state_name":"Guarda","country_id":177,"country_code":"PT","country_name":"Portugal","latitude":"40.86636000","longitude":"-7.06814000","wikiDataId":"Q2068885"},{"id":143535,"Name":"Penha de França","state_id":4859,"state_code":"09","state_name":"Guarda","country_id":177,"country_code":"PT","country_name":"Portugal","latitude":"38.73000000","longitude":"-9.13166667","wikiDataId":"Q1786389"},{"id":143558,"Name":"Pêra do Moço","state_id":4859,"state_code":"09","state_name":"Guarda","country_id":177,"country_code":"PT","country_name":"Portugal","latitude":"40.61305556","longitude":"-7.20972222","wikiDataId":"Q45882"},{"id":143537,"Name":"Peral","state_id":4859,"state_code":"09","state_name":"Guarda","country_id":177,"country_code":"PT","country_name":"Portugal","latitude":"39.26166667","longitude":"-9.07444444","wikiDataId":"Q2070111"},{"id":143538,"Name":"Pereiro","state_id":4859,"state_code":"09","state_name":"Guarda","country_id":177,"country_code":"PT","country_name":"Portugal","latitude":"40.73500000","longitude":"-7.01305556","wikiDataId":"Q2070415"},{"id":143539,"Name":"Pereiro de Palhacana","state_id":4859,"state_code":"09","state_name":"Guarda","country_id":177,"country_code":"PT","country_name":"Portugal","latitude":"39.04277778","longitude":"-9.10888889","wikiDataId":"Q1757340"},{"id":143559,"Name":"Pêro Moniz","state_id":4859,"state_code":"09","state_name":"Guarda","country_id":177,"country_code":"PT","country_name":"Portugal","latitude":"39.22138889","longitude":"-9.12361111","wikiDataId":"Q1024979"},{"id":143540,"Name":"Pero Pinheiro","state_id":4859,"state_code":"09","state_name":"Guarda","country_id":177,"country_code":"PT","country_name":"Portugal","latitude":"38.83990000","longitude":"-9.32066000","wikiDataId":"Q246559"},{"id":143541,"Name":"Peva","state_id":4859,"state_code":"09","state_name":"Guarda","country_id":177,"country_code":"PT","country_name":"Portugal","latitude":"40.66472222","longitude":"-6.99083333","wikiDataId":"Q23980"},{"id":143542,"Name":"Pinhanços","state_id":4859,"state_code":"09","state_name":"Guarda","country_id":177,"country_code":"PT","country_name":"Portugal","latitude":"40.46638889","longitude":"-7.68305556","wikiDataId":"Q2095755"},{"id":143543,"Name":"Pinheiro","state_id":4859,"state_code":"09","state_name":"Guarda","country_id":177,"country_code":"PT","country_name":"Portugal","latitude":"40.80083333","longitude":"-7.59833333","wikiDataId":"Q1445758"},{"id":143544,"Name":"Pinhel","state_id":4859,"state_code":"09","state_name":"Guarda","country_id":177,"country_code":"PT","country_name":"Portugal","latitude":"40.78333333","longitude":"-7.06666667","wikiDataId":"Q917335"},{"id":143560,"Name":"Pínzio","state_id":4859,"state_code":"09","state_name":"Guarda","country_id":177,"country_code":"PT","country_name":"Portugal","latitude":"40.60250000","longitude":"-7.06527778","wikiDataId":"Q1899234"},{"id":143553,"Name":"Poço do Canto","state_id":4859,"state_code":"09","state_name":"Guarda","country_id":177,"country_code":"PT","country_name":"Portugal","latitude":"40.99944444","longitude":"-7.26833333","wikiDataId":"Q2107245"},{"id":143545,"Name":"Pomares","state_id":4859,"state_code":"09","state_name":"Guarda","country_id":177,"country_code":"PT","country_name":"Portugal","latitude":"40.64305556","longitude":"-7.13805556","wikiDataId":"Q646044"},{"id":143546,"Name":"Ponte do Rol","state_id":4859,"state_code":"09","state_name":"Guarda","country_id":177,"country_code":"PT","country_name":"Portugal","latitude":"39.09277778","longitude":"-9.31916667","wikiDataId":"Q1026353"},{"id":143547,"Name":"Pontinha","state_id":4859,"state_code":"09","state_name":"Guarda","country_id":177,"country_code":"PT","country_name":"Portugal","latitude":"38.77700000","longitude":"-9.20377000","wikiDataId":"Q2103898"},{"id":143548,"Name":"Portela","state_id":4859,"state_code":"09","state_name":"Guarda","country_id":177,"country_code":"PT","country_name":"Portugal","latitude":"38.78277778","longitude":"-9.11111111","wikiDataId":"Q1024837"},{"id":143550,"Name":"Porto da Carne","state_id":4859,"state_code":"09","state_name":"Guarda","country_id":177,"country_code":"PT","country_name":"Portugal","latitude":"40.60527778","longitude":"-7.29222222","wikiDataId":"Q45910"},{"id":143549,"Name":"Porto Salvo","state_id":4859,"state_code":"09","state_name":"Guarda","country_id":177,"country_code":"PT","country_name":"Portugal","latitude":"38.71722222","longitude":"-9.29916667","wikiDataId":"Q2093255"},{"id":143551,"Name":"Pousada","state_id":4859,"state_code":"09","state_name":"Guarda","country_id":177,"country_code":"PT","country_name":"Portugal","latitude":"40.54722222","longitude":"-7.12611111","wikiDataId":"Q45916"},{"id":143552,"Name":"Pousafoles do Bispo","state_id":4859,"state_code":"09","state_name":"Guarda","country_id":177,"country_code":"PT","country_name":"Portugal","latitude":"40.41222222","longitude":"-7.17916667","wikiDataId":"Q950399"},{"id":143561,"Name":"Póvoa de Santa Iria","state_id":4859,"state_code":"09","state_name":"Guarda","country_id":177,"country_code":"PT","country_name":"Portugal","latitude":"38.86111111","longitude":"-9.06444444","wikiDataId":"Q49362876"},{"id":143562,"Name":"Póvoa de Santo Adrião","state_id":4859,"state_code":"09","state_name":"Guarda","country_id":177,"country_code":"PT","country_name":"Portugal","latitude":"38.80016000","longitude":"-9.16395000","wikiDataId":"Q511708"},{"id":143563,"Name":"Póvoa do Concelho","state_id":4859,"state_code":"09","state_name":"Guarda","country_id":177,"country_code":"PT","country_name":"Portugal","latitude":"40.75972222","longitude":"-7.26638889","wikiDataId":"Q2120429"},{"id":143554,"Name":"Prados","state_id":4859,"state_code":"09","state_name":"Guarda","country_id":177,"country_code":"PT","country_name":"Portugal","latitude":"40.56138889","longitude":"-7.37666667","wikiDataId":"Q24212"},{"id":143555,"Name":"Prazeres","state_id":4859,"state_code":"09","state_name":"Guarda","country_id":177,"country_code":"PT","country_name":"Portugal","latitude":"38.70888889","longitude":"-9.16888889","wikiDataId":"Q1850965"},{"id":143556,"Name":"Prior Velho","state_id":4859,"state_code":"09","state_name":"Guarda","country_id":177,"country_code":"PT","country_name":"Portugal","latitude":"38.79194444","longitude":"-9.12083333","wikiDataId":"Q1024836"},{"id":143557,"Name":"Prova","state_id":4859,"state_code":"09","state_name":"Guarda","country_id":177,"country_code":"PT","country_name":"Portugal","latitude":"40.91250000","longitude":"-7.34194444","wikiDataId":"Q674653"},{"id":143564,"Name":"Quadrazais","state_id":4859,"state_code":"09","state_name":"Guarda","country_id":177,"country_code":"PT","country_name":"Portugal","latitude":"40.32472222","longitude":"-6.99833333","wikiDataId":"Q2121936"},{"id":143565,"Name":"Queijas","state_id":4859,"state_code":"09","state_name":"Guarda","country_id":177,"country_code":"PT","country_name":"Portugal","latitude":"38.72236000","longitude":"-9.26593000","wikiDataId":"Q49363043"},{"id":143566,"Name":"Queiriz","state_id":4859,"state_code":"09","state_name":"Guarda","country_id":177,"country_code":"PT","country_name":"Portugal","latitude":"40.73596000","longitude":"-7.44999000","wikiDataId":"Q32648"},{"id":143567,"Name":"Queluz","state_id":4859,"state_code":"09","state_name":"Guarda","country_id":177,"country_code":"PT","country_name":"Portugal","latitude":"38.75657000","longitude":"-9.25451000","wikiDataId":"Q1003060"},{"id":143569,"Name":"Quintã de Pêro Martins","state_id":4859,"state_code":"09","state_name":"Guarda","country_id":177,"country_code":"PT","country_name":"Portugal","latitude":"40.88194444","longitude":"-7.08305556","wikiDataId":"Q24003"},{"id":143568,"Name":"Quintas de São Bartolomeu","state_id":4859,"state_code":"09","state_name":"Guarda","country_id":177,"country_code":"PT","country_name":"Portugal","latitude":"40.37138889","longitude":"-7.09861111","wikiDataId":"Q2068343"},{"id":143570,"Name":"Rabaçal","state_id":4859,"state_code":"09","state_name":"Guarda","country_id":177,"country_code":"PT","country_name":"Portugal","latitude":"40.86250000","longitude":"-7.24941000","wikiDataId":"Q578737"},{"id":143571,"Name":"Ramada","state_id":4859,"state_code":"09","state_name":"Guarda","country_id":177,"country_code":"PT","country_name":"Portugal","latitude":"38.80361111","longitude":"-9.19111111","wikiDataId":"Q1961840"},{"id":143572,"Name":"Ramalhal","state_id":4859,"state_code":"09","state_name":"Guarda","country_id":177,"country_code":"PT","country_name":"Portugal","latitude":"39.14472222","longitude":"-9.23222222","wikiDataId":"Q2119138"},{"id":143573,"Name":"Ramela","state_id":4859,"state_code":"09","state_name":"Guarda","country_id":177,"country_code":"PT","country_name":"Portugal","latitude":"40.47777778","longitude":"-7.25888889","wikiDataId":"Q45799"},{"id":143574,"Name":"Ranhados","state_id":4859,"state_code":"09","state_name":"Guarda","country_id":177,"country_code":"PT","country_name":"Portugal","latitude":"40.99527778","longitude":"-7.32944444","wikiDataId":"Q2119966"},{"id":143575,"Name":"Rapa","state_id":4859,"state_code":"09","state_name":"Guarda","country_id":177,"country_code":"PT","country_name":"Portugal","latitude":"40.58416667","longitude":"-7.34555556","wikiDataId":"Q2131324"},{"id":143576,"Name":"Rapoula do Côa","state_id":4859,"state_code":"09","state_name":"Guarda","country_id":177,"country_code":"PT","country_name":"Portugal","latitude":"40.42111111","longitude":"-7.04750000","wikiDataId":"Q2120303"},{"id":143577,"Name":"Ratoeira","state_id":4859,"state_code":"09","state_name":"Guarda","country_id":177,"country_code":"PT","country_name":"Portugal","latitude":"40.64027778","longitude":"-7.35361111","wikiDataId":"Q24022"},{"id":143578,"Name":"Reboleira","state_id":4859,"state_code":"09","state_name":"Guarda","country_id":177,"country_code":"PT","country_name":"Portugal","latitude":"38.75083333","longitude":"-9.23027778","wikiDataId":"Q928716"},{"id":143579,"Name":"Reboleiro","state_id":4859,"state_code":"09","state_name":"Guarda","country_id":177,"country_code":"PT","country_name":"Portugal","latitude":"40.83250000","longitude":"-7.41888889","wikiDataId":"Q304139"},{"id":143580,"Name":"Rebolosa","state_id":4859,"state_code":"09","state_name":"Guarda","country_id":177,"country_code":"PT","country_name":"Portugal","latitude":"40.42361111","longitude":"-6.91111111","wikiDataId":"Q1645165"},{"id":143581,"Name":"Reguengo Grande","state_id":4859,"state_code":"09","state_name":"Guarda","country_id":177,"country_code":"PT","country_name":"Portugal","latitude":"39.28722222","longitude":"-9.21472222","wikiDataId":"Q2119131"},{"id":143582,"Name":"Reigada","state_id":4859,"state_code":"09","state_name":"Guarda","country_id":177,"country_code":"PT","country_name":"Portugal","latitude":"40.80444444","longitude":"-6.94805556","wikiDataId":"Q24181"},{"id":143583,"Name":"Rendo","state_id":4859,"state_code":"09","state_name":"Guarda","country_id":177,"country_code":"PT","country_name":"Portugal","latitude":"40.37972222","longitude":"-7.04444444","wikiDataId":"Q1899169"},{"id":143584,"Name":"Ribafria","state_id":4859,"state_code":"09","state_name":"Guarda","country_id":177,"country_code":"PT","country_name":"Portugal","latitude":"39.06194444","longitude":"-9.09472222","wikiDataId":"Q2119991"},{"id":143585,"Name":"Ribamar","state_id":4859,"state_code":"09","state_name":"Guarda","country_id":177,"country_code":"PT","country_name":"Portugal","latitude":"39.20250000","longitude":"-9.33250000","wikiDataId":"Q990177"},{"id":143586,"Name":"Ribamondego","state_id":4859,"state_code":"09","state_name":"Guarda","country_id":177,"country_code":"PT","country_name":"Portugal","latitude":"40.56805556","longitude":"-7.58138889","wikiDataId":"Q32583"},{"id":143587,"Name":"Ribeira Dos Carinhos","state_id":4859,"state_code":"09","state_name":"Guarda","country_id":177,"country_code":"PT","country_name":"Portugal","latitude":"40.62138889","longitude":"-7.14222222","wikiDataId":"Q45800"},{"id":143589,"Name":"Rio de Mel","state_id":4859,"state_code":"09","state_name":"Guarda","country_id":177,"country_code":"PT","country_name":"Portugal","latitude":"40.80777778","longitude":"-7.39361111","wikiDataId":"Q2120515"},{"id":143590,"Name":"Rio de Mouro","state_id":4859,"state_code":"09","state_name":"Guarda","country_id":177,"country_code":"PT","country_name":"Portugal","latitude":"38.76889000","longitude":"-9.33273000","wikiDataId":"Q1631953"},{"id":143588,"Name":"Rio Torto","state_id":4859,"state_code":"09","state_name":"Guarda","country_id":177,"country_code":"PT","country_name":"Portugal","latitude":"40.50916667","longitude":"-7.65694444","wikiDataId":"Q32665"},{"id":143591,"Name":"Rochoso","state_id":4859,"state_code":"09","state_name":"Guarda","country_id":177,"country_code":"PT","country_name":"Portugal","latitude":"40.51638889","longitude":"-7.09333333","wikiDataId":"Q45866"},{"id":143592,"Name":"Runa","state_id":4859,"state_code":"09","state_name":"Guarda","country_id":177,"country_code":"PT","country_name":"Portugal","latitude":"39.06527778","longitude":"-9.20888889","wikiDataId":"Q1385363"},{"id":143593,"Name":"Ruvina","state_id":4859,"state_code":"09","state_name":"Guarda","country_id":177,"country_code":"PT","country_name":"Portugal","latitude":"40.41500000","longitude":"-7.01055556","wikiDataId":"Q2120259"},{"id":143594,"Name":"Sabugal","state_id":4859,"state_code":"09","state_name":"Guarda","country_id":177,"country_code":"PT","country_name":"Portugal","latitude":"40.35000000","longitude":"-7.08333333","wikiDataId":"Q992645"},{"id":143595,"Name":"Sabugueiro","state_id":4859,"state_code":"09","state_name":"Guarda","country_id":177,"country_code":"PT","country_name":"Portugal","latitude":"40.40194444","longitude":"-7.63972222","wikiDataId":"Q1379990"},{"id":143596,"Name":"Sacavém","state_id":4859,"state_code":"09","state_name":"Guarda","country_id":177,"country_code":"PT","country_name":"Portugal","latitude":"38.79442000","longitude":"-9.10533000","wikiDataId":"Q126681"},{"id":143597,"Name":"Sacramento","state_id":4859,"state_code":"09","state_name":"Guarda","country_id":177,"country_code":"PT","country_name":"Portugal","latitude":"38.71222222","longitude":"-9.14000000","wikiDataId":"Q1817058"},{"id":143598,"Name":"Safurdão","state_id":4859,"state_code":"09","state_name":"Guarda","country_id":177,"country_code":"PT","country_name":"Portugal","latitude":"40.63694444","longitude":"-7.06888889","wikiDataId":"Q2120011"},{"id":143599,"Name":"Salgueirais","state_id":4859,"state_code":"09","state_name":"Guarda","country_id":177,"country_code":"PT","country_name":"Portugal","latitude":"40.57445000","longitude":"-7.42247000","wikiDataId":"Q24203"},{"id":143600,"Name":"Sameice","state_id":4859,"state_code":"09","state_name":"Guarda","country_id":177,"country_code":"PT","country_name":"Portugal","latitude":"40.43444444","longitude":"-7.77611111","wikiDataId":"Q1709134"},{"id":143601,"Name":"Sameiro","state_id":4859,"state_code":"09","state_name":"Guarda","country_id":177,"country_code":"PT","country_name":"Portugal","latitude":"40.40916667","longitude":"-7.49000000","wikiDataId":"Q45806"},{"id":143602,"Name":"Sandomil","state_id":4859,"state_code":"09","state_name":"Guarda","country_id":177,"country_code":"PT","country_name":"Portugal","latitude":"40.35805556","longitude":"-7.78277778","wikiDataId":"Q2120448"},{"id":143603,"Name":"Santa Bárbara","state_id":4859,"state_code":"09","state_name":"Guarda","country_id":177,"country_code":"PT","country_name":"Portugal","latitude":"39.21000000","longitude":"-9.31388889","wikiDataId":"Q2118840"},{"id":143604,"Name":"Santa Catarina","state_id":4859,"state_code":"09","state_name":"Guarda","country_id":177,"country_code":"PT","country_name":"Portugal","latitude":"38.71138889","longitude":"-9.14805556","wikiDataId":"Q1817021"},{"id":143605,"Name":"Santa Comba","state_id":4859,"state_code":"09","state_name":"Guarda","country_id":177,"country_code":"PT","country_name":"Portugal","latitude":"40.45055556","longitude":"-7.71472222","wikiDataId":"Q2120434"},{"id":143606,"Name":"Santa Engrácia","state_id":4859,"state_code":"09","state_name":"Guarda","country_id":177,"country_code":"PT","country_name":"Portugal","latitude":"38.71916667","longitude":"-9.11972222","wikiDataId":"Q612059"},{"id":143607,"Name":"Santa Eufémia","state_id":4859,"state_code":"09","state_name":"Guarda","country_id":177,"country_code":"PT","country_name":"Portugal","latitude":"40.79833333","longitude":"-7.18083333","wikiDataId":"Q1476935"},{"id":143608,"Name":"Santa Eulália","state_id":4859,"state_code":"09","state_name":"Guarda","country_id":177,"country_code":"PT","country_name":"Portugal","latitude":"40.41439000","longitude":"-7.78717000","wikiDataId":"Q2120455"},{"id":143609,"Name":"Santa Iria da Azóia","state_id":4859,"state_code":"09","state_name":"Guarda","country_id":177,"country_code":"PT","country_name":"Portugal","latitude":"38.84629000","longitude":"-9.08748000","wikiDataId":"Q49367001"},{"id":143610,"Name":"Santa Iria de Azoia","state_id":4859,"state_code":"09","state_name":"Guarda","country_id":177,"country_code":"PT","country_name":"Portugal","latitude":"38.84638889","longitude":"-9.08805556","wikiDataId":"Q2057078"},{"id":143611,"Name":"Santa Isabel","state_id":4859,"state_code":"09","state_name":"Guarda","country_id":177,"country_code":"PT","country_name":"Portugal","latitude":"38.71861111","longitude":"-9.15833333","wikiDataId":"Q368655"},{"id":143612,"Name":"Santa Justa","state_id":4859,"state_code":"09","state_name":"Guarda","country_id":177,"country_code":"PT","country_name":"Portugal","latitude":"38.71555556","longitude":"-9.13638889","wikiDataId":"Q1786376"},{"id":143613,"Name":"Santa Maria","state_id":4859,"state_code":"09","state_name":"Guarda","country_id":177,"country_code":"PT","country_name":"Portugal","latitude":"40.42388889","longitude":"-7.52138889","wikiDataId":"Q45920"},{"id":143614,"Name":"Santa Maria de Belém","state_id":4859,"state_code":"09","state_name":"Guarda","country_id":177,"country_code":"PT","country_name":"Portugal","latitude":"38.69911000","longitude":"-9.20867000","wikiDataId":"Q33852278"},{"id":143615,"Name":"Santa Maria do Castelo e São Miguel","state_id":4859,"state_code":"09","state_name":"Guarda","country_id":177,"country_code":"PT","country_name":"Portugal","latitude":"39.10864000","longitude":"-9.23907000","wikiDataId":"Q177403"},{"id":143616,"Name":"Santa Maria dos Olivais","state_id":4859,"state_code":"09","state_name":"Guarda","country_id":177,"country_code":"PT","country_name":"Portugal","latitude":"38.76989000","longitude":"-9.12073000","wikiDataId":"Q1786397"},{"id":143617,"Name":"Santa Maria e São Miguel","state_id":4859,"state_code":"09","state_name":"Guarda","country_id":177,"country_code":"PT","country_name":"Portugal","latitude":"38.80083333","longitude":"-9.37944444","wikiDataId":"Q1661925"},{"id":143618,"Name":"Santa Marinha","state_id":4859,"state_code":"09","state_name":"Guarda","country_id":177,"country_code":"PT","country_name":"Portugal","latitude":"40.45027778","longitude":"-7.66333333","wikiDataId":"Q1399236"},{"id":143619,"Name":"Santana da Azinha","state_id":4859,"state_code":"09","state_name":"Guarda","country_id":177,"country_code":"PT","country_name":"Portugal","latitude":"40.47361111","longitude":"-7.20916667","wikiDataId":"Q45884"},{"id":143620,"Name":"Santiago","state_id":4859,"state_code":"09","state_name":"Guarda","country_id":177,"country_code":"PT","country_name":"Portugal","latitude":"40.42388889","longitude":"-7.72916667","wikiDataId":"Q2223528"},{"id":143621,"Name":"Santiago dos Velhos","state_id":4859,"state_code":"09","state_name":"Guarda","country_id":177,"country_code":"PT","country_name":"Portugal","latitude":"38.94166667","longitude":"-9.10361111","wikiDataId":"Q1025011"},{"id":143622,"Name":"Santo Antão do Tojal","state_id":4859,"state_code":"09","state_name":"Guarda","country_id":177,"country_code":"PT","country_name":"Portugal","latitude":"38.85361111","longitude":"-9.14305556","wikiDataId":"Q738803"},{"id":143623,"Name":"Santo António dos Cavaleiros","state_id":4859,"state_code":"09","state_name":"Guarda","country_id":177,"country_code":"PT","country_name":"Portugal","latitude":"38.81166667","longitude":"-9.16111111","wikiDataId":"Q1024976"},{"id":143624,"Name":"Santo Condestável","state_id":4859,"state_code":"09","state_name":"Guarda","country_id":177,"country_code":"PT","country_name":"Portugal","latitude":"38.71527778","longitude":"-9.16694444","wikiDataId":"Q1786417"},{"id":143625,"Name":"Santo Estêvão","state_id":4859,"state_code":"09","state_name":"Guarda","country_id":177,"country_code":"PT","country_name":"Portugal","latitude":"39.04222222","longitude":"-9.01583333","wikiDataId":"Q961456"},{"id":143626,"Name":"Santo Estêvão das Galés","state_id":4859,"state_code":"09","state_name":"Guarda","country_id":177,"country_code":"PT","country_name":"Portugal","latitude":"38.89008000","longitude":"-9.25066000","wikiDataId":"Q731589"},{"id":143627,"Name":"Santo Isidoro","state_id":4859,"state_code":"09","state_name":"Guarda","country_id":177,"country_code":"PT","country_name":"Portugal","latitude":"38.99361111","longitude":"-9.39861111","wikiDataId":"Q787763"},{"id":143628,"Name":"Santo Quintino","state_id":4859,"state_code":"09","state_name":"Guarda","country_id":177,"country_code":"PT","country_name":"Portugal","latitude":"39.00611111","longitude":"-9.14972222","wikiDataId":"Q2119144"},{"id":143629,"Name":"Santos-o-Velho","state_id":4859,"state_code":"09","state_name":"Guarda","country_id":177,"country_code":"PT","country_name":"Portugal","latitude":"38.70694444","longitude":"-9.15638889","wikiDataId":"Q1890230"},{"id":143653,"Name":"São Bartolomeu","state_id":4859,"state_code":"09","state_name":"Guarda","country_id":177,"country_code":"PT","country_name":"Portugal","latitude":"39.27511000","longitude":"-9.27885000","wikiDataId":"Q2120294"},{"id":143654,"Name":"São Bartolomeu dos Galegos","state_id":4859,"state_code":"09","state_name":"Guarda","country_id":177,"country_code":"PT","country_name":"Portugal","latitude":"39.27583333","longitude":"-9.27944444","wikiDataId":"Q1794739"},{"id":143655,"Name":"São Brás","state_id":4859,"state_code":"09","state_name":"Guarda","country_id":177,"country_code":"PT","country_name":"Portugal","latitude":"38.76750000","longitude":"-9.23305556","wikiDataId":"Q1024772"},{"id":143656,"Name":"São Cristóvão e São Lourenço","state_id":4859,"state_code":"09","state_name":"Guarda","country_id":177,"country_code":"PT","country_name":"Portugal","latitude":"38.71277778","longitude":"-9.13555556","wikiDataId":"Q1740339"},{"id":143657,"Name":"São Domingos de Benfica","state_id":4859,"state_code":"09","state_name":"Guarda","country_id":177,"country_code":"PT","country_name":"Portugal","latitude":"38.74361111","longitude":"-9.17000000","wikiDataId":"Q1618787"},{"id":143658,"Name":"São Domingos de Rana","state_id":4859,"state_code":"09","state_name":"Guarda","country_id":177,"country_code":"PT","country_name":"Portugal","latitude":"38.70123000","longitude":"-9.32760000","wikiDataId":"Q33502987"},{"id":143659,"Name":"São Francisco Xavier","state_id":4859,"state_code":"09","state_name":"Guarda","country_id":177,"country_code":"PT","country_name":"Portugal","latitude":"38.70722222","longitude":"-9.21722222","wikiDataId":"Q972747"},{"id":143662,"Name":"São João","state_id":4859,"state_code":"09","state_name":"Guarda","country_id":177,"country_code":"PT","country_name":"Portugal","latitude":"38.72888889","longitude":"-9.12277778","wikiDataId":"Q1528245"},{"id":143664,"Name":"São João da Talha","state_id":4859,"state_code":"09","state_name":"Guarda","country_id":177,"country_code":"PT","country_name":"Portugal","latitude":"38.82583333","longitude":"-9.09222222","wikiDataId":"Q1024823"},{"id":143665,"Name":"São João das Lampas","state_id":4859,"state_code":"09","state_name":"Guarda","country_id":177,"country_code":"PT","country_name":"Portugal","latitude":"38.87000000","longitude":"-9.42111111","wikiDataId":"Q992328"},{"id":143666,"Name":"São João de Brito","state_id":4859,"state_code":"09","state_name":"Guarda","country_id":177,"country_code":"PT","country_name":"Portugal","latitude":"38.75500000","longitude":"-9.13777778","wikiDataId":"Q960058"},{"id":143667,"Name":"São João de Deus","state_id":4859,"state_code":"09","state_name":"Guarda","country_id":177,"country_code":"PT","country_name":"Portugal","latitude":"38.74027778","longitude":"-9.13777778","wikiDataId":"Q786334"},{"id":143663,"Name":"São João Dos Montes","state_id":4859,"state_code":"09","state_name":"Guarda","country_id":177,"country_code":"PT","country_name":"Portugal","latitude":"38.95166000","longitude":"-9.05449000","wikiDataId":"Q33862485"},{"id":143660,"Name":"São Jorge de Arroios","state_id":4859,"state_code":"09","state_name":"Guarda","country_id":177,"country_code":"PT","country_name":"Portugal","latitude":"38.72888889","longitude":"-9.13888889","wikiDataId":"Q1850958"},{"id":143661,"Name":"São José","state_id":4859,"state_code":"09","state_name":"Guarda","country_id":177,"country_code":"PT","country_name":"Portugal","latitude":"38.71805556","longitude":"-9.14250000","wikiDataId":"Q1786370"},{"id":143668,"Name":"São Julião","state_id":4859,"state_code":"09","state_name":"Guarda","country_id":177,"country_code":"PT","country_name":"Portugal","latitude":"40.48757000","longitude":"-7.59498000","wikiDataId":"Q32691"},{"id":143669,"Name":"São Julião do Tojal","state_id":4859,"state_code":"09","state_name":"Guarda","country_id":177,"country_code":"PT","country_name":"Portugal","latitude":"38.85805556","longitude":"-9.13555556","wikiDataId":"Q1024945"},{"id":143670,"Name":"São Mamede","state_id":4859,"state_code":"09","state_name":"Guarda","country_id":177,"country_code":"PT","country_name":"Portugal","latitude":"38.72023000","longitude":"-9.15298000","wikiDataId":"Q2035325"},{"id":143671,"Name":"São Marcos","state_id":4859,"state_code":"09","state_name":"Guarda","country_id":177,"country_code":"PT","country_name":"Portugal","latitude":"38.75624000","longitude":"-9.29731000","wikiDataId":"Q1021763"},{"id":143672,"Name":"São Martinho","state_id":4859,"state_code":"09","state_name":"Guarda","country_id":177,"country_code":"PT","country_name":"Portugal","latitude":"40.44305556","longitude":"-7.67194444","wikiDataId":"Q1267023"},{"id":143673,"Name":"São Miguel","state_id":4859,"state_code":"09","state_name":"Guarda","country_id":177,"country_code":"PT","country_name":"Portugal","latitude":"38.71111111","longitude":"-9.12944444","wikiDataId":"Q969311"},{"id":143674,"Name":"São Miguel da Guarda","state_id":4859,"state_code":"09","state_name":"Guarda","country_id":177,"country_code":"PT","country_name":"Portugal","latitude":"40.55555556","longitude":"-7.24611111","wikiDataId":"Q45913"},{"id":143675,"Name":"São Miguel de Alcainça","state_id":4859,"state_code":"09","state_name":"Guarda","country_id":177,"country_code":"PT","country_name":"Portugal","latitude":"38.92111111","longitude":"-9.29583333","wikiDataId":"Q267405"},{"id":143676,"Name":"São Nicolau","state_id":4859,"state_code":"09","state_name":"Guarda","country_id":177,"country_code":"PT","country_name":"Portugal","latitude":"38.70750000","longitude":"-9.13666667","wikiDataId":"Q1786384"},{"id":143677,"Name":"São Paio","state_id":4859,"state_code":"09","state_name":"Guarda","country_id":177,"country_code":"PT","country_name":"Portugal","latitude":"40.51527778","longitude":"-7.58222222","wikiDataId":"Q32670"},{"id":143678,"Name":"São Paulo","state_id":4859,"state_code":"09","state_name":"Guarda","country_id":177,"country_code":"PT","country_name":"Portugal","latitude":"38.70760000","longitude":"-9.14707000","wikiDataId":"Q1817090"},{"id":143679,"Name":"São Pedro","state_id":4859,"state_code":"09","state_name":"Guarda","country_id":177,"country_code":"PT","country_name":"Portugal","latitude":"40.63222222","longitude":"-7.38138889","wikiDataId":"Q23984"},{"id":143680,"Name":"São Pedro da Cadeira","state_id":4859,"state_code":"09","state_name":"Guarda","country_id":177,"country_code":"PT","country_name":"Portugal","latitude":"39.06972222","longitude":"-9.37166667","wikiDataId":"Q33503173"},{"id":143681,"Name":"São Pedro de Penaferrim","state_id":4859,"state_code":"09","state_name":"Guarda","country_id":177,"country_code":"PT","country_name":"Portugal","latitude":"38.76947000","longitude":"-9.38963000","wikiDataId":"Q1617626"},{"id":143682,"Name":"São Pedro de Rio Seco","state_id":4859,"state_code":"09","state_name":"Guarda","country_id":177,"country_code":"PT","country_name":"Portugal","latitude":"40.66194444","longitude":"-6.83916667","wikiDataId":"Q24035"},{"id":143683,"Name":"São Romão","state_id":4859,"state_code":"09","state_name":"Guarda","country_id":177,"country_code":"PT","country_name":"Portugal","latitude":"40.40194444","longitude":"-7.71694444","wikiDataId":"Q1943011"},{"id":143684,"Name":"São Sebastião da Pedreira","state_id":4859,"state_code":"09","state_name":"Guarda","country_id":177,"country_code":"PT","country_name":"Portugal","latitude":"38.73083333","longitude":"-9.14916667","wikiDataId":"Q1285555"},{"id":143685,"Name":"São Vicente","state_id":4859,"state_code":"09","state_name":"Guarda","country_id":177,"country_code":"PT","country_name":"Portugal","latitude":"40.53979000","longitude":"-7.23536000","wikiDataId":"Q45807"},{"id":143686,"Name":"São Vicente de Fora","state_id":4859,"state_code":"09","state_name":"Guarda","country_id":177,"country_code":"PT","country_name":"Portugal","latitude":"38.71583333","longitude":"-9.12416667","wikiDataId":"Q1026664"},{"id":143630,"Name":"Sapataria","state_id":4859,"state_code":"09","state_name":"Guarda","country_id":177,"country_code":"PT","country_name":"Portugal","latitude":"38.97188000","longitude":"-9.20195000","wikiDataId":"Q2119190"},{"id":143631,"Name":"Sazes da Beira","state_id":4859,"state_code":"09","state_name":"Guarda","country_id":177,"country_code":"PT","country_name":"Portugal","latitude":"40.34888889","longitude":"-7.73527778","wikiDataId":"Q2142894"},{"id":143687,"Name":"Sé","state_id":4859,"state_code":"09","state_name":"Guarda","country_id":177,"country_code":"PT","country_name":"Portugal","latitude":"40.53861111","longitude":"-7.26916667","wikiDataId":"Q45915"},{"id":143632,"Name":"Sebadelhe","state_id":4859,"state_code":"09","state_name":"Guarda","country_id":177,"country_code":"PT","country_name":"Portugal","latitude":"41.05222222","longitude":"-7.26972222","wikiDataId":"Q2120471"},{"id":143633,"Name":"Sebadelhe da Serra","state_id":4859,"state_code":"09","state_name":"Guarda","country_id":177,"country_code":"PT","country_name":"Portugal","latitude":"40.87111111","longitude":"-7.39833333","wikiDataId":"Q2120411"},{"id":143634,"Name":"Seia","state_id":4859,"state_code":"09","state_name":"Guarda","country_id":177,"country_code":"PT","country_name":"Portugal","latitude":"40.42027778","longitude":"-7.70333333","wikiDataId":"Q2452531"},{"id":143635,"Name":"Seixas","state_id":4859,"state_code":"09","state_name":"Guarda","country_id":177,"country_code":"PT","country_name":"Portugal","latitude":"41.11196000","longitude":"-7.25251000","wikiDataId":"Q1405376"},{"id":143636,"Name":"Seixo do Côa","state_id":4859,"state_code":"09","state_name":"Guarda","country_id":177,"country_code":"PT","country_name":"Portugal","latitude":"40.46305556","longitude":"-7.02666667","wikiDataId":"Q2120268"},{"id":143637,"Name":"Sequeira","state_id":4859,"state_code":"09","state_name":"Guarda","country_id":177,"country_code":"PT","country_name":"Portugal","latitude":"40.55361111","longitude":"-7.22583333","wikiDataId":"Q49367383"},{"id":143638,"Name":"Sequeiros","state_id":4859,"state_code":"09","state_name":"Guarda","country_id":177,"country_code":"PT","country_name":"Portugal","latitude":"40.83714000","longitude":"-7.49803000","wikiDataId":"Q1602794"},