[{"id":155,"Name":"Bashkia Bulqizë","state_id":610,"state_code":"09","state_name":"Dibër County","country_id":3,"country_code":"AL","country_name":"Albania","latitude":"41.47152000","longitude":"20.33192000","wikiDataId":"Q3301181"},{"id":165,"Name":"Bashkia Klos","state_id":610,"state_code":"09","state_name":"Dibër County","country_id":3,"country_code":"AL","country_name":"Albania","latitude":"41.50826000","longitude":"20.07107000","wikiDataId":"Q16350064"},{"id":176,"Name":"Bashkia Mat","state_id":610,"state_code":"09","state_name":"Dibër County","country_id":3,"country_code":"AL","country_name":"Albania","latitude":"41.63317000","longitude":"20.01228000","wikiDataId":"Q16350064"},{"id":193,"Name":"Bulqizë","state_id":610,"state_code":"09","state_name":"Dibër County","country_id":3,"country_code":"AL","country_name":"Albania","latitude":"41.49167000","longitude":"20.22194000","wikiDataId":"Q463384"},{"id":194,"Name":"Burrel","state_id":610,"state_code":"09","state_name":"Dibër County","country_id":3,"country_code":"AL","country_name":"Albania","latitude":"41.61028000","longitude":"20.00889000","wikiDataId":"Q461313"},{"id":209,"Name":"Klos","state_id":610,"state_code":"09","state_name":"Dibër County","country_id":3,"country_code":"AL","country_name":"Albania","latitude":"41.50694000","longitude":"20.08667000","wikiDataId":"Q278613"},{"id":236,"Name":"Peshkopi","state_id":610,"state_code":"09","state_name":"Dibër County","country_id":3,"country_code":"AL","country_name":"Albania","latitude":"41.68500000","longitude":"20.42889000","wikiDataId":"Q223154"},{"id":243,"Name":"Rrethi i Bulqizës","state_id":610,"state_code":"09","state_name":"Dibër County","country_id":3,"country_code":"AL","country_name":"Albania","latitude":"41.50000000","longitude":"20.33333000","wikiDataId":"Q191872"},{"id":246,"Name":"Rrethi i Dibrës","state_id":610,"state_code":"09","state_name":"Dibër County","country_id":3,"country_code":"AL","country_name":"Albania","latitude":"41.75000000","longitude":"20.33333000","wikiDataId":"Q192123"},{"id":256,"Name":"Rrethi i Matit","state_id":610,"state_code":"09","state_name":"Dibër County","country_id":3,"country_code":"AL","country_name":"Albania","latitude":"41.58333000","longitude":"20.08333000","wikiDataId":"Q202665"},{"id":272,"Name":"Ulëz","state_id":610,"state_code":"09","state_name":"Dibër County","country_id":3,"country_code":"AL","country_name":"Albania","latitude":"41.68278000","longitude":"19.89333000","wikiDataId":"Q2542462"}]