[{"id":107138,"Name":"Altıeylül İlçesi","state_id":2175,"state_code":"10","state_name":"Balıkesir","country_id":225,"country_code":"TR","country_name":"Turkey","latitude":"39.64099000","longitude":"27.88639000","wikiDataId":"Q16028029"},{"id":107143,"Name":"Altınoluk","state_id":2175,"state_code":"10","state_name":"Balıkesir","country_id":225,"country_code":"TR","country_name":"Turkey","latitude":"39.57944000","longitude":"26.73722000","wikiDataId":"Q3233272"},{"id":107233,"Name":"Ayvalık","state_id":2175,"state_code":"10","state_name":"Balıkesir","country_id":225,"country_code":"TR","country_name":"Turkey","latitude":"39.31927000","longitude":"26.69341000","wikiDataId":"Q793377"},{"id":107277,"Name":"Balıkesir","state_id":2175,"state_code":"10","state_name":"Balıkesir","country_id":225,"country_code":"TR","country_name":"Turkey","latitude":"39.64917000","longitude":"27.88611000","wikiDataId":"Q199723"},{"id":107273,"Name":"Balya","state_id":2175,"state_code":"10","state_name":"Balıkesir","country_id":225,"country_code":"TR","country_name":"Turkey","latitude":"39.74861000","longitude":"27.57889000","wikiDataId":"Q752528"},{"id":107283,"Name":"Bandırma","state_id":2175,"state_code":"10","state_name":"Balıkesir","country_id":225,"country_code":"TR","country_name":"Turkey","latitude":"40.35222000","longitude":"27.97667000","wikiDataId":"Q199723"},{"id":107354,"Name":"Bigadiç","state_id":2175,"state_code":"10","state_name":"Balıkesir","country_id":225,"country_code":"TR","country_name":"Turkey","latitude":"39.39250000","longitude":"28.13111000","wikiDataId":"Q854667"},{"id":107412,"Name":"Burhaniye","state_id":2175,"state_code":"10","state_name":"Balıkesir","country_id":225,"country_code":"TR","country_name":"Turkey","latitude":"39.50041000","longitude":"26.97269000","wikiDataId":"Q211811"},{"id":107532,"Name":"Dursunbey","state_id":2175,"state_code":"10","state_name":"Balıkesir","country_id":225,"country_code":"TR","country_name":"Turkey","latitude":"39.58596000","longitude":"28.62568000","wikiDataId":"Q3041195"},{"id":107550,"Name":"Edremit","state_id":2175,"state_code":"10","state_name":"Balıkesir","country_id":225,"country_code":"TR","country_name":"Turkey","latitude":"39.59611000","longitude":"27.02444000","wikiDataId":"Q43387"},{"id":107584,"Name":"Erdek","state_id":2175,"state_code":"10","state_name":"Balıkesir","country_id":225,"country_code":"TR","country_name":"Turkey","latitude":"40.39960000","longitude":"27.79348000","wikiDataId":"Q2218549"},{"id":107705,"Name":"Gömeç","state_id":2175,"state_code":"10","state_name":"Balıkesir","country_id":225,"country_code":"TR","country_name":"Turkey","latitude":"39.39016000","longitude":"26.84127000","wikiDataId":"Q2901102"},{"id":107708,"Name":"Gönen","state_id":2175,"state_code":"10","state_name":"Balıkesir","country_id":225,"country_code":"TR","country_name":"Turkey","latitude":"40.10490000","longitude":"27.65399000","wikiDataId":"Q1559368"},{"id":107806,"Name":"Havran","state_id":2175,"state_code":"10","state_name":"Balıkesir","country_id":225,"country_code":"TR","country_name":"Turkey","latitude":"39.55833000","longitude":"27.09833000","wikiDataId":"Q2416719"},{"id":108920,"Name":"İvrindi","state_id":2175,"state_code":"10","state_name":"Balıkesir","country_id":225,"country_code":"TR","country_name":"Turkey","latitude":"39.58389000","longitude":"27.48639000","wikiDataId":"Q344273"},{"id":107982,"Name":"Kepsut","state_id":2175,"state_code":"10","state_name":"Balıkesir","country_id":225,"country_code":"TR","country_name":"Turkey","latitude":"39.68889000","longitude":"28.15222000","wikiDataId":"Q727065"},{"id":108151,"Name":"Manyas","state_id":2175,"state_code":"10","state_name":"Balıkesir","country_id":225,"country_code":"TR","country_name":"Turkey","latitude":"40.04639000","longitude":"27.97000000","wikiDataId":"Q920866"},{"id":108155,"Name":"Marmara","state_id":2175,"state_code":"10","state_name":"Balıkesir","country_id":225,"country_code":"TR","country_name":"Turkey","latitude":"40.58633000","longitude":"27.55541000","wikiDataId":"Q188022"},{"id":108417,"Name":"Savaştepe","state_id":2175,"state_code":"10","state_name":"Balıkesir","country_id":225,"country_code":"TR","country_name":"Turkey","latitude":"39.38319000","longitude":"27.65612000","wikiDataId":"Q1430729"},{"id":108527,"Name":"Sındırgı","state_id":2175,"state_code":"10","state_name":"Balıkesir","country_id":225,"country_code":"TR","country_name":"Turkey","latitude":"39.24128000","longitude":"28.17842000","wikiDataId":"Q1783527"},{"id":108509,"Name":"Susurluk","state_id":2175,"state_code":"10","state_name":"Balıkesir","country_id":225,"country_code":"TR","country_name":"Turkey","latitude":"39.91361000","longitude":"28.15778000","wikiDataId":"Q917836"}]