[{"id":22162,"Name":"Braník","state_id":4598,"state_code":"10","state_name":"Praha, Hlavní město","country_id":58,"country_code":"CZ","country_name":"Czech Republic","latitude":"50.03498000","longitude":"14.41518000","wikiDataId":"Q2499127"},{"id":23376,"Name":"Černý Most","state_id":4598,"state_code":"10","state_name":"Praha, Hlavní město","country_id":58,"country_code":"CZ","country_name":"Czech Republic","latitude":"50.10475000","longitude":"14.57974000","wikiDataId":"Q628212"},{"id":22290,"Name":"Dolní Počernice","state_id":4598,"state_code":"10","state_name":"Praha, Hlavní město","country_id":58,"country_code":"CZ","country_name":"Czech Republic","latitude":"50.08760000","longitude":"14.57199000","wikiDataId":"Q3489932"},{"id":22363,"Name":"Hodkovičky","state_id":4598,"state_code":"10","state_name":"Praha, Hlavní město","country_id":58,"country_code":"CZ","country_name":"Czech Republic","latitude":"50.02346000","longitude":"14.41415000","wikiDataId":"Q2834321"},{"id":22387,"Name":"Horní Počernice","state_id":4598,"state_code":"10","state_name":"Praha, Hlavní město","country_id":58,"country_code":"CZ","country_name":"Czech Republic","latitude":"50.11210000","longitude":"14.61036000","wikiDataId":"Q1481198"},{"id":22397,"Name":"Hostavice","state_id":4598,"state_code":"10","state_name":"Praha, Hlavní město","country_id":58,"country_code":"CZ","country_name":"Czech Republic","latitude":"50.09283000","longitude":"14.55822000","wikiDataId":"Q3509373"},{"id":22499,"Name":"Karlín","state_id":4598,"state_code":"10","state_name":"Praha, Hlavní město","country_id":58,"country_code":"CZ","country_name":"Czech Republic","latitude":"50.09272000","longitude":"14.44711000","wikiDataId":"Q1734030"},{"id":22507,"Name":"Kbely","state_id":4598,"state_code":"10","state_name":"Praha, Hlavní město","country_id":58,"country_code":"CZ","country_name":"Czech Republic","latitude":"50.13333000","longitude":"14.55000000","wikiDataId":"Q703182"},{"id":22600,"Name":"Letňany","state_id":4598,"state_code":"10","state_name":"Praha, Hlavní město","country_id":58,"country_code":"CZ","country_name":"Czech Republic","latitude":"50.13333000","longitude":"14.51667000","wikiDataId":"Q3497283"},{"id":22605,"Name":"Libeň","state_id":4598,"state_code":"10","state_name":"Praha, Hlavní město","country_id":58,"country_code":"CZ","country_name":"Czech Republic","latitude":"50.10819000","longitude":"14.47457000","wikiDataId":"Q2003486"},{"id":22672,"Name":"Malá Strana","state_id":4598,"state_code":"10","state_name":"Praha, Hlavní město","country_id":58,"country_code":"CZ","country_name":"Czech Republic","latitude":"50.08774000","longitude":"14.40449000","wikiDataId":"Q753289"},{"id":22708,"Name":"Modřany","state_id":4598,"state_code":"10","state_name":"Praha, Hlavní město","country_id":58,"country_code":"CZ","country_name":"Czech Republic","latitude":"50.01116000","longitude":"14.40960000","wikiDataId":"Q3490542"},{"id":22970,"Name":"Prague","state_id":4598,"state_code":"10","state_name":"Praha, Hlavní město","country_id":58,"country_code":"CZ","country_name":"Czech Republic","latitude":"50.08804000","longitude":"14.42076000","wikiDataId":"Q1085"},{"id":22971,"Name":"Praha 1","state_id":4598,"state_code":"10","state_name":"Praha, Hlavní město","country_id":58,"country_code":"CZ","country_name":"Czech Republic","latitude":"50.08802000","longitude":"14.42166000","wikiDataId":"Q973974"},{"id":22972,"Name":"Praha 16","state_id":4598,"state_code":"10","state_name":"Praha, Hlavní město","country_id":58,"country_code":"CZ","country_name":"Czech Republic","latitude":"49.98357000","longitude":"14.36110000","wikiDataId":"Q1987157"},{"id":22973,"Name":"Praha 20","state_id":4598,"state_code":"10","state_name":"Praha, Hlavní město","country_id":58,"country_code":"CZ","country_name":"Czech Republic","latitude":"50.11568000","longitude":"14.61122000","wikiDataId":"Q23820229"},{"id":22974,"Name":"Praha 21","state_id":4598,"state_code":"10","state_name":"Praha, Hlavní město","country_id":58,"country_code":"CZ","country_name":"Czech Republic","latitude":"50.07521000","longitude":"14.66898000","wikiDataId":"Q2467285"},{"id":22977,"Name":"Prosek","state_id":4598,"state_code":"10","state_name":"Praha, Hlavní město","country_id":58,"country_code":"CZ","country_name":"Czech Republic","latitude":"50.11525000","longitude":"14.50685000","wikiDataId":"Q2078708"},{"id":23061,"Name":"Satalice","state_id":4598,"state_code":"10","state_name":"Praha, Hlavní město","country_id":58,"country_code":"CZ","country_name":"Czech Republic","latitude":"50.12484000","longitude":"14.57191000","wikiDataId":"Q3509354"},{"id":23106,"Name":"Staré Město","state_id":4598,"state_code":"10","state_name":"Praha, Hlavní město","country_id":58,"country_code":"CZ","country_name":"Czech Republic","latitude":"50.08700000","longitude":"14.42024000","wikiDataId":"Q748211"},{"id":23139,"Name":"Střížkov","state_id":4598,"state_code":"10","state_name":"Praha, Hlavní město","country_id":58,"country_code":"CZ","country_name":"Czech Republic","latitude":"50.12674000","longitude":"14.49363000","wikiDataId":"Q3499380"},{"id":23304,"Name":"Vysehrad","state_id":4598,"state_code":"10","state_name":"Praha, Hlavní město","country_id":58,"country_code":"CZ","country_name":"Czech Republic","latitude":"50.06509000","longitude":"14.41711000","wikiDataId":"Q21891843"},{"id":23307,"Name":"Vysočany","state_id":4598,"state_code":"10","state_name":"Praha, Hlavní město","country_id":58,"country_code":"CZ","country_name":"Czech Republic","latitude":"50.10938000","longitude":"14.51667000","wikiDataId":"Q2782104"}]