[{"id":55018,"Name":"Čačinci","state_id":732,"state_code":"10","state_name":"Virovitica-Podravina County","country_id":55,"country_code":"HR","country_name":"Croatia","latitude":"45.60389000","longitude":"17.87028000","wikiDataId":"Q2288126"},{"id":55019,"Name":"Čađavica","state_id":732,"state_code":"10","state_name":"Virovitica-Podravina County","country_id":55,"country_code":"HR","country_name":"Croatia","latitude":"45.74417000","longitude":"17.85472000","wikiDataId":"Q337931"},{"id":54446,"Name":"Crnac","state_id":732,"state_code":"10","state_name":"Virovitica-Podravina County","country_id":55,"country_code":"HR","country_name":"Croatia","latitude":"45.69611000","longitude":"17.93722000","wikiDataId":"Q660906"},{"id":54539,"Name":"Grad Orahovica","state_id":732,"state_code":"10","state_name":"Virovitica-Podravina County","country_id":55,"country_code":"HR","country_name":"Croatia","latitude":"45.53333000","longitude":"17.90000000","wikiDataId":"Q397600"},{"id":54550,"Name":"Grad Slatina","state_id":732,"state_code":"10","state_name":"Virovitica-Podravina County","country_id":55,"country_code":"HR","country_name":"Croatia","latitude":"45.70000000","longitude":"17.70000000","wikiDataId":"Q991263"},{"id":54560,"Name":"Grad Virovitica","state_id":732,"state_code":"10","state_name":"Virovitica-Podravina County","country_id":55,"country_code":"HR","country_name":"Croatia","latitude":"45.83167000","longitude":"17.38483000","wikiDataId":"Q331141"},{"id":54576,"Name":"Gradina","state_id":732,"state_code":"10","state_name":"Virovitica-Podravina County","country_id":55,"country_code":"HR","country_name":"Croatia","latitude":"45.85423000","longitude":"17.51109000","wikiDataId":"Q10993628"},{"id":54732,"Name":"Mikleuš","state_id":732,"state_code":"10","state_name":"Virovitica-Podravina County","country_id":55,"country_code":"HR","country_name":"Croatia","latitude":"45.61861000","longitude":"17.80389000","wikiDataId":"Q1277222"},{"id":54756,"Name":"Nova Bukovica","state_id":732,"state_code":"10","state_name":"Virovitica-Podravina County","country_id":55,"country_code":"HR","country_name":"Croatia","latitude":"45.66472000","longitude":"17.76694000","wikiDataId":"Q1277435"},{"id":54786,"Name":"Orahovica","state_id":732,"state_code":"10","state_name":"Virovitica-Podravina County","country_id":55,"country_code":"HR","country_name":"Croatia","latitude":"45.54000000","longitude":"17.88472000","wikiDataId":"Q396465"},{"id":54809,"Name":"Pitomača","state_id":732,"state_code":"10","state_name":"Virovitica-Podravina County","country_id":55,"country_code":"HR","country_name":"Croatia","latitude":"45.95056000","longitude":"17.22944000","wikiDataId":"Q1027699"},{"id":54861,"Name":"Rezovac","state_id":732,"state_code":"10","state_name":"Virovitica-Podravina County","country_id":55,"country_code":"HR","country_name":"Croatia","latitude":"45.78333000","longitude":"17.41667000","wikiDataId":"Q1989817"},{"id":54895,"Name":"Slatina","state_id":732,"state_code":"10","state_name":"Virovitica-Podravina County","country_id":55,"country_code":"HR","country_name":"Croatia","latitude":"45.70333000","longitude":"17.70278000","wikiDataId":"Q400036"},{"id":54903,"Name":"Sopje","state_id":732,"state_code":"10","state_name":"Virovitica-Podravina County","country_id":55,"country_code":"HR","country_name":"Croatia","latitude":"45.80111000","longitude":"17.74250000","wikiDataId":"Q1277701"},{"id":55036,"Name":"Špišić Bukovica","state_id":732,"state_code":"10","state_name":"Virovitica-Podravina County","country_id":55,"country_code":"HR","country_name":"Croatia","latitude":"45.85740000","longitude":"17.30089000","wikiDataId":"Q924490"},{"id":54920,"Name":"Suhopolje","state_id":732,"state_code":"10","state_name":"Virovitica-Podravina County","country_id":55,"country_code":"HR","country_name":"Croatia","latitude":"45.79972000","longitude":"17.49917000","wikiDataId":"Q1010342"},{"id":54973,"Name":"Virovitica","state_id":732,"state_code":"10","state_name":"Virovitica-Podravina County","country_id":55,"country_code":"HR","country_name":"Croatia","latitude":"45.83194000","longitude":"17.38389000","wikiDataId":"Q947792"},{"id":54985,"Name":"Voćin","state_id":732,"state_code":"10","state_name":"Virovitica-Podravina County","country_id":55,"country_code":"HR","country_name":"Croatia","latitude":"45.61778000","longitude":"17.54778000","wikiDataId":"Q780950"},{"id":55008,"Name":"Zdenci","state_id":732,"state_code":"10","state_name":"Virovitica-Podravina County","country_id":55,"country_code":"HR","country_name":"Croatia","latitude":"45.58917000","longitude":"17.95028000","wikiDataId":"Q1270346"}]