[{"id":81203,"Name":"Alejal","state_id":1340,"state_code":"11","state_name":"Davao Region","country_id":174,"country_code":"PH","country_name":"Philippines","latitude":"7.38417000","longitude":"125.66000000","wikiDataId":"Q31463733"},{"id":81261,"Name":"Andili","state_id":1340,"state_code":"11","state_name":"Davao Region","country_id":174,"country_code":"PH","country_name":"Philippines","latitude":"7.46200000","longitude":"125.97010000","wikiDataId":"Q31466308"},{"id":81262,"Name":"Andop","state_id":1340,"state_code":"11","state_name":"Davao Region","country_id":174,"country_code":"PH","country_name":"Philippines","latitude":"7.86111000","longitude":"125.75389000","wikiDataId":"Q31466332"},{"id":81271,"Name":"Anibongan","state_id":1340,"state_code":"11","state_name":"Davao Region","country_id":174,"country_code":"PH","country_name":"Philippines","latitude":"7.39333000","longitude":"125.71889000","wikiDataId":"Q31466743"},{"id":81321,"Name":"Astorga","state_id":1340,"state_code":"11","state_name":"Davao Region","country_id":174,"country_code":"PH","country_name":"Philippines","latitude":"6.90722000","longitude":"125.45583000","wikiDataId":"Q31469793"},{"id":81347,"Name":"Babag","state_id":1340,"state_code":"11","state_name":"Davao Region","country_id":174,"country_code":"PH","country_name":"Philippines","latitude":"7.73309000","longitude":"126.07130000","wikiDataId":"Q31472081"},{"id":81374,"Name":"Baculin","state_id":1340,"state_code":"11","state_name":"Davao Region","country_id":174,"country_code":"PH","country_name":"Philippines","latitude":"7.45250000","longitude":"126.58417000","wikiDataId":"Q31474085"},{"id":81393,"Name":"Baganga","state_id":1340,"state_code":"11","state_name":"Davao Region","country_id":174,"country_code":"PH","country_name":"Philippines","latitude":"7.57389000","longitude":"126.56000000","wikiDataId":"Q314522"},{"id":81438,"Name":"Balagunan","state_id":1340,"state_code":"11","state_name":"Davao Region","country_id":174,"country_code":"PH","country_name":"Philippines","latitude":"7.49222000","longitude":"125.52111000","wikiDataId":"Q31478012"},{"id":81445,"Name":"Balangonan","state_id":1340,"state_code":"11","state_name":"Davao Region","country_id":174,"country_code":"PH","country_name":"Philippines","latitude":"5.57333000","longitude":"125.35389000","wikiDataId":"Q31478354"},{"id":81507,"Name":"Balutakay","state_id":1340,"state_code":"11","state_name":"Davao Region","country_id":174,"country_code":"PH","country_name":"Philippines","latitude":"6.72111000","longitude":"125.35167000","wikiDataId":"Q31796209"},{"id":81547,"Name":"Bansalan","state_id":1340,"state_code":"11","state_name":"Davao Region","country_id":174,"country_code":"PH","country_name":"Philippines","latitude":"6.78611000","longitude":"125.21333000","wikiDataId":"Q314778"},{"id":81549,"Name":"Bantacan","state_id":1340,"state_code":"11","state_name":"Davao Region","country_id":174,"country_code":"PH","country_name":"Philippines","latitude":"7.60400000","longitude":"126.12980000","wikiDataId":"Q31484750"},{"id":81561,"Name":"Baon","state_id":1340,"state_code":"11","state_name":"Davao Region","country_id":174,"country_code":"PH","country_name":"Philippines","latitude":"6.79562000","longitude":"126.08778000","wikiDataId":"Q31485502"},{"id":81563,"Name":"Baracatan","state_id":1340,"state_code":"11","state_name":"Davao Region","country_id":174,"country_code":"PH","country_name":"Philippines","latitude":"6.96750000","longitude":"125.41583000","wikiDataId":"Q31485792"},{"id":81603,"Name":"Basiawan","state_id":1340,"state_code":"11","state_name":"Davao Region","country_id":174,"country_code":"PH","country_name":"Philippines","latitude":"6.53417000","longitude":"125.48694000","wikiDataId":"Q31488818"},{"id":81623,"Name":"Batiano","state_id":1340,"state_code":"11","state_name":"Davao Region","country_id":174,"country_code":"PH","country_name":"Philippines","latitude":"7.55340000","longitude":"126.49070000","wikiDataId":"Q31490370"},{"id":81629,"Name":"Bato","state_id":1340,"state_code":"11","state_name":"Davao Region","country_id":174,"country_code":"PH","country_name":"Philippines","latitude":"7.04306000","longitude":"125.47306000","wikiDataId":"Q31490512"},{"id":81633,"Name":"Batobato","state_id":1340,"state_code":"11","state_name":"Davao Region","country_id":174,"country_code":"PH","country_name":"Philippines","latitude":"6.82522000","longitude":"126.08458000","wikiDataId":"Q31490730"},{"id":81665,"Name":"Baylo","state_id":1340,"state_code":"11","state_name":"Davao Region","country_id":174,"country_code":"PH","country_name":"Philippines","latitude":"7.85514000","longitude":"126.05563000","wikiDataId":"Q31492649"},{"id":81684,"Name":"Biao","state_id":1340,"state_code":"11","state_name":"Davao Region","country_id":174,"country_code":"PH","country_name":"Philippines","latitude":"7.16333000","longitude":"125.52111000","wikiDataId":"Q31498202"},{"id":81716,"Name":"Bincoñgan","state_id":1340,"state_code":"11","state_name":"Davao Region","country_id":174,"country_code":"PH","country_name":"Philippines","latitude":"7.36667000","longitude":"125.75000000","wikiDataId":"Q31502302"},{"id":81743,"Name":"Bitaogan","state_id":1340,"state_code":"11","state_name":"Davao Region","country_id":174,"country_code":"PH","country_name":"Philippines","latitude":"6.76842000","longitude":"126.07738000","wikiDataId":"Q31503957"},{"id":81753,"Name":"Bobon","state_id":1340,"state_code":"11","state_name":"Davao Region","country_id":174,"country_code":"PH","country_name":"Philippines","latitude":"6.86782000","longitude":"126.32838000","wikiDataId":"Q31507297"},{"id":81768,"Name":"Bolila","state_id":1340,"state_code":"11","state_name":"Davao Region","country_id":174,"country_code":"PH","country_name":"Philippines","latitude":"6.37167000","longitude":"125.57139000","wikiDataId":"Q31508479"},{"id":81801,"Name":"Boston","state_id":1340,"state_code":"11","state_name":"Davao Region","country_id":174,"country_code":"PH","country_name":"Philippines","latitude":"7.87111000","longitude":"126.36417000","wikiDataId":"Q314574"},{"id":81825,"Name":"Buclad","state_id":1340,"state_code":"11","state_name":"Davao Region","country_id":174,"country_code":"PH","country_name":"Philippines","latitude":"7.52778000","longitude":"125.75056000","wikiDataId":"Q31515630"},{"id":81852,"Name":"Buhangin","state_id":1340,"state_code":"11","state_name":"Davao Region","country_id":174,"country_code":"PH","country_name":"Philippines","latitude":"6.49111000","longitude":"125.54750000","wikiDataId":"Q31516861"},{"id":81858,"Name":"Bukid","state_id":1340,"state_code":"11","state_name":"Davao Region","country_id":174,"country_code":"PH","country_name":"Philippines","latitude":"5.57167000","longitude":"125.40556000","wikiDataId":"Q31517046"},{"id":81861,"Name":"Bulacan","state_id":1340,"state_code":"11","state_name":"Davao Region","country_id":174,"country_code":"PH","country_name":"Philippines","latitude":"6.56750000","longitude":"125.42111000","wikiDataId":"Q31517213"},{"id":81895,"Name":"Bungabon","state_id":1340,"state_code":"11","state_name":"Davao Region","country_id":174,"country_code":"PH","country_name":"Philippines","latitude":"7.22210000","longitude":"125.87310000","wikiDataId":"Q31518603"},{"id":81927,"Name":"Butulan","state_id":1340,"state_code":"11","state_name":"Davao Region","country_id":174,"country_code":"PH","country_name":"Philippines","latitude":"5.61444000","longitude":"125.43167000","wikiDataId":"Q31521128"},{"id":81961,"Name":"Cabayangan","state_id":1340,"state_code":"11","state_name":"Davao Region","country_id":174,"country_code":"PH","country_name":"Philippines","latitude":"7.40722000","longitude":"125.73306000","wikiDataId":"Q31523219"},{"id":81969,"Name":"Cabinuangan","state_id":1340,"state_code":"11","state_name":"Davao Region","country_id":174,"country_code":"PH","country_name":"Philippines","latitude":"7.68333000","longitude":"126.03333000","wikiDataId":"Q31523629"},{"id":81984,"Name":"Caburan","state_id":1340,"state_code":"11","state_name":"Davao Region","country_id":174,"country_code":"PH","country_name":"Philippines","latitude":"5.91806000","longitude":"125.64111000","wikiDataId":"Q31524373"},{"id":82086,"Name":"Cambanugoy","state_id":1340,"state_code":"11","state_name":"Davao Region","country_id":174,"country_code":"PH","country_name":"Philippines","latitude":"7.54130000","longitude":"125.75530000","wikiDataId":"Q314393"},{"id":82097,"Name":"Camudmud","state_id":1340,"state_code":"11","state_name":"Davao Region","country_id":174,"country_code":"PH","country_name":"Philippines","latitude":"7.17611000","longitude":"125.69333000","wikiDataId":"Q31530825"},{"id":82148,"Name":"Caraga","state_id":1340,"state_code":"11","state_name":"Davao Region","country_id":174,"country_code":"PH","country_name":"Philippines","latitude":"7.32972000","longitude":"126.56750000","wikiDataId":"Q314593"},{"id":82171,"Name":"Carmen","state_id":1340,"state_code":"11","state_name":"Davao Region","country_id":174,"country_code":"PH","country_name":"Philippines","latitude":"7.36056000","longitude":"125.70639000","wikiDataId":"Q314422"},{"id":82209,"Name":"Cateel","state_id":1340,"state_code":"11","state_name":"Davao Region","country_id":174,"country_code":"PH","country_name":"Philippines","latitude":"7.79139000","longitude":"126.45333000","wikiDataId":"Q314619"},{"id":82255,"Name":"Cogon","state_id":1340,"state_code":"11","state_name":"Davao Region","country_id":174,"country_code":"PH","country_name":"Philippines","latitude":"7.15083000","longitude":"125.71722000","wikiDataId":"Q31548695"},{"id":82268,"Name":"Compostela","state_id":1340,"state_code":"11","state_name":"Davao Region","country_id":174,"country_code":"PH","country_name":"Philippines","latitude":"7.67306000","longitude":"126.08889000","wikiDataId":"Q31550502"},{"id":82270,"Name":"Compostela Valley","state_id":1340,"state_code":"11","state_name":"Davao Region","country_id":174,"country_code":"PH","country_name":"Philippines","latitude":"7.68333000","longitude":"126.11667000","wikiDataId":"Q13789"},{"id":82275,"Name":"Concepcion","state_id":1340,"state_code":"11","state_name":"Davao Region","country_id":174,"country_code":"PH","country_name":"Philippines","latitude":"7.75056000","longitude":"125.71194000","wikiDataId":"Q31550833"},{"id":82294,"Name":"Corocotan","state_id":1340,"state_code":"11","state_name":"Davao Region","country_id":174,"country_code":"PH","country_name":"Philippines","latitude":"7.39980000","longitude":"125.77270000","wikiDataId":"Q31553231"},{"id":82296,"Name":"Coronon","state_id":1340,"state_code":"11","state_name":"Davao Region","country_id":174,"country_code":"PH","country_name":"Philippines","latitude":"6.87917000","longitude":"125.44889000","wikiDataId":"Q31553542"},{"id":82305,"Name":"Cuambog","state_id":1340,"state_code":"11","state_name":"Davao Region","country_id":174,"country_code":"PH","country_name":"Philippines","latitude":"7.30861000","longitude":"125.84806000","wikiDataId":"Q31556539"},{"id":82311,"Name":"Culaman","state_id":1340,"state_code":"11","state_name":"Davao Region","country_id":174,"country_code":"PH","country_name":"Philippines","latitude":"5.96028000","longitude":"125.65861000","wikiDataId":"Q31557004"},{"id":82328,"Name":"Dacudao","state_id":1340,"state_code":"11","state_name":"Davao Region","country_id":174,"country_code":"PH","country_name":"Philippines","latitude":"7.21528000","longitude":"125.47139000","wikiDataId":"Q31558331"},{"id":82395,"Name":"Davan","state_id":1340,"state_code":"11","state_name":"Davao Region","country_id":174,"country_code":"PH","country_name":"Philippines","latitude":"6.91487000","longitude":"126.15323000","wikiDataId":"Q31562786"},{"id":82396,"Name":"Davao","state_id":1340,"state_code":"11","state_name":"Davao Region","country_id":174,"country_code":"PH","country_name":"Philippines","latitude":"7.07306000","longitude":"125.61278000","wikiDataId":"Q1473"},{"id":82411,"Name":"Del Pilar","state_id":1340,"state_code":"11","state_name":"Davao Region","country_id":174,"country_code":"PH","country_name":"Philippines","latitude":"7.56306000","longitude":"125.82667000","wikiDataId":"Q31564662"},{"id":82425,"Name":"Digos","state_id":1340,"state_code":"11","state_name":"Davao Region","country_id":174,"country_code":"PH","country_name":"Philippines","latitude":"6.74972000","longitude":"125.35722000","wikiDataId":"Q1020939"},{"id":82450,"Name":"Dolo","state_id":1340,"state_code":"11","state_name":"Davao Region","country_id":174,"country_code":"PH","country_name":"Philippines","latitude":"6.81028000","longitude":"125.19167000","wikiDataId":"Q31569500"},{"id":82493,"Name":"Dumlan","state_id":1340,"state_code":"11","state_name":"Davao Region","country_id":174,"country_code":"PH","country_name":"Philippines","latitude":"7.42750000","longitude":"125.88190000","wikiDataId":"Q31572787"},{"id":82517,"Name":"Esperanza","state_id":1340,"state_code":"11","state_name":"Davao Region","country_id":174,"country_code":"PH","country_name":"Philippines","latitude":"7.49167000","longitude":"125.72806000","wikiDataId":"Q31579147"},{"id":82547,"Name":"Gabi","state_id":1340,"state_code":"11","state_name":"Davao Region","country_id":174,"country_code":"PH","country_name":"Philippines","latitude":"7.62150000","longitude":"126.09200000","wikiDataId":"Q31587610"},{"id":82550,"Name":"Gabuyan","state_id":1340,"state_code":"11","state_name":"Davao Region","country_id":174,"country_code":"PH","country_name":"Philippines","latitude":"7.60806000","longitude":"125.66889000","wikiDataId":"Q31587726"},{"id":82606,"Name":"Goma","state_id":1340,"state_code":"11","state_name":"Davao Region","country_id":174,"country_code":"PH","country_name":"Philippines","latitude":"6.79194000","longitude":"125.32083000","wikiDataId":"Q31458479"},{"id":82621,"Name":"Guihing Proper","state_id":1340,"state_code":"11","state_name":"Davao Region","country_id":174,"country_code":"PH","country_name":"Philippines","latitude":"6.68444000","longitude":"125.35250000","wikiDataId":"Q31811354"},{"id":82654,"Name":"Gumalang","state_id":1340,"state_code":"11","state_name":"Davao Region","country_id":174,"country_code":"PH","country_name":"Philippines","latitude":"7.20833000","longitude":"125.40361000","wikiDataId":"Q31811389"},{"id":82657,"Name":"Gupitan","state_id":1340,"state_code":"11","state_name":"Davao Region","country_id":174,"country_code":"PH","country_name":"Philippines","latitude":"7.77583000","longitude":"125.64056000","wikiDataId":"Q31811393"},{"id":82668,"Name":"Hagonoy","state_id":1340,"state_code":"11","state_name":"Davao Region","country_id":174,"country_code":"PH","country_name":"Philippines","latitude":"6.68333000","longitude":"125.32556000","wikiDataId":"Q314808"},{"id":82684,"Name":"Hiju, Maco","state_id":1340,"state_code":"11","state_name":"Davao Region","country_id":174,"country_code":"PH","country_name":"Philippines","latitude":"7.38541000","longitude":"125.82822000","wikiDataId":"Q31811433"},{"id":82720,"Name":"Ignit","state_id":1340,"state_code":"11","state_name":"Davao Region","country_id":174,"country_code":"PH","country_name":"Philippines","latitude":"6.70083000","longitude":"125.29194000","wikiDataId":"Q31811474"},{"id":82724,"Name":"Ilangay","state_id":1340,"state_code":"11","state_name":"Davao Region","country_id":174,"country_code":"PH","country_name":"Philippines","latitude":"6.91284000","longitude":"126.05008000","wikiDataId":"Q31811477"},{"id":82743,"Name":"Inawayan","state_id":1340,"state_code":"11","state_name":"Davao Region","country_id":174,"country_code":"PH","country_name":"Philippines","latitude":"6.96083000","longitude":"125.47333000","wikiDataId":"Q31811496"},{"id":82814,"Name":"Jovellar","state_id":1340,"state_code":"11","state_name":"Davao Region","country_id":174,"country_code":"PH","country_name":"Philippines","latitude":"7.06350000","longitude":"126.45558000","wikiDataId":"Q31811559"},{"id":82846,"Name":"Kalbay","state_id":1340,"state_code":"11","state_name":"Davao Region","country_id":174,"country_code":"PH","country_name":"Philippines","latitude":"5.72333000","longitude":"125.49861000","wikiDataId":"Q31811589"},{"id":82848,"Name":"Kalian","state_id":1340,"state_code":"11","state_name":"Davao Region","country_id":174,"country_code":"PH","country_name":"Philippines","latitude":"6.12306000","longitude":"125.70028000","wikiDataId":"Q31811591"},{"id":82851,"Name":"Kaligutan","state_id":1340,"state_code":"11","state_name":"Davao Region","country_id":174,"country_code":"PH","country_name":"Philippines","latitude":"7.70306000","longitude":"125.81306000","wikiDataId":"Q31811595"},{"id":82866,"Name":"Kapalong","state_id":1340,"state_code":"11","state_name":"Davao Region","country_id":174,"country_code":"PH","country_name":"Philippines","latitude":"7.77056000","longitude":"125.55861000","wikiDataId":"Q314438"},{"id":82880,"Name":"Katipunan","state_id":1340,"state_code":"11","state_name":"Davao Region","country_id":174,"country_code":"PH","country_name":"Philippines","latitude":"7.32028000","longitude":"125.62028000","wikiDataId":"Q31811619"},{"id":82895,"Name":"Kiblawan","state_id":1340,"state_code":"11","state_name":"Davao Region","country_id":174,"country_code":"PH","country_name":"Philippines","latitude":"6.61417000","longitude":"125.23667000","wikiDataId":"Q314844"},{"id":82905,"Name":"Kinablangan","state_id":1340,"state_code":"11","state_name":"Davao Region","country_id":174,"country_code":"PH","country_name":"Philippines","latitude":"7.69280000","longitude":"126.54912000","wikiDataId":"Q31811646"},{"id":82908,"Name":"Kinamayan","state_id":1340,"state_code":"11","state_name":"Davao Region","country_id":174,"country_code":"PH","country_name":"Philippines","latitude":"7.49944000","longitude":"125.67361000","wikiDataId":"Q31811649"},{"id":82909,"Name":"Kinangan","state_id":1340,"state_code":"11","state_name":"Davao Region","country_id":174,"country_code":"PH","country_name":"Philippines","latitude":"6.30139000","longitude":"125.58500000","wikiDataId":"Q31811650"},{"id":82944,"Name":"La Libertad","state_id":1340,"state_code":"11","state_name":"Davao Region","country_id":174,"country_code":"PH","country_name":"Philippines","latitude":"7.48028000","longitude":"125.64722000","wikiDataId":"Q31811704"},{"id":82949,"Name":"La Paz","state_id":1340,"state_code":"11","state_name":"Davao Region","country_id":174,"country_code":"PH","country_name":"Philippines","latitude":"7.31583000","longitude":"125.73333000","wikiDataId":"Q31811707"},{"id":82954,"Name":"La Union","state_id":1340,"state_code":"11","state_name":"Davao Region","country_id":174,"country_code":"PH","country_name":"Philippines","latitude":"6.70413000","longitude":"126.08798000","wikiDataId":"Q31811715"},{"id":82969,"Name":"Lacaron","state_id":1340,"state_code":"11","state_name":"Davao Region","country_id":174,"country_code":"PH","country_name":"Philippines","latitude":"6.44889000","longitude":"125.57917000","wikiDataId":"Q31811727"},{"id":82972,"Name":"Lacson","state_id":1340,"state_code":"11","state_name":"Davao Region","country_id":174,"country_code":"PH","country_name":"Philippines","latitude":"7.21194000","longitude":"125.44222000","wikiDataId":"Q31811731"},{"id":82983,"Name":"Lais","state_id":1340,"state_code":"11","state_name":"Davao Region","country_id":174,"country_code":"PH","country_name":"Philippines","latitude":"6.33278000","longitude":"125.64639000","wikiDataId":"Q31811741"},{"id":83002,"Name":"Lamitan","state_id":1340,"state_code":"11","state_name":"Davao Region","country_id":174,"country_code":"PH","country_name":"Philippines","latitude":"6.08722000","longitude":"125.70222000","wikiDataId":"Q31811766"},{"id":83038,"Name":"Lapuan","state_id":1340,"state_code":"11","state_name":"Davao Region","country_id":174,"country_code":"PH","country_name":"Philippines","latitude":"6.14444000","longitude":"125.70083000","wikiDataId":"Q31811802"},{"id":83047,"Name":"Lasang","state_id":1340,"state_code":"11","state_name":"Davao Region","country_id":174,"country_code":"PH","country_name":"Philippines","latitude":"7.26694000","longitude":"125.66500000","wikiDataId":"Q31811811"},{"id":83098,"Name":"Libuganon","state_id":1340,"state_code":"11","state_name":"Davao Region","country_id":174,"country_code":"PH","country_name":"Philippines","latitude":"7.34880000","longitude":"125.77820000","wikiDataId":"Q31811871"},{"id":83116,"Name":"Limao","state_id":1340,"state_code":"11","state_name":"Davao Region","country_id":174,"country_code":"PH","country_name":"Philippines","latitude":"7.07917000","longitude":"125.67361000","wikiDataId":"Q31811884"},{"id":83125,"Name":"Limot","state_id":1340,"state_code":"11","state_name":"Davao Region","country_id":174,"country_code":"PH","country_name":"Philippines","latitude":"7.04050000","longitude":"126.27268000","wikiDataId":"Q31811894"},{"id":83133,"Name":"Linao","state_id":1340,"state_code":"11","state_name":"Davao Region","country_id":174,"country_code":"PH","country_name":"Philippines","latitude":"7.01720000","longitude":"125.99200000","wikiDataId":"Q31811905"},{"id":83143,"Name":"Linoan","state_id":1340,"state_code":"11","state_name":"Davao Region","country_id":174,"country_code":"PH","country_name":"Philippines","latitude":"7.62600000","longitude":"125.97410000","wikiDataId":"Q31811915"},{"id":83210,"Name":"Lukatan","state_id":1340,"state_code":"11","state_name":"Davao Region","country_id":174,"country_code":"PH","country_name":"Philippines","latitude":"7.00960000","longitude":"126.42118000","wikiDataId":"Q31811980"},{"id":83232,"Name":"Luna","state_id":1340,"state_code":"11","state_name":"Davao Region","country_id":174,"country_code":"PH","country_name":"Philippines","latitude":"7.57639000","longitude":"125.66722000","wikiDataId":"Q31812001"},{"id":83239,"Name":"Lungaog","state_id":1340,"state_code":"11","state_name":"Davao Region","country_id":174,"country_code":"PH","country_name":"Philippines","latitude":"7.52944000","longitude":"125.68778000","wikiDataId":"Q31812008"},{"id":83246,"Name":"Lupon","state_id":1340,"state_code":"11","state_name":"Davao Region","country_id":174,"country_code":"PH","country_name":"Philippines","latitude":"6.89814000","longitude":"126.00961000","wikiDataId":"Q314653"},{"id":83253,"Name":"Luzon","state_id":1340,"state_code":"11","state_name":"Davao Region","country_id":174,"country_code":"PH","country_name":"Philippines","latitude":"6.51904000","longitude":"126.09408000","wikiDataId":"Q31812020"},{"id":83277,"Name":"Mabini","state_id":1340,"state_code":"11","state_name":"Davao Region","country_id":174,"country_code":"PH","country_name":"Philippines","latitude":"7.31139000","longitude":"125.85278000","wikiDataId":"Q187225"},{"id":83287,"Name":"Mabuhay","state_id":1340,"state_code":"11","state_name":"Davao Region","country_id":174,"country_code":"PH","country_name":"Philippines","latitude":"7.33306000","longitude":"125.54750000","wikiDataId":"Q31812051"},{"id":83306,"Name":"Maco","state_id":1340,"state_code":"11","state_name":"Davao Region","country_id":174,"country_code":"PH","country_name":"Philippines","latitude":"7.36194000","longitude":"125.85528000","wikiDataId":"Q315497"},{"id":83315,"Name":"Maduao","state_id":1340,"state_code":"11","state_name":"Davao Region","country_id":174,"country_code":"PH","country_name":"Philippines","latitude":"7.29417000","longitude":"125.62583000","wikiDataId":"Q31812075"},{"id":83328,"Name":"Magatos","state_id":1340,"state_code":"11","state_name":"Davao Region","country_id":174,"country_code":"PH","country_name":"Philippines","latitude":"7.55556000","longitude":"125.72667000","wikiDataId":"Q31812081"},{"id":83335,"Name":"Magdug","state_id":1340,"state_code":"11","state_name":"Davao Region","country_id":174,"country_code":"PH","country_name":"Philippines","latitude":"6.54764000","longitude":"126.09508000","wikiDataId":"Q31812087"},{"id":83338,"Name":"Magnaga","state_id":1340,"state_code":"11","state_name":"Davao Region","country_id":174,"country_code":"PH","country_name":"Philippines","latitude":"7.16940000","longitude":"125.89310000","wikiDataId":"Q31812090"},{"id":83342,"Name":"Magsaysay","state_id":1340,"state_code":"11","state_name":"Davao Region","country_id":174,"country_code":"PH","country_name":"Philippines","latitude":"6.76667000","longitude":"125.18333000","wikiDataId":"Q314864"},{"id":83349,"Name":"Magugpo Poblacion","state_id":1340,"state_code":"11","state_name":"Davao Region","country_id":174,"country_code":"PH","country_name":"Philippines","latitude":"7.44750000","longitude":"125.80460000","wikiDataId":"Q725168"},{"id":83357,"Name":"Mahanob","state_id":1340,"state_code":"11","state_name":"Davao Region","country_id":174,"country_code":"PH","country_name":"Philippines","latitude":"7.57326000","longitude":"126.50684000","wikiDataId":"Q31812107"},{"id":83362,"Name":"Mahayag","state_id":1340,"state_code":"11","state_name":"Davao Region","country_id":174,"country_code":"PH","country_name":"Philippines","latitude":"7.21667000","longitude":"125.61944000","wikiDataId":"Q31812110"},{"id":83393,"Name":"Malagos","state_id":1340,"state_code":"11","state_name":"Davao Region","country_id":174,"country_code":"PH","country_name":"Philippines","latitude":"7.18500000","longitude":"125.42222000","wikiDataId":"Q31812135"},{"id":83397,"Name":"Malalag","state_id":1340,"state_code":"11","state_name":"Davao Region","country_id":174,"country_code":"PH","country_name":"Philippines","latitude":"6.59583000","longitude":"125.39917000","wikiDataId":"Q314885"},{"id":83436,"Name":"Malinao","state_id":1340,"state_code":"11","state_name":"Davao Region","country_id":174,"country_code":"PH","country_name":"Philippines","latitude":"6.65917000","longitude":"125.28667000","wikiDataId":"Q31812176"},{"id":83445,"Name":"Malita","state_id":1340,"state_code":"11","state_name":"Davao Region","country_id":174,"country_code":"PH","country_name":"Philippines","latitude":"6.41500000","longitude":"125.61167000","wikiDataId":"Q31812183"},{"id":83471,"Name":"Mambago","state_id":1340,"state_code":"11","state_name":"Davao Region","country_id":174,"country_code":"PH","country_name":"Philippines","latitude":"7.10556000","longitude":"125.69444000","wikiDataId":"Q31812207"},{"id":83484,"Name":"Managa","state_id":1340,"state_code":"11","state_name":"Davao Region","country_id":174,"country_code":"PH","country_name":"Philippines","latitude":"6.74611000","longitude":"125.26806000","wikiDataId":"Q31812218"},{"id":83487,"Name":"Manaloal","state_id":1340,"state_code":"11","state_name":"Davao Region","country_id":174,"country_code":"PH","country_name":"Philippines","latitude":"7.36611000","longitude":"125.66028000","wikiDataId":"Q31812221"},{"id":83495,"Name":"Manat","state_id":1340,"state_code":"11","state_name":"Davao Region","country_id":174,"country_code":"PH","country_name":"Philippines","latitude":"7.53270000","longitude":"126.01730000","wikiDataId":"Q31812228"},{"id":83499,"Name":"Manay","state_id":1340,"state_code":"11","state_name":"Davao Region","country_id":174,"country_code":"PH","country_name":"Philippines","latitude":"7.21500000","longitude":"126.53972000","wikiDataId":"Q314671"},{"id":83517,"Name":"Mangili","state_id":1340,"state_code":"11","state_name":"Davao Region","country_id":174,"country_code":"PH","country_name":"Philippines","latitude":"6.00333000","longitude":"125.68389000","wikiDataId":"Q31812250"},{"id":83523,"Name":"Manikling","state_id":1340,"state_code":"11","state_name":"Davao Region","country_id":174,"country_code":"PH","country_name":"Philippines","latitude":"6.87907000","longitude":"126.06063000","wikiDataId":"Q31812257"},{"id":83618,"Name":"Matanao","state_id":1340,"state_code":"11","state_name":"Davao Region","country_id":174,"country_code":"PH","country_name":"Philippines","latitude":"6.67917000","longitude":"125.25500000","wikiDataId":"Q314923"},{"id":83625,"Name":"Mati","state_id":1340,"state_code":"11","state_name":"Davao Region","country_id":174,"country_code":"PH","country_name":"Philippines","latitude":"6.95508000","longitude":"126.21655000","wikiDataId":"Q314686"},{"id":83626,"Name":"Matiao","state_id":1340,"state_code":"11","state_name":"Davao Region","country_id":174,"country_code":"PH","country_name":"Philippines","latitude":"7.08280000","longitude":"125.93620000","wikiDataId":"Q31812346"},{"id":83632,"Name":"Matti","state_id":1340,"state_code":"11","state_name":"Davao Region","country_id":174,"country_code":"PH","country_name":"Philippines","latitude":"6.77056000","longitude":"125.30861000","wikiDataId":"Q31812357"},{"id":83641,"Name":"Mawab","state_id":1340,"state_code":"11","state_name":"Davao Region","country_id":174,"country_code":"PH","country_name":"Philippines","latitude":"7.56667000","longitude":"125.98333000","wikiDataId":"Q315524"},{"id":83651,"Name":"Mayo","state_id":1340,"state_code":"11","state_name":"Davao Region","country_id":174,"country_code":"PH","country_name":"Philippines","latitude":"7.00211000","longitude":"126.33198000","wikiDataId":"Q31812376"},{"id":83702,"Name":"Monkayo","state_id":1340,"state_code":"11","state_name":"Davao Region","country_id":174,"country_code":"PH","country_name":"Philippines","latitude":"7.81528000","longitude":"126.05444000","wikiDataId":"Q315543"},{"id":83707,"Name":"Montevista","state_id":1340,"state_code":"11","state_name":"Davao Region","country_id":174,"country_code":"PH","country_name":"Philippines","latitude":"7.69333000","longitude":"125.98889000","wikiDataId":"Q315557"},{"id":83739,"Name":"Nabunturan","state_id":1340,"state_code":"11","state_name":"Davao Region","country_id":174,"country_code":"PH","country_name":"Philippines","latitude":"7.60778000","longitude":"125.96639000","wikiDataId":"Q315570"},{"id":83772,"Name":"Nangan","state_id":1340,"state_code":"11","state_name":"Davao Region","country_id":174,"country_code":"PH","country_name":"Philippines","latitude":"6.47264000","longitude":"126.12438000","wikiDataId":"Q31812567"},{"id":83775,"Name":"Nanyo","state_id":1340,"state_code":"11","state_name":"Davao Region","country_id":174,"country_code":"PH","country_name":"Philippines","latitude":"7.33306000","longitude":"125.63778000","wikiDataId":"Q31812578"},{"id":83801,"Name":"New Baclayon","state_id":1340,"state_code":"11","state_name":"Davao Region","country_id":174,"country_code":"PH","country_name":"Philippines","latitude":"6.58417000","longitude":"125.36944000","wikiDataId":"Q31812609"},{"id":83803,"Name":"New Bohol","state_id":1340,"state_code":"11","state_name":"Davao Region","country_id":174,"country_code":"PH","country_name":"Philippines","latitude":"7.52330000","longitude":"125.83630000","wikiDataId":"Q31812611"},{"id":83805,"Name":"New Corella","state_id":1340,"state_code":"11","state_name":"Davao Region","country_id":174,"country_code":"PH","country_name":"Philippines","latitude":"7.58660000","longitude":"125.82370000","wikiDataId":"Q314452"},{"id":83808,"Name":"New Leyte","state_id":1340,"state_code":"11","state_name":"Davao Region","country_id":174,"country_code":"PH","country_name":"Philippines","latitude":"7.50000000","longitude":"125.75000000","wikiDataId":"Q31812621"},{"id":83811,"Name":"New Sibonga","state_id":1340,"state_code":"11","state_name":"Davao Region","country_id":174,"country_code":"PH","country_name":"Philippines","latitude":"7.56090000","longitude":"125.92980000","wikiDataId":"Q31812630"},{"id":83812,"Name":"New Visayas","state_id":1340,"state_code":"11","state_name":"Davao Region","country_id":174,"country_code":"PH","country_name":"Philippines","latitude":"7.52333000","longitude":"125.62333000","wikiDataId":"Q31812634"},{"id":83830,"Name":"Nuing","state_id":1340,"state_code":"11","state_name":"Davao Region","country_id":174,"country_code":"PH","country_name":"Philippines","latitude":"5.63278000","longitude":"125.43528000","wikiDataId":"Q31812675"},{"id":83876,"Name":"Padada","state_id":1340,"state_code":"11","state_name":"Davao Region","country_id":174,"country_code":"PH","country_name":"Philippines","latitude":"6.64111000","longitude":"125.34500000","wikiDataId":"Q314944"},{"id":83886,"Name":"Pag-asa","state_id":1340,"state_code":"11","state_name":"Davao Region","country_id":174,"country_code":"PH","country_name":"Philippines","latitude":"7.57556000","longitude":"125.68389000","wikiDataId":"Q31457286"},{"id":83894,"Name":"Pagsabangan","state_id":1340,"state_code":"11","state_name":"Davao Region","country_id":174,"country_code":"PH","country_name":"Philippines","latitude":"7.48111000","longitude":"125.74944000","wikiDataId":"Q31457798"},{"id":83926,"Name":"Palma Gil","state_id":1340,"state_code":"11","state_name":"Davao Region","country_id":174,"country_code":"PH","country_name":"Philippines","latitude":"7.64222000","longitude":"125.62917000","wikiDataId":"Q31458384"},{"id":83943,"Name":"Panabo","state_id":1340,"state_code":"11","state_name":"Davao Region","country_id":174,"country_code":"PH","country_name":"Philippines","latitude":"7.30806000","longitude":"125.68417000","wikiDataId":"Q967367"},{"id":83964,"Name":"Pandasan","state_id":1340,"state_code":"11","state_name":"Davao Region","country_id":174,"country_code":"PH","country_name":"Philippines","latitude":"7.28380000","longitude":"125.85350000","wikiDataId":"Q31461659"},{"id":83977,"Name":"Pangian","state_id":1340,"state_code":"11","state_name":"Davao Region","country_id":174,"country_code":"PH","country_name":"Philippines","latitude":"6.46278000","longitude":"125.54528000","wikiDataId":"Q31461924"},{"id":83985,"Name":"Panikian","state_id":1340,"state_code":"11","state_name":"Davao Region","country_id":174,"country_code":"PH","country_name":"Philippines","latitude":"7.01070000","longitude":"126.02418000","wikiDataId":"Q31462184"},{"id":84005,"Name":"Pantukan","state_id":1340,"state_code":"11","state_name":"Davao Region","country_id":174,"country_code":"PH","country_name":"Philippines","latitude":"7.16333000","longitude":"125.89917000","wikiDataId":"Q315598"},{"id":84028,"Name":"Pasian","state_id":1340,"state_code":"11","state_name":"Davao Region","country_id":174,"country_code":"PH","country_name":"Philippines","latitude":"7.92806000","longitude":"126.06722000","wikiDataId":"Q31463833"},{"id":84156,"Name":"Pondaguitan","state_id":1340,"state_code":"11","state_name":"Davao Region","country_id":174,"country_code":"PH","country_name":"Philippines","latitude":"6.36115000","longitude":"126.17778000","wikiDataId":"Q31474665"},{"id":84205,"Name":"Province of Davao del Norte","state_id":1340,"state_code":"11","state_name":"Davao Region","country_id":174,"country_code":"PH","country_name":"Philippines","latitude":"7.45099000","longitude":"125.81543000","wikiDataId":"Q13792"},{"id":84206,"Name":"Province of Davao del Sur","state_id":1340,"state_code":"11","state_name":"Davao Region","country_id":174,"country_code":"PH","country_name":"Philippines","latitude":"6.79281000","longitude":"125.30182000","wikiDataId":"Q13794"},{"id":84204,"Name":"Province of Davao Oriental","state_id":1340,"state_code":"11","state_name":"Davao Region","country_id":174,"country_code":"PH","country_name":"Philippines","latitude":"7.16667000","longitude":"126.33333000","wikiDataId":"Q13806"},{"id":84277,"Name":"Pung-Pang","state_id":1340,"state_code":"11","state_name":"Davao Region","country_id":174,"country_code":"PH","country_name":"Philippines","latitude":"6.49750000","longitude":"125.46333000","wikiDataId":"Q31480296"},{"id":84424,"Name":"Samal","state_id":1340,"state_code":"11","state_name":"Davao Region","country_id":174,"country_code":"PH","country_name":"Philippines","latitude":"7.07444000","longitude":"125.70833000","wikiDataId":"Q1020674"},{"id":84434,"Name":"Sampao","state_id":1340,"state_code":"11","state_name":"Davao Region","country_id":174,"country_code":"PH","country_name":"Philippines","latitude":"7.59389000","longitude":"125.66111000","wikiDataId":"Q31501215"},{"id":84441,"Name":"San Alfonso","state_id":1340,"state_code":"11","state_name":"Davao Region","country_id":174,"country_code":"PH","country_name":"Philippines","latitude":"7.78028000","longitude":"126.42028000","wikiDataId":"Q31501627"},{"id":84449,"Name":"San Antonio","state_id":1340,"state_code":"11","state_name":"Davao Region","country_id":174,"country_code":"PH","country_name":"Philippines","latitude":"7.12000000","longitude":"125.73972000","wikiDataId":"Q31502038"},{"id":84496,"Name":"San Ignacio","state_id":1340,"state_code":"11","state_name":"Davao Region","country_id":174,"country_code":"PH","country_name":"Philippines","latitude":"7.11890000","longitude":"126.48838000","wikiDataId":"Q31503998"},{"id":84539,"Name":"San Luis","state_id":1340,"state_code":"11","state_name":"Davao Region","country_id":174,"country_code":"PH","country_name":"Philippines","latitude":"7.44139000","longitude":"126.55111000","wikiDataId":"Q31505971"},{"id":84551,"Name":"San Mariano","state_id":1340,"state_code":"11","state_name":"Davao Region","country_id":174,"country_code":"PH","country_name":"Philippines","latitude":"7.50000000","longitude":"126.00000000","wikiDataId":"Q50167"},{"id":84561,"Name":"San Miguel","state_id":1340,"state_code":"11","state_name":"Davao Region","country_id":174,"country_code":"PH","country_name":"Philippines","latitude":"7.48500000","longitude":"125.67639000","wikiDataId":"Q31506584"},{"id":84584,"Name":"San Pedro","state_id":1340,"state_code":"11","state_name":"Davao Region","country_id":174,"country_code":"PH","country_name":"Philippines","latitude":"7.34194000","longitude":"126.51750000","wikiDataId":"Q31507397"},{"id":84598,"Name":"San Rafael","state_id":1340,"state_code":"11","state_name":"Davao Region","country_id":174,"country_code":"PH","country_name":"Philippines","latitude":"7.76389000","longitude":"126.45583000","wikiDataId":"Q31507722"},{"id":84603,"Name":"San Remigio","state_id":1340,"state_code":"11","state_name":"Davao Region","country_id":174,"country_code":"PH","country_name":"Philippines","latitude":"6.92306000","longitude":"125.77583000","wikiDataId":"Q31507919"},{"id":84656,"Name":"Santa Cruz","state_id":1340,"state_code":"11","state_name":"Davao Region","country_id":174,"country_code":"PH","country_name":"Philippines","latitude":"6.83694000","longitude":"125.41306000","wikiDataId":"Q314965"},{"id":84688,"Name":"Santa Maria","state_id":1340,"state_code":"11","state_name":"Davao Region","country_id":174,"country_code":"PH","country_name":"Philippines","latitude":"6.55361000","longitude":"125.47083000","wikiDataId":"Q314980"},{"id":84710,"Name":"Santiago","state_id":1340,"state_code":"11","state_name":"Davao Region","country_id":174,"country_code":"PH","country_name":"Philippines","latitude":"7.28889000","longitude":"126.57333000","wikiDataId":"Q31512316"},{"id":84728,"Name":"Santo Niño","state_id":1340,"state_code":"11","state_name":"Davao Region","country_id":174,"country_code":"PH","country_name":"Philippines","latitude":"7.62361000","longitude":"125.62528000","wikiDataId":"Q31512763"},{"id":84749,"Name":"Sarangani","state_id":1340,"state_code":"11","state_name":"Davao Region","country_id":174,"country_code":"PH","country_name":"Philippines","latitude":"5.40333000","longitude":"125.46361000","wikiDataId":"Q275368"},{"id":84776,"Name":"Sibulan","state_id":1340,"state_code":"11","state_name":"Davao Region","country_id":174,"country_code":"PH","country_name":"Philippines","latitude":"6.93361000","longitude":"125.46222000","wikiDataId":"Q31518654"},{"id":84784,"Name":"Sigaboy","state_id":1340,"state_code":"11","state_name":"Davao Region","country_id":174,"country_code":"PH","country_name":"Philippines","latitude":"6.65413000","longitude":"126.07268000","wikiDataId":"Q314632"},{"id":84803,"Name":"Simod","state_id":1340,"state_code":"11","state_name":"Davao Region","country_id":174,"country_code":"PH","country_name":"Philippines","latitude":"7.47583000","longitude":"125.34083000","wikiDataId":"Q31520487"},{"id":84811,"Name":"Sinawilan","state_id":1340,"state_code":"11","state_name":"Davao Region","country_id":174,"country_code":"PH","country_name":"Philippines","latitude":"6.75444000","longitude":"125.24639000","wikiDataId":"Q31520851"},{"id":84812,"Name":"Sinayawan","state_id":1340,"state_code":"11","state_name":"Davao Region","country_id":174,"country_code":"PH","country_name":"Philippines","latitude":"6.71250000","longitude":"125.30944000","wikiDataId":"Q31520866"},{"id":84829,"Name":"Sirib","state_id":1340,"state_code":"11","state_name":"Davao Region","country_id":174,"country_code":"PH","country_name":"Philippines","latitude":"7.13333000","longitude":"125.40722000","wikiDataId":"Q31521467"},{"id":84858,"Name":"Sugal","state_id":1340,"state_code":"11","state_name":"Davao Region","country_id":174,"country_code":"PH","country_name":"Philippines","latitude":"5.66222000","longitude":"125.46167000","wikiDataId":"Q31536125"},{"id":84870,"Name":"Sulop","state_id":1340,"state_code":"11","state_name":"Davao Region","country_id":174,"country_code":"PH","country_name":"Philippines","latitude":"6.59861000","longitude":"125.34361000","wikiDataId":"Q315014"},{"id":84883,"Name":"Surup","state_id":1340,"state_code":"11","state_name":"Davao Region","country_id":174,"country_code":"PH","country_name":"Philippines","latitude":"6.39035000","longitude":"126.14558000","wikiDataId":"Q31538817"},{"id":84887,"Name":"Suz-on","state_id":1340,"state_code":"11","state_name":"Davao Region","country_id":174,"country_code":"PH","country_name":"Philippines","latitude":"7.66278000","longitude":"125.63833000","wikiDataId":"Q31539258"},{"id":84926,"Name":"Tagakpan","state_id":1340,"state_code":"11","state_name":"Davao Region","country_id":174,"country_code":"PH","country_name":"Philippines","latitude":"7.11278000","longitude":"125.42917000","wikiDataId":"Q31541883"},{"id":84941,"Name":"Tagdanua","state_id":1340,"state_code":"11","state_name":"Davao Region","country_id":174,"country_code":"PH","country_name":"Philippines","latitude":"7.20430000","longitude":"125.88410000","wikiDataId":"Q31542296"},{"id":84943,"Name":"Tagnanan","state_id":1340,"state_code":"11","state_name":"Davao Region","country_id":174,"country_code":"PH","country_name":"Philippines","latitude":"7.28361000","longitude":"125.84222000","wikiDataId":"Q31542396"},{"id":84956,"Name":"Takub","state_id":1340,"state_code":"11","state_name":"Davao Region","country_id":174,"country_code":"PH","country_name":"Philippines","latitude":"6.85639000","longitude":"125.42250000","wikiDataId":"Q31543004"},{"id":84964,"Name":"Talagutong","state_id":1340,"state_code":"11","state_name":"Davao Region","country_id":174,"country_code":"PH","country_name":"Philippines","latitude":"6.26444000","longitude":"125.66778000","wikiDataId":"Q314796"},{"id":84983,"Name":"Talisay","state_id":1340,"state_code":"11","state_name":"Davao Region","country_id":174,"country_code":"PH","country_name":"Philippines","latitude":"6.71973000","longitude":"126.09998000","wikiDataId":"Q31543832"},{"id":84991,"Name":"Talomo","state_id":1340,"state_code":"11","state_name":"Davao Region","country_id":174,"country_code":"PH","country_name":"Philippines","latitude":"7.52861000","longitude":"125.72278000","wikiDataId":"Q31544394"},{"id":85003,"Name":"Tamayong","state_id":1340,"state_code":"11","state_name":"Davao Region","country_id":174,"country_code":"PH","country_name":"Philippines","latitude":"7.13306000","longitude":"125.37972000","wikiDataId":"Q31544703"},{"id":85011,"Name":"Tambo","state_id":1340,"state_code":"11","state_name":"Davao Region","country_id":174,"country_code":"PH","country_name":"Philippines","latitude":"7.15694000","longitude":"125.69917000","wikiDataId":"Q31544915"},{"id":85015,"Name":"Tamisan","state_id":1340,"state_code":"11","state_name":"Davao Region","country_id":174,"country_code":"PH","country_name":"Philippines","latitude":"6.84372000","longitude":"126.29838000","wikiDataId":"Q31545031"},{"id":85027,"Name":"Tamugan","state_id":1340,"state_code":"11","state_name":"Davao Region","country_id":174,"country_code":"PH","country_name":"Philippines","latitude":"7.23083000","longitude":"125.37639000","wikiDataId":"Q31545301"},{"id":85040,"Name":"Tanlad","state_id":1340,"state_code":"11","state_name":"Davao Region","country_id":174,"country_code":"PH","country_name":"Philippines","latitude":"6.60222000","longitude":"125.44500000","wikiDataId":"Q31545855"},{"id":85050,"Name":"Tapia","state_id":1340,"state_code":"11","state_name":"Davao Region","country_id":174,"country_code":"PH","country_name":"Philippines","latitude":"7.75417000","longitude":"126.01194000","wikiDataId":"Q31546325"},{"id":85060,"Name":"Tarragona","state_id":1340,"state_code":"11","state_name":"Davao Region","country_id":174,"country_code":"PH","country_name":"Philippines","latitude":"7.04910000","longitude":"126.44708000","wikiDataId":"Q314745"},{"id":85067,"Name":"Tawan tawan","state_id":1340,"state_code":"11","state_name":"Davao Region","country_id":174,"country_code":"PH","country_name":"Philippines","latitude":"7.16917000","longitude":"125.37278000","wikiDataId":"Q31547669"},{"id":85078,"Name":"Taytayan","state_id":1340,"state_code":"11","state_name":"Davao Region","country_id":174,"country_code":"PH","country_name":"Philippines","latitude":"7.73389000","longitude":"126.50194000","wikiDataId":"Q31548727"},{"id":85093,"Name":"Tibagon","state_id":1340,"state_code":"11","state_name":"Davao Region","country_id":174,"country_code":"PH","country_name":"Philippines","latitude":"7.23270000","longitude":"125.86280000","wikiDataId":"Q31555005"},{"id":85094,"Name":"Tibanbang","state_id":1340,"state_code":"11","state_name":"Davao Region","country_id":174,"country_code":"PH","country_name":"Philippines","latitude":"6.63153000","longitude":"126.10548000","wikiDataId":"Q31555021"},{"id":85097,"Name":"Tiblawan","state_id":1340,"state_code":"11","state_name":"Davao Region","country_id":174,"country_code":"PH","country_name":"Philippines","latitude":"6.47834000","longitude":"126.10828000","wikiDataId":"Q31555120"},{"id":85163,"Name":"Tombongon","state_id":1340,"state_code":"11","state_name":"Davao Region","country_id":174,"country_code":"PH","country_name":"Philippines","latitude":"7.07920000","longitude":"125.94860000","wikiDataId":"Q31558656"},{"id":85182,"Name":"Tubalan","state_id":1340,"state_code":"11","state_name":"Davao Region","country_id":174,"country_code":"PH","country_name":"Philippines","latitude":"6.49500000","longitude":"125.56611000","wikiDataId":"Q31562070"},{"id":85184,"Name":"Tuban","state_id":1340,"state_code":"11","state_name":"Davao Region","country_id":174,"country_code":"PH","country_name":"Philippines","latitude":"6.82278000","longitude":"125.38694000","wikiDataId":"Q31562103"},{"id":85193,"Name":"Tubod","state_id":1340,"state_code":"11","state_name":"Davao Region","country_id":174,"country_code":"PH","country_name":"Philippines","latitude":"7.37167000","longitude":"125.64472000","wikiDataId":"Q31562475"},{"id":85206,"Name":"Tuganay","state_id":1340,"state_code":"11","state_name":"Davao Region","country_id":174,"country_code":"PH","country_name":"Philippines","latitude":"7.36889000","longitude":"125.72306000","wikiDataId":"Q31562974"},{"id":85217,"Name":"Tuli","state_id":1340,"state_code":"11","state_name":"Davao Region","country_id":174,"country_code":"PH","country_name":"Philippines","latitude":"7.23333000","longitude":"125.41667000","wikiDataId":"Q31563411"},{"id":85245,"Name":"Ula","state_id":1340,"state_code":"11","state_name":"Davao Region","country_id":174,"country_code":"PH","country_name":"Philippines","latitude":"7.13222000","longitude":"125.49222000","wikiDataId":"Q31567520"},{"id":85315,"Name":"Wañgan","state_id":1340,"state_code":"11","state_name":"Davao Region","country_id":174,"country_code":"PH","country_name":"Philippines","latitude":"7.15972000","longitude":"125.44528000","wikiDataId":"Q31580310"},{"id":85316,"Name":"Wines","state_id":1340,"state_code":"11","state_name":"Davao Region","country_id":174,"country_code":"PH","country_name":"Philippines","latitude":"7.19389000","longitude":"125.38917000","wikiDataId":"Q31590994"}]