[{"id":107356,"Name":"Bilecik","state_id":2221,"state_code":"11","state_name":"Bilecik","country_id":225,"country_code":"TR","country_name":"Turkey","latitude":"40.14192000","longitude":"29.97932000","wikiDataId":"Q208006"},{"id":107393,"Name":"Bozüyük","state_id":2221,"state_code":"11","state_name":"Bilecik","country_id":225,"country_code":"TR","country_name":"Turkey","latitude":"39.90778000","longitude":"30.03667000","wikiDataId":"Q896218"},{"id":107505,"Name":"Dodurga","state_id":2221,"state_code":"11","state_name":"Bilecik","country_id":225,"country_code":"TR","country_name":"Turkey","latitude":"39.79972000","longitude":"29.91722000","wikiDataId":"Q1155008"},{"id":107702,"Name":"Gölpazarı","state_id":2221,"state_code":"11","state_name":"Bilecik","country_id":225,"country_code":"TR","country_name":"Turkey","latitude":"40.28472000","longitude":"30.31722000","wikiDataId":"Q1258883"},{"id":108903,"Name":"İnhisar","state_id":2221,"state_code":"11","state_name":"Bilecik","country_id":225,"country_code":"TR","country_name":"Turkey","latitude":"40.04932000","longitude":"30.38521000","wikiDataId":"Q343973"},{"id":108086,"Name":"Küplü","state_id":2221,"state_code":"11","state_name":"Bilecik","country_id":225,"country_code":"TR","country_name":"Turkey","latitude":"40.09837000","longitude":"30.00010000","wikiDataId":"Q993688"},{"id":108291,"Name":"Osmaneli","state_id":2221,"state_code":"11","state_name":"Bilecik","country_id":225,"country_code":"TR","country_name":"Turkey","latitude":"40.35722000","longitude":"30.01417000","wikiDataId":"Q1014135"},{"id":108329,"Name":"Pazaryeri","state_id":2221,"state_code":"11","state_name":"Bilecik","country_id":225,"country_code":"TR","country_name":"Turkey","latitude":"39.99395000","longitude":"29.90424000","wikiDataId":"Q2671066"},{"id":108518,"Name":"Söğüt İlçesi","state_id":2221,"state_code":"11","state_name":"Bilecik","country_id":225,"country_code":"TR","country_name":"Turkey","latitude":"40.02479000","longitude":"30.17300000","wikiDataId":"Q1004566"},{"id":108650,"Name":"Vezirhan","state_id":2221,"state_code":"11","state_name":"Bilecik","country_id":225,"country_code":"TR","country_name":"Turkey","latitude":"40.24472000","longitude":"30.02000000","wikiDataId":"Q7924250"},{"id":108705,"Name":"Yenipazar","state_id":2221,"state_code":"11","state_name":"Bilecik","country_id":225,"country_code":"TR","country_name":"Turkey","latitude":"40.17833000","longitude":"30.52000000","wikiDataId":"Q3056035"}]