[{"id":54415,"Name":"Brestovac","state_id":724,"state_code":"11","state_name":"Požega-Slavonia County","country_id":55,"country_code":"HR","country_name":"Croatia","latitude":"45.33056000","longitude":"17.59694000","wikiDataId":"Q910430"},{"id":54541,"Name":"Grad Pakrac","state_id":724,"state_code":"11","state_name":"Požega-Slavonia County","country_id":55,"country_code":"HR","country_name":"Croatia","latitude":"45.43333000","longitude":"17.20000000","wikiDataId":"Q1640"},{"id":54545,"Name":"Grad Požega","state_id":724,"state_code":"11","state_name":"Požega-Slavonia County","country_id":55,"country_code":"HR","country_name":"Croatia","latitude":"45.33333000","longitude":"17.66667000","wikiDataId":"Q1640"},{"id":54612,"Name":"Jakšić","state_id":724,"state_code":"11","state_name":"Požega-Slavonia County","country_id":55,"country_code":"HR","country_name":"Croatia","latitude":"45.35765000","longitude":"17.76502000","wikiDataId":"Q947769"},{"id":54631,"Name":"Kaptol","state_id":724,"state_code":"11","state_name":"Požega-Slavonia County","country_id":55,"country_code":"HR","country_name":"Croatia","latitude":"45.43472000","longitude":"17.72611000","wikiDataId":"Q1284387"},{"id":54677,"Name":"Kutjevo","state_id":724,"state_code":"11","state_name":"Požega-Slavonia County","country_id":55,"country_code":"HR","country_name":"Croatia","latitude":"45.42611000","longitude":"17.88250000","wikiDataId":"Q398139"},{"id":54688,"Name":"Lipik","state_id":724,"state_code":"11","state_name":"Požega-Slavonia County","country_id":55,"country_code":"HR","country_name":"Croatia","latitude":"45.41139000","longitude":"17.15222000","wikiDataId":"Q396595"},{"id":54799,"Name":"Pakrac","state_id":724,"state_code":"11","state_name":"Požega-Slavonia County","country_id":55,"country_code":"HR","country_name":"Croatia","latitude":"45.43639000","longitude":"17.18889000","wikiDataId":"Q1021806"},{"id":54811,"Name":"Pleternica","state_id":724,"state_code":"11","state_name":"Požega-Slavonia County","country_id":55,"country_code":"HR","country_name":"Croatia","latitude":"45.28861000","longitude":"17.80639000","wikiDataId":"Q397633"},{"id":54830,"Name":"Požega","state_id":724,"state_code":"11","state_name":"Požega-Slavonia County","country_id":55,"country_code":"HR","country_name":"Croatia","latitude":"45.34028000","longitude":"17.68528000","wikiDataId":"Q273114"},{"id":54955,"Name":"Velika","state_id":724,"state_code":"11","state_name":"Požega-Slavonia County","country_id":55,"country_code":"HR","country_name":"Croatia","latitude":"45.45444000","longitude":"17.66139000","wikiDataId":"Q1092424"},{"id":54964,"Name":"Vidovci","state_id":724,"state_code":"11","state_name":"Požega-Slavonia County","country_id":55,"country_code":"HR","country_name":"Croatia","latitude":"45.33250000","longitude":"17.71472000","wikiDataId":"Q2239482"}]