[{"id":79675,"Name":"Ågotnes","state_id":1023,"state_code":"12","state_name":"Hordaland","country_id":165,"country_code":"NO","country_name":"Norway","latitude":"60.40306000","longitude":"5.01927000","wikiDataId":"Q2347592"},{"id":79048,"Name":"Askøy","state_id":1023,"state_code":"12","state_name":"Hordaland","country_id":165,"country_code":"NO","country_name":"Norway","latitude":"60.40916000","longitude":"5.22599000","wikiDataId":"Q215374"},{"id":79056,"Name":"Austevoll","state_id":1023,"state_code":"12","state_name":"Hordaland","country_id":165,"country_code":"NO","country_name":"Norway","latitude":"60.09578000","longitude":"5.22722000","wikiDataId":"Q484008"},{"id":79057,"Name":"Austrheim","state_id":1023,"state_code":"12","state_name":"Hordaland","country_id":165,"country_code":"NO","country_name":"Norway","latitude":"60.77742000","longitude":"4.93227000","wikiDataId":"Q484080"},{"id":79069,"Name":"Bergen","state_id":1023,"state_code":"12","state_name":"Hordaland","country_id":165,"country_code":"NO","country_name":"Norway","latitude":"60.39200000","longitude":"5.32800000","wikiDataId":"Q10428388"},{"id":79097,"Name":"Bømlo","state_id":1023,"state_code":"12","state_name":"Hordaland","country_id":165,"country_code":"NO","country_name":"Norway","latitude":"59.79384000","longitude":"5.17624000","wikiDataId":"Q113552"},{"id":79098,"Name":"Dale","state_id":1023,"state_code":"12","state_name":"Hordaland","country_id":165,"country_code":"NO","country_name":"Norway","latitude":"60.58639000","longitude":"5.81888000","wikiDataId":"Q1951189"},{"id":79112,"Name":"Eidfjord","state_id":1023,"state_code":"12","state_name":"Hordaland","country_id":165,"country_code":"NO","country_name":"Norway","latitude":"60.46741000","longitude":"7.06971000","wikiDataId":"Q483977"},{"id":79119,"Name":"Eikelandsosen","state_id":1023,"state_code":"12","state_name":"Hordaland","country_id":165,"country_code":"NO","country_name":"Norway","latitude":"60.24175000","longitude":"5.74433000","wikiDataId":"Q1812223"},{"id":79125,"Name":"Espeland","state_id":1023,"state_code":"12","state_name":"Hordaland","country_id":165,"country_code":"NO","country_name":"Norway","latitude":"60.38249000","longitude":"5.46570000","wikiDataId":"Q2930257"},{"id":79126,"Name":"Etne","state_id":1023,"state_code":"12","state_name":"Hordaland","country_id":165,"country_code":"NO","country_name":"Norway","latitude":"59.66472000","longitude":"5.93438000","wikiDataId":"Q48782"},{"id":79136,"Name":"Fedje","state_id":1023,"state_code":"12","state_name":"Hordaland","country_id":165,"country_code":"NO","country_name":"Norway","latitude":"60.77873000","longitude":"4.71965000","wikiDataId":"Q484213"},{"id":79142,"Name":"Fitjar","state_id":1023,"state_code":"12","state_name":"Hordaland","country_id":165,"country_code":"NO","country_name":"Norway","latitude":"59.91742000","longitude":"5.31637000","wikiDataId":"Q113491"},{"id":79144,"Name":"Fjell","state_id":1023,"state_code":"12","state_name":"Hordaland","country_id":165,"country_code":"NO","country_name":"Norway","latitude":"60.36267000","longitude":"5.12194000","wikiDataId":"Q473529"},{"id":79160,"Name":"Frekhaug","state_id":1023,"state_code":"12","state_name":"Hordaland","country_id":165,"country_code":"NO","country_name":"Norway","latitude":"60.51321000","longitude":"5.24252000","wikiDataId":"Q1779169"},{"id":79166,"Name":"Fusa","state_id":1023,"state_code":"12","state_name":"Hordaland","country_id":165,"country_code":"NO","country_name":"Norway","latitude":"60.24072000","longitude":"5.74458000","wikiDataId":"Q493279"},{"id":79187,"Name":"Granvin","state_id":1023,"state_code":"12","state_name":"Hordaland","country_id":165,"country_code":"NO","country_name":"Norway","latitude":"60.52629000","longitude":"6.72178000","wikiDataId":"Q484186"},{"id":79198,"Name":"Hagavik","state_id":1023,"state_code":"12","state_name":"Hordaland","country_id":165,"country_code":"NO","country_name":"Norway","latitude":"60.18076000","longitude":"5.40146000","wikiDataId":"Q3273415"},{"id":79243,"Name":"Hylkje","state_id":1023,"state_code":"12","state_name":"Hordaland","country_id":165,"country_code":"NO","country_name":"Norway","latitude":"60.51028000","longitude":"5.35444000","wikiDataId":"Q2347371"},{"id":79252,"Name":"Indre Arna","state_id":1023,"state_code":"12","state_name":"Hordaland","country_id":165,"country_code":"NO","country_name":"Norway","latitude":"60.41768000","longitude":"5.47087000","wikiDataId":"Q3356134"},{"id":79258,"Name":"Jondal","state_id":1023,"state_code":"12","state_name":"Hordaland","country_id":165,"country_code":"NO","country_name":"Norway","latitude":"60.27620000","longitude":"6.25257000","wikiDataId":"Q113638"},{"id":79269,"Name":"Kinsarvik","state_id":1023,"state_code":"12","state_name":"Hordaland","country_id":165,"country_code":"NO","country_name":"Norway","latitude":"60.37567000","longitude":"6.71948000","wikiDataId":"Q1779150"},{"id":79277,"Name":"Knappskog","state_id":1023,"state_code":"12","state_name":"Hordaland","country_id":165,"country_code":"NO","country_name":"Norway","latitude":"60.37906000","longitude":"5.05602000","wikiDataId":"Q3398172"},{"id":79279,"Name":"Knarvik","state_id":1023,"state_code":"12","state_name":"Hordaland","country_id":165,"country_code":"NO","country_name":"Norway","latitude":"60.54530000","longitude":"5.28208000","wikiDataId":"Q1016083"},{"id":79291,"Name":"Kvam","state_id":1023,"state_code":"12","state_name":"Hordaland","country_id":165,"country_code":"NO","country_name":"Norway","latitude":"60.36977000","longitude":"6.14344000","wikiDataId":"Q487529"},{"id":79293,"Name":"Kvinnherad","state_id":1023,"state_code":"12","state_name":"Hordaland","country_id":165,"country_code":"NO","country_name":"Norway","latitude":"59.98421000","longitude":"6.01227000","wikiDataId":"Q484070"},{"id":79311,"Name":"Leirvik","state_id":1023,"state_code":"12","state_name":"Hordaland","country_id":165,"country_code":"NO","country_name":"Norway","latitude":"59.77977000","longitude":"5.50051000","wikiDataId":"Q1022729"},{"id":79326,"Name":"Lindås","state_id":1023,"state_code":"12","state_name":"Hordaland","country_id":165,"country_code":"NO","country_name":"Norway","latitude":"60.54910000","longitude":"5.28559000","wikiDataId":"Q113682"},{"id":79328,"Name":"Lonevåg","state_id":1023,"state_code":"12","state_name":"Hordaland","country_id":165,"country_code":"NO","country_name":"Norway","latitude":"60.52556000","longitude":"5.49563000","wikiDataId":"Q1776445"},{"id":79351,"Name":"Manger","state_id":1023,"state_code":"12","state_name":"Hordaland","country_id":165,"country_code":"NO","country_name":"Norway","latitude":"60.64145000","longitude":"5.04136000","wikiDataId":"Q669863"},{"id":79354,"Name":"Masfjorden","state_id":1023,"state_code":"12","state_name":"Hordaland","country_id":165,"country_code":"NO","country_name":"Norway","latitude":"60.79947000","longitude":"5.30035000","wikiDataId":"Q48299"},{"id":79357,"Name":"Meland","state_id":1023,"state_code":"12","state_name":"Hordaland","country_id":165,"country_code":"NO","country_name":"Norway","latitude":"60.51777000","longitude":"5.24063000","wikiDataId":"Q488392"},{"id":79367,"Name":"Modalen","state_id":1023,"state_code":"12","state_name":"Hordaland","country_id":165,"country_code":"NO","country_name":"Norway","latitude":"60.81735000","longitude":"5.80790000","wikiDataId":"Q202605"},{"id":79376,"Name":"Mosterhamn","state_id":1023,"state_code":"12","state_name":"Hordaland","country_id":165,"country_code":"NO","country_name":"Norway","latitude":"59.69919000","longitude":"5.38585000","wikiDataId":"Q663354"},{"id":79413,"Name":"Norheimsund","state_id":1023,"state_code":"12","state_name":"Hordaland","country_id":165,"country_code":"NO","country_name":"Norway","latitude":"60.37089000","longitude":"6.14562000","wikiDataId":"Q999333"},{"id":79417,"Name":"Odda","state_id":1023,"state_code":"12","state_name":"Hordaland","country_id":165,"country_code":"NO","country_name":"Norway","latitude":"60.06697000","longitude":"6.54541000","wikiDataId":"Q109494"},{"id":79423,"Name":"Os","state_id":1023,"state_code":"12","state_name":"Hordaland","country_id":165,"country_code":"NO","country_name":"Norway","latitude":"60.18547000","longitude":"5.46962000","wikiDataId":"Q493936"},{"id":79426,"Name":"Osterøy","state_id":1023,"state_code":"12","state_name":"Hordaland","country_id":165,"country_code":"NO","country_name":"Norway","latitude":"60.52389000","longitude":"5.50551000","wikiDataId":"Q488067"},{"id":79702,"Name":"Øygarden","state_id":1023,"state_code":"12","state_name":"Hordaland","country_id":165,"country_code":"NO","country_name":"Norway","latitude":"60.59041000","longitude":"4.83890000","wikiDataId":"Q317321"},{"id":79703,"Name":"Øystese","state_id":1023,"state_code":"12","state_name":"Hordaland","country_id":165,"country_code":"NO","country_name":"Norway","latitude":"60.38825000","longitude":"6.19251000","wikiDataId":"Q1771861"},{"id":79434,"Name":"Radøy","state_id":1023,"state_code":"12","state_name":"Hordaland","country_id":165,"country_code":"NO","country_name":"Norway","latitude":"60.64187000","longitude":"5.04110000","wikiDataId":"Q488966"},{"id":79457,"Name":"Rosendal","state_id":1023,"state_code":"12","state_name":"Hordaland","country_id":165,"country_code":"NO","country_name":"Norway","latitude":"59.98589000","longitude":"6.01157000","wikiDataId":"Q736489"},{"id":79459,"Name":"Rubbestadneset","state_id":1023,"state_code":"12","state_name":"Hordaland","country_id":165,"country_code":"NO","country_name":"Norway","latitude":"59.81559000","longitude":"5.26822000","wikiDataId":"Q2112605"},{"id":79473,"Name":"Sagvåg","state_id":1023,"state_code":"12","state_name":"Hordaland","country_id":165,"country_code":"NO","country_name":"Norway","latitude":"59.78139000","longitude":"5.38996000","wikiDataId":"Q1890945"},{"id":79476,"Name":"Samnanger","state_id":1023,"state_code":"12","state_name":"Hordaland","country_id":165,"country_code":"NO","country_name":"Norway","latitude":"60.37745000","longitude":"5.76219000","wikiDataId":"Q488234"},{"id":79485,"Name":"Sandsli","state_id":1023,"state_code":"12","state_name":"Hordaland","country_id":165,"country_code":"NO","country_name":"Norway","latitude":"60.30323000","longitude":"5.28554000","wikiDataId":"Q1004686"},{"id":79517,"Name":"Skogsvågen","state_id":1023,"state_code":"12","state_name":"Hordaland","country_id":165,"country_code":"NO","country_name":"Norway","latitude":"60.25512000","longitude":"5.10161000","wikiDataId":"Q11517342"},{"id":79548,"Name":"Stord","state_id":1023,"state_code":"12","state_name":"Hordaland","country_id":165,"country_code":"NO","country_name":"Norway","latitude":"59.78092000","longitude":"5.49980000","wikiDataId":"Q485253"},{"id":79550,"Name":"Storebø","state_id":1023,"state_code":"12","state_name":"Hordaland","country_id":165,"country_code":"NO","country_name":"Norway","latitude":"60.09485000","longitude":"5.22705000","wikiDataId":"Q2204280"},{"id":79558,"Name":"Straume","state_id":1023,"state_code":"12","state_name":"Hordaland","country_id":165,"country_code":"NO","country_name":"Norway","latitude":"60.36131000","longitude":"5.12199000","wikiDataId":"Q4581188"},{"id":79564,"Name":"Sund","state_id":1023,"state_code":"12","state_name":"Hordaland","country_id":165,"country_code":"NO","country_name":"Norway","latitude":"60.27019000","longitude":"5.07225000","wikiDataId":"Q507509"},{"id":79568,"Name":"Sveio","state_id":1023,"state_code":"12","state_name":"Hordaland","country_id":165,"country_code":"NO","country_name":"Norway","latitude":"59.54303000","longitude":"5.35410000","wikiDataId":"Q48518"},{"id":79572,"Name":"Syfteland","state_id":1023,"state_code":"12","state_name":"Hordaland","country_id":165,"country_code":"NO","country_name":"Norway","latitude":"60.23803000","longitude":"5.45285000","wikiDataId":"Q2680384"},{"id":79617,"Name":"Tysnes","state_id":1023,"state_code":"12","state_name":"Hordaland","country_id":165,"country_code":"NO","country_name":"Norway","latitude":"60.04076000","longitude":"5.53129000","wikiDataId":"Q48316"},{"id":79622,"Name":"Ullensvang","state_id":1023,"state_code":"12","state_name":"Hordaland","country_id":165,"country_code":"NO","country_name":"Norway","latitude":"60.37501000","longitude":"6.72073000","wikiDataId":"Q484077"},{"id":79626,"Name":"Ulvik","state_id":1023,"state_code":"12","state_name":"Hordaland","country_id":165,"country_code":"NO","country_name":"Norway","latitude":"60.56719000","longitude":"6.91871000","wikiDataId":"Q487711"},{"id":79629,"Name":"Vaksdal","state_id":1023,"state_code":"12","state_name":"Hordaland","country_id":165,"country_code":"NO","country_name":"Norway","latitude":"60.59030000","longitude":"5.82272000","wikiDataId":"Q48928"},{"id":79662,"Name":"Voss","state_id":1023,"state_code":"12","state_name":"Hordaland","country_id":165,"country_code":"NO","country_name":"Norway","latitude":"60.62780000","longitude":"6.41831000","wikiDataId":"Q109031"},{"id":79670,"Name":"Ytre Arna","state_id":1023,"state_code":"12","state_name":"Hordaland","country_id":165,"country_code":"NO","country_name":"Norway","latitude":"60.46175000","longitude":"5.43265000","wikiDataId":"Q3187118"},{"id":79671,"Name":"Ytrebygda","state_id":1023,"state_code":"12","state_name":"Hordaland","country_id":165,"country_code":"NO","country_name":"Norway","latitude":"60.30504000","longitude":"5.28236000","wikiDataId":"Q3187118"}]