[{"id":109142,"Name":"Lindi","state_id":1483,"state_code":"12","state_name":"Lindi","country_id":218,"country_code":"TZ","country_name":"Tanzania","latitude":"-9.99709000","longitude":"39.71649000","wikiDataId":"Q829886"},{"id":109187,"Name":"Mbekenyera","state_id":1483,"state_code":"12","state_name":"Lindi","country_id":218,"country_code":"TZ","country_name":"Tanzania","latitude":"-10.00000000","longitude":"38.98333000","wikiDataId":"Q13124009"},{"id":109198,"Name":"Mingoyo","state_id":1483,"state_code":"12","state_name":"Lindi","country_id":218,"country_code":"TZ","country_name":"Tanzania","latitude":"-10.10526000","longitude":"39.61859000","wikiDataId":"Q6850269"},{"id":109214,"Name":"Mtama","state_id":1483,"state_code":"12","state_name":"Lindi","country_id":218,"country_code":"TZ","country_name":"Tanzania","latitude":"-10.30000000","longitude":"39.36667000","wikiDataId":"Q13124271"},{"id":109235,"Name":"Nachingwea","state_id":1483,"state_code":"12","state_name":"Lindi","country_id":218,"country_code":"TZ","country_name":"Tanzania","latitude":"-10.37250000","longitude":"38.76251000","wikiDataId":"Q13124414"},{"id":109266,"Name":"Nyangao","state_id":1483,"state_code":"12","state_name":"Lindi","country_id":218,"country_code":"TZ","country_name":"Tanzania","latitude":"-10.33333000","longitude":"39.28333000","wikiDataId":"Q20622671"},{"id":109272,"Name":"Ruangwa","state_id":1483,"state_code":"12","state_name":"Lindi","country_id":218,"country_code":"TZ","country_name":"Tanzania","latitude":"-10.06667000","longitude":"38.93333000","wikiDataId":"Q1851848"}]