[{"id":62304,"Name":"Alligator Pond","state_id":3754,"state_code":"12","state_name":"Manchester Parish","country_id":108,"country_code":"JM","country_name":"Jamaica","latitude":"17.88369000","longitude":"-77.56068000","wikiDataId":"Q4732659"},{"id":62321,"Name":"Asia/Pratville","state_id":3754,"state_code":"12","state_name":"Manchester Parish","country_id":108,"country_code":"JM","country_name":"Jamaica","latitude":"17.91584000","longitude":"-77.41563000","wikiDataId":"Q567350"},{"id":62323,"Name":"Auchtembeddie","state_id":3754,"state_code":"12","state_name":"Manchester Parish","country_id":108,"country_code":"JM","country_name":"Jamaica","latitude":"18.22543000","longitude":"-77.60361000","wikiDataId":"Q567350"},{"id":62349,"Name":"Bellefield","state_id":3754,"state_code":"12","state_name":"Manchester Parish","country_id":108,"country_code":"JM","country_name":"Jamaica","latitude":"18.09266000","longitude":"-77.44004000","wikiDataId":"Q1880599"},{"id":62354,"Name":"Bethany","state_id":3754,"state_code":"12","state_name":"Manchester Parish","country_id":108,"country_code":"JM","country_name":"Jamaica","latitude":"18.15373000","longitude":"-77.55032000","wikiDataId":"Q1880599"},{"id":62366,"Name":"Blue Mountain","state_id":3754,"state_code":"12","state_name":"Manchester Parish","country_id":108,"country_code":"JM","country_name":"Jamaica","latitude":"18.07095000","longitude":"-77.42840000","wikiDataId":"Q880512"},{"id":62374,"Name":"Bombay","state_id":3754,"state_code":"12","state_name":"Manchester Parish","country_id":108,"country_code":"JM","country_name":"Jamaica","latitude":"18.11780000","longitude":"-77.44940000","wikiDataId":"Q890358"},{"id":62407,"Name":"Butt-Up","state_id":3754,"state_code":"12","state_name":"Manchester Parish","country_id":108,"country_code":"JM","country_name":"Jamaica","latitude":"17.97313000","longitude":"-77.57777000","wikiDataId":"Q1001895"},{"id":62437,"Name":"Cedar Grove","state_id":3754,"state_code":"12","state_name":"Manchester Parish","country_id":108,"country_code":"JM","country_name":"Jamaica","latitude":"18.01225000","longitude":"-77.49630000","wikiDataId":"Q1001895"},{"id":62444,"Name":"Chantilly","state_id":3754,"state_code":"12","state_name":"Manchester Parish","country_id":108,"country_code":"JM","country_name":"Jamaica","latitude":"18.10447000","longitude":"-77.46625000","wikiDataId":"Q1001895"},{"id":62453,"Name":"Christiana","state_id":3754,"state_code":"12","state_name":"Manchester Parish","country_id":108,"country_code":"JM","country_name":"Jamaica","latitude":"18.18015000","longitude":"-77.49045000","wikiDataId":"Q5073143"},{"id":62454,"Name":"Chudleigh","state_id":3754,"state_code":"12","state_name":"Manchester Parish","country_id":108,"country_code":"JM","country_name":"Jamaica","latitude":"18.15148000","longitude":"-77.50707000","wikiDataId":"Q5073143"},{"id":62460,"Name":"Cobbla","state_id":3754,"state_code":"12","state_name":"Manchester Parish","country_id":108,"country_code":"JM","country_name":"Jamaica","latitude":"18.14060000","longitude":"-77.46998000","wikiDataId":"Q5073143"},{"id":62465,"Name":"Coleyville","state_id":3754,"state_code":"12","state_name":"Manchester Parish","country_id":108,"country_code":"JM","country_name":"Jamaica","latitude":"18.19993000","longitude":"-77.51924000","wikiDataId":"Q5073143"},{"id":62467,"Name":"Comfort","state_id":3754,"state_code":"12","state_name":"Manchester Parish","country_id":108,"country_code":"JM","country_name":"Jamaica","latitude":"18.05390000","longitude":"-77.42477000","wikiDataId":"Q5073143"},{"id":62470,"Name":"Comfort Hall","state_id":3754,"state_code":"12","state_name":"Manchester Parish","country_id":108,"country_code":"JM","country_name":"Jamaica","latitude":"18.18789000","longitude":"-77.61041000","wikiDataId":"Q5073143"},{"id":62474,"Name":"Content","state_id":3754,"state_code":"12","state_name":"Manchester Parish","country_id":108,"country_code":"JM","country_name":"Jamaica","latitude":"18.07444000","longitude":"-77.45116000","wikiDataId":"Q1127696"},{"id":62486,"Name":"Craig Head","state_id":3754,"state_code":"12","state_name":"Manchester Parish","country_id":108,"country_code":"JM","country_name":"Jamaica","latitude":"18.23658000","longitude":"-77.56295000","wikiDataId":"Q1127696"},{"id":62492,"Name":"Cross Keys","state_id":3754,"state_code":"12","state_name":"Manchester Parish","country_id":108,"country_code":"JM","country_name":"Jamaica","latitude":"17.90727000","longitude":"-77.50111000","wikiDataId":"Q1127696"},{"id":62510,"Name":"Devon","state_id":3754,"state_code":"12","state_name":"Manchester Parish","country_id":108,"country_code":"JM","country_name":"Jamaica","latitude":"18.16595000","longitude":"-77.52507000","wikiDataId":"Q1166379"},{"id":62517,"Name":"Downs","state_id":3754,"state_code":"12","state_name":"Manchester Parish","country_id":108,"country_code":"JM","country_name":"Jamaica","latitude":"17.95004000","longitude":"-77.57313000","wikiDataId":"Q1166379"},{"id":62536,"Name":"Ellen Street","state_id":3754,"state_code":"12","state_name":"Manchester Parish","country_id":108,"country_code":"JM","country_name":"Jamaica","latitude":"17.96796000","longitude":"-77.43931000","wikiDataId":"Q1265469"},{"id":62543,"Name":"Evergreen","state_id":3754,"state_code":"12","state_name":"Manchester Parish","country_id":108,"country_code":"JM","country_name":"Jamaica","latitude":"18.15096000","longitude":"-77.59965000","wikiDataId":"Q1265469"},{"id":62547,"Name":"Fairfield","state_id":3754,"state_code":"12","state_name":"Manchester Parish","country_id":108,"country_code":"JM","country_name":"Jamaica","latitude":"18.03117000","longitude":"-77.57535000","wikiDataId":"Q1383013"},{"id":62571,"Name":"French Park","state_id":3754,"state_code":"12","state_name":"Manchester Parish","country_id":108,"country_code":"JM","country_name":"Jamaica","latitude":"17.95572000","longitude":"-77.54471000","wikiDataId":"Q1394786"},{"id":62581,"Name":"George's Valley","state_id":3754,"state_code":"12","state_name":"Manchester Parish","country_id":108,"country_code":"JM","country_name":"Jamaica","latitude":"18.03172000","longitude":"-77.48081000","wikiDataId":"Q1394786"},{"id":62595,"Name":"Good Intent","state_id":3754,"state_code":"12","state_name":"Manchester Parish","country_id":108,"country_code":"JM","country_name":"Jamaica","latitude":"18.20806000","longitude":"-77.57086000","wikiDataId":"Q1394786"},{"id":62613,"Name":"Greenvale","state_id":3754,"state_code":"12","state_name":"Manchester Parish","country_id":108,"country_code":"JM","country_name":"Jamaica","latitude":"18.03928000","longitude":"-77.53239000","wikiDataId":"Q1394786"},{"id":62617,"Name":"Grove Place","state_id":3754,"state_code":"12","state_name":"Manchester Parish","country_id":108,"country_code":"JM","country_name":"Jamaica","latitude":"18.10467000","longitude":"-77.52923000","wikiDataId":"Q1394786"},{"id":62618,"Name":"Grove Town","state_id":3754,"state_code":"12","state_name":"Manchester Parish","country_id":108,"country_code":"JM","country_name":"Jamaica","latitude":"17.88606000","longitude":"-77.45882000","wikiDataId":"Q1394786"},{"id":62633,"Name":"Harmons","state_id":3754,"state_code":"12","state_name":"Manchester Parish","country_id":108,"country_code":"JM","country_name":"Jamaica","latitude":"17.98171000","longitude":"-77.41208000","wikiDataId":"Q1423367"},{"id":62635,"Name":"Harry Watch","state_id":3754,"state_code":"12","state_name":"Manchester Parish","country_id":108,"country_code":"JM","country_name":"Jamaica","latitude":"18.17314000","longitude":"-77.57611000","wikiDataId":"Q1423367"},{"id":62636,"Name":"Hatfield","state_id":3754,"state_code":"12","state_name":"Manchester Parish","country_id":108,"country_code":"JM","country_name":"Jamaica","latitude":"18.01557000","longitude":"-77.54009000","wikiDataId":"Q1423367"},{"id":62641,"Name":"Heartease","state_id":3754,"state_code":"12","state_name":"Manchester Parish","country_id":108,"country_code":"JM","country_name":"Jamaica","latitude":"18.04878000","longitude":"-77.48238000","wikiDataId":"Q1008008"},{"id":62646,"Name":"Hibernia","state_id":3754,"state_code":"12","state_name":"Manchester Parish","country_id":108,"country_code":"JM","country_name":"Jamaica","latitude":"18.17575000","longitude":"-77.54830000","wikiDataId":"Q1008008"},{"id":62659,"Name":"Huntley","state_id":3754,"state_code":"12","state_name":"Manchester Parish","country_id":108,"country_code":"JM","country_name":"Jamaica","latitude":"18.06647000","longitude":"-77.58171000","wikiDataId":"Q1008008"},{"id":62686,"Name":"Kendal","state_id":3754,"state_code":"12","state_name":"Manchester Parish","country_id":108,"country_code":"JM","country_name":"Jamaica","latitude":"18.08318000","longitude":"-77.50320000","wikiDataId":"Q1008008"},{"id":62697,"Name":"Knockpatrick","state_id":3754,"state_code":"12","state_name":"Manchester Parish","country_id":108,"country_code":"JM","country_name":"Jamaica","latitude":"17.99027000","longitude":"-77.49270000","wikiDataId":"Q34692"},{"id":62701,"Name":"Lancaster","state_id":3754,"state_code":"12","state_name":"Manchester Parish","country_id":108,"country_code":"JM","country_name":"Jamaica","latitude":"17.93603000","longitude":"-77.46134000","wikiDataId":"Q34692"},{"id":62716,"Name":"Litchfield","state_id":3754,"state_code":"12","state_name":"Manchester Parish","country_id":108,"country_code":"JM","country_name":"Jamaica","latitude":"18.13502000","longitude":"-77.52448000","wikiDataId":"Q1827268"},{"id":62740,"Name":"Maidstone","state_id":3754,"state_code":"12","state_name":"Manchester Parish","country_id":108,"country_code":"JM","country_name":"Jamaica","latitude":"18.10165000","longitude":"-77.57284000","wikiDataId":"Q1632220"},{"id":62745,"Name":"Mandeville","state_id":3754,"state_code":"12","state_name":"Manchester Parish","country_id":108,"country_code":"JM","country_name":"Jamaica","latitude":"18.04168000","longitude":"-77.50714000","wikiDataId":"Q1807660"},{"id":62746,"Name":"Mandeville Proper","state_id":3754,"state_code":"12","state_name":"Manchester Parish","country_id":108,"country_code":"JM","country_name":"Jamaica","latitude":"18.04453000","longitude":"-77.50574000","wikiDataId":"Q1807660"},{"id":62753,"Name":"Marlie Hill","state_id":3754,"state_code":"12","state_name":"Manchester Parish","country_id":108,"country_code":"JM","country_name":"Jamaica","latitude":"17.86692000","longitude":"-77.50835000","wikiDataId":"Q1807660"},{"id":62763,"Name":"May Day","state_id":3754,"state_code":"12","state_name":"Manchester Parish","country_id":108,"country_code":"JM","country_name":"Jamaica","latitude":"18.00951000","longitude":"-77.47606000","wikiDataId":"Q6794237"},{"id":62769,"Name":"Medina","state_id":3754,"state_code":"12","state_name":"Manchester Parish","country_id":108,"country_code":"JM","country_name":"Jamaica","latitude":"18.12236000","longitude":"-77.59643000","wikiDataId":"Q1677434"},{"id":62773,"Name":"Mike Town","state_id":3754,"state_code":"12","state_name":"Manchester Parish","country_id":108,"country_code":"JM","country_name":"Jamaica","latitude":"18.04253000","longitude":"-77.55490000","wikiDataId":"Q1677434"},{"id":62775,"Name":"Mile Gully","state_id":3754,"state_code":"12","state_name":"Manchester Parish","country_id":108,"country_code":"JM","country_name":"Jamaica","latitude":"18.13395000","longitude":"-77.56556000","wikiDataId":"Q1677434"},{"id":62813,"Name":"New Forest","state_id":3754,"state_code":"12","state_name":"Manchester Parish","country_id":108,"country_code":"JM","country_name":"Jamaica","latitude":"17.92010000","longitude":"-77.55867000","wikiDataId":"Q974239"},{"id":62814,"Name":"New Green","state_id":3754,"state_code":"12","state_name":"Manchester Parish","country_id":108,"country_code":"JM","country_name":"Jamaica","latitude":"18.07663000","longitude":"-77.52569000","wikiDataId":"Q974239"},{"id":62824,"Name":"Newport","state_id":3754,"state_code":"12","state_name":"Manchester Parish","country_id":108,"country_code":"JM","country_name":"Jamaica","latitude":"17.96293000","longitude":"-77.50486000","wikiDataId":"Q3338970"},{"id":62837,"Name":"Old England","state_id":3754,"state_code":"12","state_name":"Manchester Parish","country_id":108,"country_code":"JM","country_name":"Jamaica","latitude":"17.98503000","longitude":"-77.46017000","wikiDataId":"Q602783"},{"id":62856,"Name":"Part Of Banana Ground","state_id":3754,"state_code":"12","state_name":"Manchester Parish","country_id":108,"country_code":"JM","country_name":"Jamaica","latitude":"18.07912000","longitude":"-77.42134000","wikiDataId":"Q7099213"},{"id":62857,"Name":"Part Of Gutters","state_id":3754,"state_code":"12","state_name":"Manchester Parish","country_id":108,"country_code":"JM","country_name":"Jamaica","latitude":"18.00642000","longitude":"-77.57903000","wikiDataId":"Q7099213"},{"id":62864,"Name":"Part of Spaldings","state_id":3754,"state_code":"12","state_name":"Manchester Parish","country_id":108,"country_code":"JM","country_name":"Jamaica","latitude":"18.15819000","longitude":"-77.46627000","wikiDataId":"Q7099213"},{"id":62882,"Name":"Pike","state_id":3754,"state_code":"12","state_name":"Manchester Parish","country_id":108,"country_code":"JM","country_name":"Jamaica","latitude":"18.23229000","longitude":"-77.53790000","wikiDataId":"Q7099213"},{"id":62887,"Name":"Plowden","state_id":3754,"state_code":"12","state_name":"Manchester Parish","country_id":108,"country_code":"JM","country_name":"Jamaica","latitude":"17.89178000","longitude":"-77.53846000","wikiDataId":"Q7099213"},{"id":62900,"Name":"Porus","state_id":3754,"state_code":"12","state_name":"Manchester Parish","country_id":108,"country_code":"JM","country_name":"Jamaica","latitude":"18.03535000","longitude":"-77.41166000","wikiDataId":"Q2105480"},{"id":62905,"Name":"Prospect","state_id":3754,"state_code":"12","state_name":"Manchester Parish","country_id":108,"country_code":"JM","country_name":"Jamaica","latitude":"17.98244000","longitude":"-77.56775000","wikiDataId":"Q2105480"},{"id":62929,"Name":"Richmond","state_id":3754,"state_code":"12","state_name":"Manchester Parish","country_id":108,"country_code":"JM","country_name":"Jamaica","latitude":"18.02560000","longitude":"-77.46337000","wikiDataId":"Q2125159"},{"id":62941,"Name":"Robins Hall","state_id":3754,"state_code":"12","state_name":"Manchester Parish","country_id":108,"country_code":"JM","country_name":"Jamaica","latitude":"18.20405000","longitude":"-77.55007000","wikiDataId":"Q2125159"},{"id":62953,"Name":"Rose Hill","state_id":3754,"state_code":"12","state_name":"Manchester Parish","country_id":108,"country_code":"JM","country_name":"Jamaica","latitude":"17.92471000","longitude":"-77.52340000","wikiDataId":"Q2125159"},{"id":62958,"Name":"Royal Flat","state_id":3754,"state_code":"12","state_name":"Manchester Parish","country_id":108,"country_code":"JM","country_name":"Jamaica","latitude":"18.04965000","longitude":"-77.46830000","wikiDataId":"Q2125159"},{"id":62978,"Name":"Scotts Pass","state_id":3754,"state_code":"12","state_name":"Manchester Parish","country_id":108,"country_code":"JM","country_name":"Jamaica","latitude":"17.99920000","longitude":"-77.39820000","wikiDataId":"Q305508"},{"id":63000,"Name":"Snowdon","state_id":3754,"state_code":"12","state_name":"Manchester Parish","country_id":108,"country_code":"JM","country_name":"Jamaica","latitude":"17.94198000","longitude":"-77.49137000","wikiDataId":"Q305508"},{"id":63002,"Name":"Somerset","state_id":3754,"state_code":"12","state_name":"Manchester Parish","country_id":108,"country_code":"JM","country_name":"Jamaica","latitude":"18.08036000","longitude":"-77.54306000","wikiDataId":"Q305508"},{"id":63014,"Name":"Spring Ground","state_id":3754,"state_code":"12","state_name":"Manchester Parish","country_id":108,"country_code":"JM","country_name":"Jamaica","latitude":"18.16233000","longitude":"-77.47977000","wikiDataId":"Q846939"},{"id":63018,"Name":"Spur Tree","state_id":3754,"state_code":"12","state_name":"Manchester Parish","country_id":108,"country_code":"JM","country_name":"Jamaica","latitude":"18.00650000","longitude":"-77.55664000","wikiDataId":"Q846939"},{"id":63025,"Name":"St. Paul's","state_id":3754,"state_code":"12","state_name":"Manchester Parish","country_id":108,"country_code":"JM","country_name":"Jamaica","latitude":"18.13144000","longitude":"-77.61200000","wikiDataId":"Q846939"},{"id":63043,"Name":"Swaby's Hope","state_id":3754,"state_code":"12","state_name":"Manchester Parish","country_id":108,"country_code":"JM","country_name":"Jamaica","latitude":"17.98608000","longitude":"-77.53326000","wikiDataId":"Q1651059"},{"id":63055,"Name":"Top Hill","state_id":3754,"state_code":"12","state_name":"Manchester Parish","country_id":108,"country_code":"JM","country_name":"Jamaica","latitude":"18.11622000","longitude":"-77.50344000","wikiDataId":"Q1651059"},{"id":63076,"Name":"Victoria Town","state_id":3754,"state_code":"12","state_name":"Manchester Parish","country_id":108,"country_code":"JM","country_name":"Jamaica","latitude":"17.90472000","longitude":"-77.37795000","wikiDataId":"Q1651059"},{"id":63080,"Name":"Walderston","state_id":3754,"state_code":"12","state_name":"Manchester Parish","country_id":108,"country_code":"JM","country_name":"Jamaica","latitude":"18.11637000","longitude":"-77.48614000","wikiDataId":"Q1651059"},{"id":63092,"Name":"Watham","state_id":3754,"state_code":"12","state_name":"Manchester Parish","country_id":108,"country_code":"JM","country_name":"Jamaica","latitude":"18.00675000","longitude":"-77.51873000","wikiDataId":"Q1651059"},{"id":63107,"Name":"Williamsfield","state_id":3754,"state_code":"12","state_name":"Manchester Parish","country_id":108,"country_code":"JM","country_name":"Jamaica","latitude":"18.06664000","longitude":"-77.46582000","wikiDataId":"Q1651059"}]