[{"id":109325,"Name":"Apostolove","state_id":4675,"state_code":"12","state_name":"Dnipropetrovska oblast","country_id":230,"country_code":"UA","country_name":"Ukraine","latitude":"47.66003000","longitude":"33.71369000","wikiDataId":"Q475572"},{"id":109332,"Name":"Auly","state_id":4675,"state_code":"12","state_name":"Dnipropetrovska oblast","country_id":230,"country_code":"UA","country_name":"Ukraine","latitude":"48.56660000","longitude":"34.46111000","wikiDataId":"Q2858004"},{"id":109335,"Name":"Aviatorske","state_id":4675,"state_code":"12","state_name":"Dnipropetrovska oblast","country_id":230,"country_code":"UA","country_name":"Ukraine","latitude":"48.36714000","longitude":"35.08132000","wikiDataId":"Q2874307"},{"id":109501,"Name":"Chervonohryhorivka","state_id":4675,"state_code":"12","state_name":"Dnipropetrovska oblast","country_id":230,"country_code":"UA","country_name":"Ukraine","latitude":"47.62298000","longitude":"34.53887000","wikiDataId":"Q3516605"},{"id":109518,"Name":"Chortomlyk","state_id":4675,"state_code":"12","state_name":"Dnipropetrovska oblast","country_id":230,"country_code":"UA","country_name":"Ukraine","latitude":"47.62315000","longitude":"34.14198000","wikiDataId":"Q3516629"},{"id":109548,"Name":"Dnipro","state_id":4675,"state_code":"12","state_name":"Dnipropetrovska oblast","country_id":230,"country_code":"UA","country_name":"Ukraine","latitude":"48.45930000","longitude":"35.03865000","wikiDataId":"Q48256"},{"id":109549,"Name":"Dnipro Raion","state_id":4675,"state_code":"12","state_name":"Dnipropetrovska oblast","country_id":230,"country_code":"UA","country_name":"Ukraine","latitude":"48.45608000","longitude":"35.02167000","wikiDataId":"Q2992474"},{"id":109553,"Name":"Dniprovs’ka Mis’ka Rada","state_id":4675,"state_code":"12","state_name":"Dnipropetrovska oblast","country_id":230,"country_code":"UA","country_name":"Ukraine","latitude":"48.46726000","longitude":"34.99898000","wikiDataId":"Q4163221"},{"id":109659,"Name":"Hubynykha","state_id":4675,"state_code":"12","state_name":"Dnipropetrovska oblast","country_id":230,"country_code":"UA","country_name":"Ukraine","latitude":"48.80980000","longitude":"35.25602000","wikiDataId":"Q1989574"},{"id":109661,"Name":"Hupalivka","state_id":4675,"state_code":"12","state_name":"Dnipropetrovska oblast","country_id":230,"country_code":"UA","country_name":"Ukraine","latitude":"49.11139000","longitude":"34.73556000","wikiDataId":"Q4152213"},{"id":109710,"Name":"Kamianske","state_id":4675,"state_code":"12","state_name":"Dnipropetrovska oblast","country_id":230,"country_code":"UA","country_name":"Ukraine","latitude":"48.51134000","longitude":"34.60210000","wikiDataId":"Q156719"},{"id":109721,"Name":"Kaydaki","state_id":4675,"state_code":"12","state_name":"Dnipropetrovska oblast","country_id":230,"country_code":"UA","country_name":"Ukraine","latitude":"48.37678000","longitude":"35.12398000","wikiDataId":"Q4440923"},{"id":109872,"Name":"Krynychky","state_id":4675,"state_code":"12","state_name":"Dnipropetrovska oblast","country_id":230,"country_code":"UA","country_name":"Ukraine","latitude":"48.37551000","longitude":"34.46701000","wikiDataId":"Q572142"},{"id":109876,"Name":"Kryvoriz’ka Mis’krada","state_id":4675,"state_code":"12","state_name":"Dnipropetrovska oblast","country_id":230,"country_code":"UA","country_name":"Ukraine","latitude":"47.94730000","longitude":"33.42489000","wikiDataId":"Q4240826"},{"id":109877,"Name":"Kryvyi Rih","state_id":4675,"state_code":"12","state_name":"Dnipropetrovska oblast","country_id":230,"country_code":"UA","country_name":"Ukraine","latitude":"47.90966000","longitude":"33.38044000","wikiDataId":"Q157137"},{"id":109949,"Name":"Lykhivka","state_id":4675,"state_code":"12","state_name":"Dnipropetrovska oblast","country_id":230,"country_code":"UA","country_name":"Ukraine","latitude":"48.68735000","longitude":"33.92279000","wikiDataId":"Q378504"},{"id":109970,"Name":"Mahdalynivka","state_id":4675,"state_code":"12","state_name":"Dnipropetrovska oblast","country_id":230,"country_code":"UA","country_name":"Ukraine","latitude":"48.92111000","longitude":"34.91491000","wikiDataId":"Q1011449"},{"id":109971,"Name":"Mahdalynivs’kyy Rayon","state_id":4675,"state_code":"12","state_name":"Dnipropetrovska oblast","country_id":230,"country_code":"UA","country_name":"Ukraine","latitude":"48.97612000","longitude":"34.96762000","wikiDataId":"Q2637081"},{"id":109999,"Name":"Marhanets’","state_id":4675,"state_code":"12","state_name":"Dnipropetrovska oblast","country_id":230,"country_code":"UA","country_name":"Ukraine","latitude":"47.63543000","longitude":"34.62769000","wikiDataId":"Q2494365"},{"id":110017,"Name":"Melioratyvne","state_id":4675,"state_code":"12","state_name":"Dnipropetrovska oblast","country_id":230,"country_code":"UA","country_name":"Ukraine","latitude":"48.63009000","longitude":"35.41558000","wikiDataId":"Q3305090"},{"id":110025,"Name":"Mezhova","state_id":4675,"state_code":"12","state_name":"Dnipropetrovska oblast","country_id":230,"country_code":"UA","country_name":"Ukraine","latitude":"48.25318000","longitude":"36.73468000","wikiDataId":"Q111669"},{"id":110098,"Name":"Nikopol","state_id":4675,"state_code":"12","state_name":"Dnipropetrovska oblast","country_id":230,"country_code":"UA","country_name":"Ukraine","latitude":"47.57119000","longitude":"34.39637000","wikiDataId":"Q156760"},{"id":110132,"Name":"Novomoskovs’k","state_id":4675,"state_code":"12","state_name":"Dnipropetrovska oblast","country_id":230,"country_code":"UA","country_name":"Ukraine","latitude":"48.63799000","longitude":"35.24548000","wikiDataId":"Q640680"},{"id":110131,"Name":"Novomoskovsk Raion","state_id":4675,"state_code":"12","state_name":"Dnipropetrovska oblast","country_id":230,"country_code":"UA","country_name":"Ukraine","latitude":"48.66667000","longitude":"35.41667000","wikiDataId":"Q747558"},{"id":110134,"Name":"Novomykolayivka","state_id":4675,"state_code":"12","state_name":"Dnipropetrovska oblast","country_id":230,"country_code":"UA","country_name":"Ukraine","latitude":"48.55625000","longitude":"34.37399000","wikiDataId":"Q3345536"},{"id":110142,"Name":"Novopokrovka","state_id":4675,"state_code":"12","state_name":"Dnipropetrovska oblast","country_id":230,"country_code":"UA","country_name":"Ukraine","latitude":"48.05918000","longitude":"34.60619000","wikiDataId":"Q3345538"},{"id":110200,"Name":"Ordzhonikidze","state_id":4675,"state_code":"12","state_name":"Dnipropetrovska oblast","country_id":230,"country_code":"UA","country_name":"Ukraine","latitude":"47.66763000","longitude":"34.05957000","wikiDataId":"Q639476"},{"id":110226,"Name":"Partyzans’ke","state_id":4675,"state_code":"12","state_name":"Dnipropetrovska oblast","country_id":230,"country_code":"UA","country_name":"Ukraine","latitude":"48.58680000","longitude":"34.80948000","wikiDataId":"Q1401243"},{"id":110232,"Name":"Pavlohrad","state_id":4675,"state_code":"12","state_name":"Dnipropetrovska oblast","country_id":230,"country_code":"UA","country_name":"Ukraine","latitude":"48.53426000","longitude":"35.87098000","wikiDataId":"Q237206"},{"id":110258,"Name":"Petropavlivka","state_id":4675,"state_code":"12","state_name":"Dnipropetrovska oblast","country_id":230,"country_code":"UA","country_name":"Ukraine","latitude":"48.45643000","longitude":"36.43670000","wikiDataId":"Q1002960"},{"id":110261,"Name":"Petrykivka","state_id":4675,"state_code":"12","state_name":"Dnipropetrovska oblast","country_id":230,"country_code":"UA","country_name":"Ukraine","latitude":"48.72933000","longitude":"34.63358000","wikiDataId":"Q980784"},{"id":110262,"Name":"Petrykivs’kyy Rayon","state_id":4675,"state_code":"12","state_name":"Dnipropetrovska oblast","country_id":230,"country_code":"UA","country_name":"Ukraine","latitude":"48.68914000","longitude":"34.61098000","wikiDataId":"Q2637052"},{"id":110263,"Name":"Piatykhatky","state_id":4675,"state_code":"12","state_name":"Dnipropetrovska oblast","country_id":230,"country_code":"UA","country_name":"Ukraine","latitude":"48.41333000","longitude":"33.71056000","wikiDataId":"Q640661"},{"id":110268,"Name":"Pidhorodne","state_id":4675,"state_code":"12","state_name":"Dnipropetrovska oblast","country_id":230,"country_code":"UA","country_name":"Ukraine","latitude":"48.57528000","longitude":"35.10680000","wikiDataId":"Q639442"},{"id":110449,"Name":"Sholokhove","state_id":4675,"state_code":"12","state_name":"Dnipropetrovska oblast","country_id":230,"country_code":"UA","country_name":"Ukraine","latitude":"47.69453000","longitude":"34.03119000","wikiDataId":"Q4526033"},{"id":110455,"Name":"Shyroke","state_id":4675,"state_code":"12","state_name":"Dnipropetrovska oblast","country_id":230,"country_code":"UA","country_name":"Ukraine","latitude":"47.69173000","longitude":"33.25715000","wikiDataId":"Q1001092"},{"id":110456,"Name":"Shyroke Raion","state_id":4675,"state_code":"12","state_name":"Dnipropetrovska oblast","country_id":230,"country_code":"UA","country_name":"Ukraine","latitude":"47.66667000","longitude":"33.33333000","wikiDataId":"Q2639710"},{"id":110498,"Name":"Sofiyivka","state_id":4675,"state_code":"12","state_name":"Dnipropetrovska oblast","country_id":230,"country_code":"UA","country_name":"Ukraine","latitude":"48.04865000","longitude":"33.87618000","wikiDataId":"Q82307"},{"id":110508,"Name":"Solone","state_id":4675,"state_code":"12","state_name":"Dnipropetrovska oblast","country_id":230,"country_code":"UA","country_name":"Ukraine","latitude":"48.20805000","longitude":"34.87208000","wikiDataId":"Q1001064"},{"id":110509,"Name":"Solone Raion","state_id":4675,"state_code":"12","state_name":"Dnipropetrovska oblast","country_id":230,"country_code":"UA","country_name":"Ukraine","latitude":"48.16667000","longitude":"35.00000000","wikiDataId":"Q2639234"},{"id":110521,"Name":"Spas’ke","state_id":4675,"state_code":"12","state_name":"Dnipropetrovska oblast","country_id":230,"country_code":"UA","country_name":"Ukraine","latitude":"48.66667000","longitude":"35.05385000","wikiDataId":"Q4430953"},{"id":110564,"Name":"Surs’ko-Mykhaylivka","state_id":4675,"state_code":"12","state_name":"Dnipropetrovska oblast","country_id":230,"country_code":"UA","country_name":"Ukraine","latitude":"48.27202000","longitude":"34.72759000","wikiDataId":"Q4446633"},{"id":110583,"Name":"Synel’nykove","state_id":4675,"state_code":"12","state_name":"Dnipropetrovska oblast","country_id":230,"country_code":"UA","country_name":"Ukraine","latitude":"48.32044000","longitude":"35.51792000","wikiDataId":"Q640798"},{"id":110613,"Name":"Tomakivka","state_id":4675,"state_code":"12","state_name":"Dnipropetrovska oblast","country_id":230,"country_code":"UA","country_name":"Ukraine","latitude":"47.81569000","longitude":"34.74137000","wikiDataId":"Q283547"},{"id":110626,"Name":"Tsarychanka","state_id":4675,"state_code":"12","state_name":"Dnipropetrovska oblast","country_id":230,"country_code":"UA","country_name":"Ukraine","latitude":"48.93697000","longitude":"34.47860000","wikiDataId":"Q148126"},{"id":110627,"Name":"Tsarychans’kyy Rayon","state_id":4675,"state_code":"12","state_name":"Dnipropetrovska oblast","country_id":230,"country_code":"UA","country_name":"Ukraine","latitude":"48.93329000","longitude":"34.53043000","wikiDataId":"Q2991904"},{"id":110710,"Name":"Verkhn’odniprovs’k","state_id":4675,"state_code":"12","state_name":"Dnipropetrovska oblast","country_id":230,"country_code":"UA","country_name":"Ukraine","latitude":"48.65242000","longitude":"34.33457000","wikiDataId":"Q639428"},{"id":110719,"Name":"Vil’ne","state_id":4675,"state_code":"12","state_name":"Dnipropetrovska oblast","country_id":230,"country_code":"UA","country_name":"Ukraine","latitude":"47.63645000","longitude":"34.81387000","wikiDataId":"Q3407833"},{"id":110761,"Name":"Vyshchetarasivka","state_id":4675,"state_code":"12","state_name":"Dnipropetrovska oblast","country_id":230,"country_code":"UA","country_name":"Ukraine","latitude":"47.56851000","longitude":"34.88096000","wikiDataId":"Q4129782"},{"id":110766,"Name":"Vyshneve","state_id":4675,"state_code":"12","state_name":"Dnipropetrovska oblast","country_id":230,"country_code":"UA","country_name":"Ukraine","latitude":"48.43611000","longitude":"33.91556000","wikiDataId":"Q989854"},{"id":110803,"Name":"Yur”yivs’kyy Rayon","state_id":4675,"state_code":"12","state_name":"Dnipropetrovska oblast","country_id":230,"country_code":"UA","country_name":"Ukraine","latitude":"48.80743000","longitude":"35.91325000","wikiDataId":"Q2636975"},{"id":110846,"Name":"Zhovti Vody","state_id":4675,"state_code":"12","state_name":"Dnipropetrovska oblast","country_id":230,"country_code":"UA","country_name":"Ukraine","latitude":"48.34493000","longitude":"33.50374000","wikiDataId":"Q639054"}]