[{"id":63213,"Name":"Abiko","state_id":821,"state_code":"12","state_name":"Chiba Prefecture","country_id":109,"country_code":"JP","country_name":"Japan","latitude":"35.86667000","longitude":"140.01667000","wikiDataId":"Q305640"},{"id":63214,"Name":"Abiko-shi","state_id":821,"state_code":"12","state_name":"Chiba Prefecture","country_id":109,"country_code":"JP","country_name":"Japan","latitude":"35.86947000","longitude":"140.06510000","wikiDataId":"Q243859"},{"id":63258,"Name":"Asahi-shi","state_id":821,"state_code":"12","state_name":"Chiba Prefecture","country_id":109,"country_code":"JP","country_name":"Japan","latitude":"35.73443000","longitude":"140.65549000","wikiDataId":"Q637868"},{"id":63293,"Name":"Chiba","state_id":821,"state_code":"12","state_name":"Chiba Prefecture","country_id":109,"country_code":"JP","country_name":"Japan","latitude":"35.60000000","longitude":"140.11667000","wikiDataId":"Q170616"},{"id":63314,"Name":"Chōshi-shi","state_id":821,"state_code":"12","state_name":"Chiba Prefecture","country_id":109,"country_code":"JP","country_name":"Japan","latitude":"35.74303000","longitude":"140.77552000","wikiDataId":"Q694317"},{"id":63375,"Name":"Funabashi-shi","state_id":821,"state_code":"12","state_name":"Chiba Prefecture","country_id":109,"country_code":"JP","country_name":"Japan","latitude":"35.69455000","longitude":"139.98255000","wikiDataId":"Q661038"},{"id":63381,"Name":"Futtsu","state_id":821,"state_code":"12","state_name":"Chiba Prefecture","country_id":109,"country_code":"JP","country_name":"Japan","latitude":"35.31080000","longitude":"139.81877000","wikiDataId":"Q498023"},{"id":63441,"Name":"Hasaki","state_id":821,"state_code":"12","state_name":"Chiba Prefecture","country_id":109,"country_code":"JP","country_name":"Japan","latitude":"35.73333000","longitude":"140.83333000","wikiDataId":"Q847565"},{"id":63520,"Name":"Honchō","state_id":821,"state_code":"12","state_name":"Chiba Prefecture","country_id":109,"country_code":"JP","country_name":"Japan","latitude":"35.70129000","longitude":"139.98648000","wikiDataId":"Q271417"},{"id":63537,"Name":"Ichihara","state_id":821,"state_code":"12","state_name":"Chiba Prefecture","country_id":109,"country_code":"JP","country_name":"Japan","latitude":"35.51667000","longitude":"140.08333000","wikiDataId":"Q19712"},{"id":63538,"Name":"Ichihara Shi","state_id":821,"state_code":"12","state_name":"Chiba Prefecture","country_id":109,"country_code":"JP","country_name":"Japan","latitude":"35.42484000","longitude":"140.13725000","wikiDataId":"Q207881"},{"id":63539,"Name":"Ichikawa Shi","state_id":821,"state_code":"12","state_name":"Chiba Prefecture","country_id":109,"country_code":"JP","country_name":"Japan","latitude":"35.71865000","longitude":"139.93294000","wikiDataId":"Q209785"},{"id":63578,"Name":"Inzai-shi","state_id":821,"state_code":"12","state_name":"Chiba Prefecture","country_id":109,"country_code":"JP","country_name":"Japan","latitude":"35.81207000","longitude":"140.14098000","wikiDataId":"Q637901"},{"id":63603,"Name":"Isumi","state_id":821,"state_code":"12","state_name":"Chiba Prefecture","country_id":109,"country_code":"JP","country_name":"Japan","latitude":"35.23005000","longitude":"140.40492000","wikiDataId":"Q840834"},{"id":63604,"Name":"Isumi Shi","state_id":821,"state_code":"12","state_name":"Chiba Prefecture","country_id":109,"country_code":"JP","country_name":"Japan","latitude":"35.27777000","longitude":"140.34335000","wikiDataId":"Q840834"},{"id":63677,"Name":"Kamagaya Shi","state_id":821,"state_code":"12","state_name":"Chiba Prefecture","country_id":109,"country_code":"JP","country_name":"Japan","latitude":"35.77289000","longitude":"139.99883000","wikiDataId":"Q387365"},{"id":63702,"Name":"Kamogawa","state_id":821,"state_code":"12","state_name":"Chiba Prefecture","country_id":109,"country_code":"JP","country_name":"Japan","latitude":"35.09690000","longitude":"140.10030000","wikiDataId":"Q857293"},{"id":63703,"Name":"Kamogawa-shi","state_id":821,"state_code":"12","state_name":"Chiba Prefecture","country_id":109,"country_code":"JP","country_name":"Japan","latitude":"35.10000000","longitude":"140.10000000","wikiDataId":"Q387211"},{"id":63739,"Name":"Kashiwa","state_id":821,"state_code":"12","state_name":"Chiba Prefecture","country_id":109,"country_code":"JP","country_name":"Japan","latitude":"35.86224000","longitude":"139.97732000","wikiDataId":"Q319743"},{"id":63740,"Name":"Kashiwa Shi","state_id":821,"state_code":"12","state_name":"Chiba Prefecture","country_id":109,"country_code":"JP","country_name":"Japan","latitude":"35.86017000","longitude":"139.99386000","wikiDataId":"Q319743"},{"id":63754,"Name":"Katori-shi","state_id":821,"state_code":"12","state_name":"Chiba Prefecture","country_id":109,"country_code":"JP","country_name":"Japan","latitude":"35.88333000","longitude":"140.51667000","wikiDataId":"Q858357"},{"id":63760,"Name":"Katsuura","state_id":821,"state_code":"12","state_name":"Chiba Prefecture","country_id":109,"country_code":"JP","country_name":"Japan","latitude":"35.14621000","longitude":"140.31507000","wikiDataId":"Q696418"},{"id":63762,"Name":"Katsuura-shi","state_id":821,"state_code":"12","state_name":"Chiba Prefecture","country_id":109,"country_code":"JP","country_name":"Japan","latitude":"35.17535000","longitude":"140.26760000","wikiDataId":"Q974969"},{"id":63787,"Name":"Kimitsu","state_id":821,"state_code":"12","state_name":"Chiba Prefecture","country_id":109,"country_code":"JP","country_name":"Japan","latitude":"35.35043000","longitude":"139.87029000","wikiDataId":"Q637928"},{"id":63793,"Name":"Kisarazu","state_id":821,"state_code":"12","state_name":"Chiba Prefecture","country_id":109,"country_code":"JP","country_name":"Japan","latitude":"35.38329000","longitude":"139.93254000","wikiDataId":"Q335427"},{"id":63794,"Name":"Kisarazu Shi","state_id":821,"state_code":"12","state_name":"Chiba Prefecture","country_id":109,"country_code":"JP","country_name":"Japan","latitude":"35.36981000","longitude":"139.98749000","wikiDataId":"Q335427"},{"id":63932,"Name":"Matsudo Shi","state_id":821,"state_code":"12","state_name":"Chiba Prefecture","country_id":109,"country_code":"JP","country_name":"Japan","latitude":"35.79574000","longitude":"139.92908000","wikiDataId":"Q320943"},{"id":63966,"Name":"Minamibōsō Shi","state_id":821,"state_code":"12","state_name":"Chiba Prefecture","country_id":109,"country_code":"JP","country_name":"Japan","latitude":"35.03657000","longitude":"139.92847000","wikiDataId":"Q873521"},{"id":64022,"Name":"Mobara","state_id":821,"state_code":"12","state_name":"Chiba Prefecture","country_id":109,"country_code":"JP","country_name":"Japan","latitude":"35.42583000","longitude":"140.29608000","wikiDataId":"Q502486"},{"id":64023,"Name":"Mobara Shi","state_id":821,"state_code":"12","state_name":"Chiba Prefecture","country_id":109,"country_code":"JP","country_name":"Japan","latitude":"35.44981000","longitude":"140.30163000","wikiDataId":"Q502486"},{"id":64069,"Name":"Nagareyama","state_id":821,"state_code":"12","state_name":"Chiba Prefecture","country_id":109,"country_code":"JP","country_name":"Japan","latitude":"35.85630000","longitude":"139.90266000","wikiDataId":"Q861246"},{"id":64070,"Name":"Nagareyama-shi","state_id":821,"state_code":"12","state_name":"Chiba Prefecture","country_id":109,"country_code":"JP","country_name":"Japan","latitude":"35.85631000","longitude":"139.90266000","wikiDataId":"Q328625"},{"id":64107,"Name":"Narashino-shi","state_id":821,"state_code":"12","state_name":"Chiba Prefecture","country_id":109,"country_code":"JP","country_name":"Japan","latitude":"35.68091000","longitude":"140.03418000","wikiDataId":"Q318047"},{"id":64108,"Name":"Narita","state_id":821,"state_code":"12","state_name":"Chiba Prefecture","country_id":109,"country_code":"JP","country_name":"Japan","latitude":"35.78333000","longitude":"140.31667000","wikiDataId":"Q273798"},{"id":64109,"Name":"Narita-shi","state_id":821,"state_code":"12","state_name":"Chiba Prefecture","country_id":109,"country_code":"JP","country_name":"Japan","latitude":"35.81547000","longitude":"140.35757000","wikiDataId":"Q273798"},{"id":64112,"Name":"Narutō","state_id":821,"state_code":"12","state_name":"Chiba Prefecture","country_id":109,"country_code":"JP","country_name":"Japan","latitude":"35.60000000","longitude":"140.41667000","wikiDataId":"Q460812"},{"id":64163,"Name":"Noda","state_id":821,"state_code":"12","state_name":"Chiba Prefecture","country_id":109,"country_code":"JP","country_name":"Japan","latitude":"35.94897000","longitude":"139.86793000","wikiDataId":"Q428989"},{"id":64164,"Name":"Noda-shi","state_id":821,"state_code":"12","state_name":"Chiba Prefecture","country_id":109,"country_code":"JP","country_name":"Japan","latitude":"35.98516000","longitude":"139.86215000","wikiDataId":"Q328619"},{"id":64712,"Name":"Ōami","state_id":821,"state_code":"12","state_name":"Chiba Prefecture","country_id":109,"country_code":"JP","country_name":"Japan","latitude":"35.51667000","longitude":"140.31667000","wikiDataId":"Q230843"},{"id":64713,"Name":"Ōamishirasato-shi","state_id":821,"state_code":"12","state_name":"Chiba Prefecture","country_id":109,"country_code":"JP","country_name":"Japan","latitude":"35.51279000","longitude":"140.34295000","wikiDataId":"Q1203251"},{"id":64724,"Name":"Ōhara","state_id":821,"state_code":"12","state_name":"Chiba Prefecture","country_id":109,"country_code":"JP","country_name":"Japan","latitude":"35.24761000","longitude":"140.39289000","wikiDataId":"Q8081483"},{"id":64204,"Name":"Omigawa","state_id":821,"state_code":"12","state_name":"Chiba Prefecture","country_id":109,"country_code":"JP","country_name":"Japan","latitude":"35.85000000","longitude":"140.61667000","wikiDataId":"Q5120061"},{"id":64268,"Name":"Sakura","state_id":821,"state_code":"12","state_name":"Chiba Prefecture","country_id":109,"country_code":"JP","country_name":"Japan","latitude":"35.71667000","longitude":"140.23333000","wikiDataId":"Q498011"},{"id":64269,"Name":"Sakura-shi","state_id":821,"state_code":"12","state_name":"Chiba Prefecture","country_id":109,"country_code":"JP","country_name":"Japan","latitude":"35.70619000","longitude":"140.21326000","wikiDataId":"Q498011"},{"id":64275,"Name":"Sambu-gun","state_id":821,"state_code":"12","state_name":"Chiba Prefecture","country_id":109,"country_code":"JP","country_name":"Japan","latitude":"35.68843000","longitude":"140.45346000","wikiDataId":"Q1153740"},{"id":64279,"Name":"Sanmu","state_id":821,"state_code":"12","state_name":"Chiba Prefecture","country_id":109,"country_code":"JP","country_name":"Japan","latitude":"35.62756000","longitude":"140.41762000","wikiDataId":"Q873528"},{"id":64280,"Name":"Sanmu-shi","state_id":821,"state_code":"12","state_name":"Chiba Prefecture","country_id":109,"country_code":"JP","country_name":"Japan","latitude":"35.62397000","longitude":"140.42079000","wikiDataId":"Q873528"},{"id":64295,"Name":"Sawara","state_id":821,"state_code":"12","state_name":"Chiba Prefecture","country_id":109,"country_code":"JP","country_name":"Japan","latitude":"35.88333000","longitude":"140.50000000","wikiDataId":"Q1203453"},{"id":64357,"Name":"Shiroi","state_id":821,"state_code":"12","state_name":"Chiba Prefecture","country_id":109,"country_code":"JP","country_name":"Japan","latitude":"35.80000000","longitude":"140.06667000","wikiDataId":"Q1345322"},{"id":64358,"Name":"Shiroi-shi","state_id":821,"state_code":"12","state_name":"Chiba Prefecture","country_id":109,"country_code":"JP","country_name":"Japan","latitude":"35.80164000","longitude":"140.06005000","wikiDataId":"Q519187"},{"id":64362,"Name":"Shisui","state_id":821,"state_code":"12","state_name":"Chiba Prefecture","country_id":109,"country_code":"JP","country_name":"Japan","latitude":"35.71667000","longitude":"140.26667000","wikiDataId":"Q823489"},{"id":64373,"Name":"Sodegaura-shi","state_id":821,"state_code":"12","state_name":"Chiba Prefecture","country_id":109,"country_code":"JP","country_name":"Japan","latitude":"35.41642000","longitude":"140.01771000","wikiDataId":"Q646847"},{"id":64404,"Name":"Sōsa-shi","state_id":821,"state_code":"12","state_name":"Chiba Prefecture","country_id":109,"country_code":"JP","country_name":"Japan","latitude":"35.69983000","longitude":"140.55366000","wikiDataId":"Q858367"},{"id":64474,"Name":"Tateyama","state_id":821,"state_code":"12","state_name":"Chiba Prefecture","country_id":109,"country_code":"JP","country_name":"Japan","latitude":"34.98333000","longitude":"139.86667000","wikiDataId":"Q646755"},{"id":64475,"Name":"Tateyama-shi","state_id":821,"state_code":"12","state_name":"Chiba Prefecture","country_id":109,"country_code":"JP","country_name":"Japan","latitude":"34.97156000","longitude":"139.86163000","wikiDataId":"Q646755"},{"id":64566,"Name":"Tōgane","state_id":821,"state_code":"12","state_name":"Chiba Prefecture","country_id":109,"country_code":"JP","country_name":"Japan","latitude":"35.55000000","longitude":"140.36667000","wikiDataId":"Q637913"},{"id":64567,"Name":"Tōgane-shi","state_id":821,"state_code":"12","state_name":"Chiba Prefecture","country_id":109,"country_code":"JP","country_name":"Japan","latitude":"35.56517000","longitude":"140.36707000","wikiDataId":"Q637913"},{"id":64508,"Name":"Tomisato-shi","state_id":821,"state_code":"12","state_name":"Chiba Prefecture","country_id":109,"country_code":"JP","country_name":"Japan","latitude":"35.72024000","longitude":"140.34080000","wikiDataId":"Q692857"},{"id":64598,"Name":"Urayasu-shi","state_id":821,"state_code":"12","state_name":"Chiba Prefecture","country_id":109,"country_code":"JP","country_name":"Japan","latitude":"35.64250000","longitude":"139.90192000","wikiDataId":"Q319729"},{"id":64629,"Name":"Yachimata","state_id":821,"state_code":"12","state_name":"Chiba Prefecture","country_id":109,"country_code":"JP","country_name":"Japan","latitude":"35.65000000","longitude":"140.31667000","wikiDataId":"Q638296"},{"id":64630,"Name":"Yachimata-shi","state_id":821,"state_code":"12","state_name":"Chiba Prefecture","country_id":109,"country_code":"JP","country_name":"Japan","latitude":"35.64241000","longitude":"140.29686000","wikiDataId":"Q638296"},{"id":64631,"Name":"Yachiyo-shi","state_id":821,"state_code":"12","state_name":"Chiba Prefecture","country_id":109,"country_code":"JP","country_name":"Japan","latitude":"35.73921000","longitude":"140.10502000","wikiDataId":"Q328651"},{"id":64703,"Name":"Yōkaichiba","state_id":821,"state_code":"12","state_name":"Chiba Prefecture","country_id":109,"country_code":"JP","country_name":"Japan","latitude":"35.70000000","longitude":"140.55000000","wikiDataId":"Q2611155"},{"id":64690,"Name":"Yotsukaidō","state_id":821,"state_code":"12","state_name":"Chiba Prefecture","country_id":109,"country_code":"JP","country_name":"Japan","latitude":"35.65000000","longitude":"140.16667000","wikiDataId":"Q429373"},{"id":64691,"Name":"Yotsukaidō-shi","state_id":821,"state_code":"12","state_name":"Chiba Prefecture","country_id":109,"country_code":"JP","country_name":"Japan","latitude":"35.67167000","longitude":"140.17912000","wikiDataId":"Q429373"}]