[{"id":81147,"Name":"Adlay","state_id":1314,"state_code":"13","state_name":"Caraga","country_id":174,"country_code":"PH","country_name":"Philippines","latitude":"9.40972000","longitude":"125.89750000","wikiDataId":"Q31461855"},{"id":81153,"Name":"Agay","state_id":1314,"state_code":"13","state_name":"Caraga","country_id":174,"country_code":"PH","country_name":"Philippines","latitude":"9.05361000","longitude":"125.58667000","wikiDataId":"Q31462038"},{"id":81200,"Name":"Alegria","state_id":1314,"state_code":"13","state_name":"Caraga","country_id":174,"country_code":"PH","country_name":"Philippines","latitude":"9.46694000","longitude":"125.57722000","wikiDataId":"Q155706"},{"id":81235,"Name":"Alubijid","state_id":1314,"state_code":"13","state_name":"Caraga","country_id":174,"country_code":"PH","country_name":"Philippines","latitude":"8.96278000","longitude":"125.42583000","wikiDataId":"Q195623"},{"id":81240,"Name":"Amaga","state_id":1314,"state_code":"13","state_name":"Caraga","country_id":174,"country_code":"PH","country_name":"Philippines","latitude":"8.53083000","longitude":"126.07028000","wikiDataId":"Q31465217"},{"id":81280,"Name":"Anticala","state_id":1314,"state_code":"13","state_name":"Caraga","country_id":174,"country_code":"PH","country_name":"Philippines","latitude":"9.00444000","longitude":"125.64528000","wikiDataId":"Q31467207"},{"id":81308,"Name":"Aras-asan","state_id":1314,"state_code":"13","state_name":"Caraga","country_id":174,"country_code":"PH","country_name":"Philippines","latitude":"8.88781000","longitude":"126.31120000","wikiDataId":"Q31468241"},{"id":81336,"Name":"Aurora","state_id":1314,"state_code":"13","state_name":"Caraga","country_id":174,"country_code":"PH","country_name":"Philippines","latitude":"8.59306000","longitude":"125.83750000","wikiDataId":"Q31796096"},{"id":81364,"Name":"Bacolod","state_id":1314,"state_code":"13","state_name":"Caraga","country_id":174,"country_code":"PH","country_name":"Philippines","latitude":"8.93167000","longitude":"126.28944000","wikiDataId":"Q31473676"},{"id":81373,"Name":"Bacuag","state_id":1314,"state_code":"13","state_name":"Caraga","country_id":174,"country_code":"PH","country_name":"Philippines","latitude":"9.60806000","longitude":"125.63889000","wikiDataId":"Q155720"},{"id":81415,"Name":"Bah-Bah","state_id":1314,"state_code":"13","state_name":"Caraga","country_id":174,"country_code":"PH","country_name":"Philippines","latitude":"8.60722000","longitude":"125.91444000","wikiDataId":"Q31476198"},{"id":81442,"Name":"Balangbalang","state_id":1314,"state_code":"13","state_name":"Caraga","country_id":174,"country_code":"PH","country_name":"Philippines","latitude":"9.05694000","longitude":"125.62278000","wikiDataId":"Q31478228"},{"id":81521,"Name":"Bancasi","state_id":1314,"state_code":"13","state_name":"Caraga","country_id":174,"country_code":"PH","country_name":"Philippines","latitude":"8.96667000","longitude":"125.46667000","wikiDataId":"Q31483028"},{"id":81533,"Name":"Bangonay","state_id":1314,"state_code":"13","state_name":"Caraga","country_id":174,"country_code":"PH","country_name":"Philippines","latitude":"9.31444000","longitude":"125.55389000","wikiDataId":"Q31483691"},{"id":81571,"Name":"Barcelona","state_id":1314,"state_code":"13","state_name":"Caraga","country_id":174,"country_code":"PH","country_name":"Philippines","latitude":"8.15917000","longitude":"126.43417000","wikiDataId":"Q31486383"},{"id":81579,"Name":"Barobo","state_id":1314,"state_code":"13","state_name":"Caraga","country_id":174,"country_code":"PH","country_name":"Philippines","latitude":"8.53528000","longitude":"126.12139000","wikiDataId":"Q155471"},{"id":81591,"Name":"Basa","state_id":1314,"state_code":"13","state_name":"Caraga","country_id":174,"country_code":"PH","country_name":"Philippines","latitude":"8.07222000","longitude":"126.06417000","wikiDataId":"Q31488101"},{"id":81592,"Name":"Basag","state_id":1314,"state_code":"13","state_name":"Caraga","country_id":174,"country_code":"PH","country_name":"Philippines","latitude":"8.92548000","longitude":"125.62167000","wikiDataId":"Q31488101"},{"id":81605,"Name":"Basilisa","state_id":1314,"state_code":"13","state_name":"Caraga","country_id":174,"country_code":"PH","country_name":"Philippines","latitude":"10.00000000","longitude":"125.50000000","wikiDataId":"Q314298"},{"id":81653,"Name":"Bayabas","state_id":1314,"state_code":"13","state_name":"Caraga","country_id":174,"country_code":"PH","country_name":"Philippines","latitude":"8.96972000","longitude":"126.28611000","wikiDataId":"Q155499"},{"id":81668,"Name":"Bayugan","state_id":1314,"state_code":"13","state_name":"Caraga","country_id":174,"country_code":"PH","country_name":"Philippines","latitude":"8.75611000","longitude":"125.76750000","wikiDataId":"Q31492996"},{"id":81695,"Name":"Bigaan","state_id":1314,"state_code":"13","state_name":"Caraga","country_id":174,"country_code":"PH","country_name":"Philippines","latitude":"8.31722000","longitude":"126.28111000","wikiDataId":"Q31500778"},{"id":81734,"Name":"Binucayan","state_id":1314,"state_code":"13","state_name":"Caraga","country_id":174,"country_code":"PH","country_name":"Philippines","latitude":"8.25000000","longitude":"125.71667000","wikiDataId":"Q31503087"},{"id":81737,"Name":"Bislig","state_id":1314,"state_code":"13","state_name":"Caraga","country_id":174,"country_code":"PH","country_name":"Philippines","latitude":"8.21528000","longitude":"126.31639000","wikiDataId":"Q866414"},{"id":81797,"Name":"Borbon","state_id":1314,"state_code":"13","state_name":"Caraga","country_id":174,"country_code":"PH","country_name":"Philippines","latitude":"8.48417000","longitude":"125.89306000","wikiDataId":"Q31510041"},{"id":81831,"Name":"Buenavista","state_id":1314,"state_code":"13","state_name":"Caraga","country_id":174,"country_code":"PH","country_name":"Philippines","latitude":"8.97694000","longitude":"125.40889000","wikiDataId":"Q627390"},{"id":81892,"Name":"Bunawan","state_id":1314,"state_code":"13","state_name":"Caraga","country_id":174,"country_code":"PH","country_name":"Philippines","latitude":"8.16722000","longitude":"125.99083000","wikiDataId":"Q627049"},{"id":81908,"Name":"Burgos","state_id":1314,"state_code":"13","state_name":"Caraga","country_id":174,"country_code":"PH","country_name":"Philippines","latitude":"9.26639000","longitude":"126.18833000","wikiDataId":"Q31519225"},{"id":81925,"Name":"Butuan","state_id":1314,"state_code":"13","state_name":"Caraga","country_id":174,"country_code":"PH","country_name":"Philippines","latitude":"8.94917000","longitude":"125.54361000","wikiDataId":"Q31520802"},{"id":81937,"Name":"Cabadbaran","state_id":1314,"state_code":"13","state_name":"Caraga","country_id":174,"country_code":"PH","country_name":"Philippines","latitude":"9.12261000","longitude":"125.53549000","wikiDataId":"Q1692"},{"id":81997,"Name":"Cagdianao","state_id":1314,"state_code":"13","state_name":"Caraga","country_id":174,"country_code":"PH","country_name":"Philippines","latitude":"9.92111000","longitude":"125.66917000","wikiDataId":"Q314318"},{"id":82000,"Name":"Cagwait","state_id":1314,"state_code":"13","state_name":"Caraga","country_id":174,"country_code":"PH","country_name":"Philippines","latitude":"8.91861000","longitude":"126.30111000","wikiDataId":"Q155524"},{"id":82016,"Name":"Calamba","state_id":1314,"state_code":"13","state_name":"Caraga","country_id":174,"country_code":"PH","country_name":"Philippines","latitude":"9.10361000","longitude":"125.59417000","wikiDataId":"Q31526775"},{"id":82060,"Name":"Caloc-an","state_id":1314,"state_code":"13","state_name":"Caraga","country_id":174,"country_code":"PH","country_name":"Philippines","latitude":"9.04694000","longitude":"125.53056000","wikiDataId":"Q31528605"},{"id":82126,"Name":"Cantapoy","state_id":1314,"state_code":"13","state_name":"Caraga","country_id":174,"country_code":"PH","country_name":"Philippines","latitude":"9.49056000","longitude":"125.43639000","wikiDataId":"Q31532558"},{"id":82128,"Name":"Cantilan","state_id":1314,"state_code":"13","state_name":"Caraga","country_id":174,"country_code":"PH","country_name":"Philippines","latitude":"9.33361000","longitude":"125.97750000","wikiDataId":"Q155536"},{"id":82134,"Name":"Capalayan","state_id":1314,"state_code":"13","state_name":"Caraga","country_id":174,"country_code":"PH","country_name":"Philippines","latitude":"9.74056000","longitude":"125.54444000","wikiDataId":"Q31796697"},{"id":82169,"Name":"Carmen","state_id":1314,"state_code":"13","state_name":"Caraga","country_id":174,"country_code":"PH","country_name":"Philippines","latitude":"9.22639000","longitude":"126.01722000","wikiDataId":"Q155548"},{"id":82181,"Name":"Carrascal","state_id":1314,"state_code":"13","state_name":"Caraga","country_id":174,"country_code":"PH","country_name":"Philippines","latitude":"9.37028000","longitude":"125.94917000","wikiDataId":"Q155558"},{"id":82224,"Name":"Causwagan","state_id":1314,"state_code":"13","state_name":"Caraga","country_id":174,"country_code":"PH","country_name":"Philippines","latitude":"8.44750000","longitude":"125.84028000","wikiDataId":"Q31538266"},{"id":82248,"Name":"Claver","state_id":1314,"state_code":"13","state_name":"Caraga","country_id":174,"country_code":"PH","country_name":"Philippines","latitude":"9.57250000","longitude":"125.73306000","wikiDataId":"Q155748"},{"id":82264,"Name":"Comagascas","state_id":1314,"state_code":"13","state_name":"Caraga","country_id":174,"country_code":"PH","country_name":"Philippines","latitude":"9.13972000","longitude":"125.55972000","wikiDataId":"Q31550282"},{"id":82299,"Name":"Cortes","state_id":1314,"state_code":"13","state_name":"Caraga","country_id":174,"country_code":"PH","country_name":"Philippines","latitude":"9.27972000","longitude":"126.19111000","wikiDataId":"Q155568"},{"id":82308,"Name":"Cuevas","state_id":1314,"state_code":"13","state_name":"Caraga","country_id":174,"country_code":"PH","country_name":"Philippines","latitude":"8.01917000","longitude":"126.09417000","wikiDataId":"Q31556905"},{"id":82316,"Name":"Culit","state_id":1314,"state_code":"13","state_name":"Caraga","country_id":174,"country_code":"PH","country_name":"Philippines","latitude":"8.94722000","longitude":"125.35694000","wikiDataId":"Q31557218"},{"id":82375,"Name":"Dapa","state_id":1314,"state_code":"13","state_name":"Caraga","country_id":174,"country_code":"PH","country_name":"Philippines","latitude":"9.75944000","longitude":"126.05306000","wikiDataId":"Q155763"},{"id":82405,"Name":"Del Carmen, Surigao del Norte","state_id":1314,"state_code":"13","state_name":"Caraga","country_id":174,"country_code":"PH","country_name":"Philippines","latitude":"9.86944000","longitude":"125.96972000","wikiDataId":"Q28735"},{"id":82410,"Name":"Del Pilar","state_id":1314,"state_code":"13","state_name":"Caraga","country_id":174,"country_code":"PH","country_name":"Philippines","latitude":"9.15194000","longitude":"125.58472000","wikiDataId":"Q31564646"},{"id":82433,"Name":"Dinagat","state_id":1314,"state_code":"13","state_name":"Caraga","country_id":174,"country_code":"PH","country_name":"Philippines","latitude":"9.95611000","longitude":"125.59333000","wikiDataId":"Q314336"},{"id":82434,"Name":"Dinagat Islands","state_id":1314,"state_code":"13","state_name":"Caraga","country_id":174,"country_code":"PH","country_name":"Philippines","latitude":"10.12301000","longitude":"125.55725000","wikiDataId":"Q13807"},{"id":82519,"Name":"Esperanza","state_id":1314,"state_code":"13","state_name":"Caraga","country_id":174,"country_code":"PH","country_name":"Philippines","latitude":"8.67694000","longitude":"125.64694000","wikiDataId":"Q627077"},{"id":82560,"Name":"Gamut","state_id":1314,"state_code":"13","state_name":"Caraga","country_id":174,"country_code":"PH","country_name":"Philippines","latitude":"8.53153000","longitude":"126.24117000","wikiDataId":"Q31588458"},{"id":82576,"Name":"General Luna","state_id":1314,"state_code":"13","state_name":"Caraga","country_id":174,"country_code":"PH","country_name":"Philippines","latitude":"9.78417000","longitude":"126.15889000","wikiDataId":"Q155784"},{"id":82591,"Name":"Gigaquit","state_id":1314,"state_code":"13","state_name":"Caraga","country_id":174,"country_code":"PH","country_name":"Philippines","latitude":"9.59444000","longitude":"125.69750000","wikiDataId":"Q155795"},{"id":82612,"Name":"Guadalupe","state_id":1314,"state_code":"13","state_name":"Caraga","country_id":174,"country_code":"PH","country_name":"Philippines","latitude":"8.58278000","longitude":"125.70806000","wikiDataId":"Q31811343"},{"id":82628,"Name":"Guinabsan","state_id":1314,"state_code":"13","state_name":"Caraga","country_id":174,"country_code":"PH","country_name":"Philippines","latitude":"8.89750000","longitude":"125.41611000","wikiDataId":"Q31811362"},{"id":82693,"Name":"Hinatuan","state_id":1314,"state_code":"13","state_name":"Caraga","country_id":174,"country_code":"PH","country_name":"Philippines","latitude":"8.37222000","longitude":"126.33417000","wikiDataId":"Q155576"},{"id":82758,"Name":"Ipil","state_id":1314,"state_code":"13","state_name":"Caraga","country_id":174,"country_code":"PH","country_name":"Philippines","latitude":"9.79070000","longitude":"125.43860000","wikiDataId":"Q31811509"},{"id":82778,"Name":"Jabonga","state_id":1314,"state_code":"13","state_name":"Caraga","country_id":174,"country_code":"PH","country_name":"Philippines","latitude":"9.34306000","longitude":"125.51556000","wikiDataId":"Q627461"},{"id":82784,"Name":"Jagupit","state_id":1314,"state_code":"13","state_name":"Caraga","country_id":174,"country_code":"PH","country_name":"Philippines","latitude":"9.24222000","longitude":"125.55806000","wikiDataId":"Q31811530"},{"id":82801,"Name":"Javier","state_id":1314,"state_code":"13","state_name":"Caraga","country_id":174,"country_code":"PH","country_name":"Philippines","latitude":"8.48889000","longitude":"126.08500000","wikiDataId":"Q31811547"},{"id":82885,"Name":"Kauswagan","state_id":1314,"state_code":"13","state_name":"Caraga","country_id":174,"country_code":"PH","country_name":"Philippines","latitude":"8.51667000","longitude":"125.75000000","wikiDataId":"Q31811628"},{"id":82904,"Name":"Kinabhangan","state_id":1314,"state_code":"13","state_name":"Caraga","country_id":174,"country_code":"PH","country_name":"Philippines","latitude":"8.96917000","longitude":"125.35750000","wikiDataId":"Q31811645"},{"id":82918,"Name":"Kitcharao","state_id":1314,"state_code":"13","state_name":"Caraga","country_id":174,"country_code":"PH","country_name":"Philippines","latitude":"9.45500000","longitude":"125.57306000","wikiDataId":"Q627495"},{"id":82945,"Name":"La Paz","state_id":1314,"state_code":"13","state_name":"Caraga","country_id":174,"country_code":"PH","country_name":"Philippines","latitude":"8.27083000","longitude":"125.79972000","wikiDataId":"Q627107"},{"id":82955,"Name":"La Union","state_id":1314,"state_code":"13","state_name":"Caraga","country_id":174,"country_code":"PH","country_name":"Philippines","latitude":"9.08556000","longitude":"125.53583000","wikiDataId":"Q31811714"},{"id":83025,"Name":"Lanuza","state_id":1314,"state_code":"13","state_name":"Caraga","country_id":174,"country_code":"PH","country_name":"Philippines","latitude":"9.23417000","longitude":"126.06444000","wikiDataId":"Q155582"},{"id":83034,"Name":"Lapinigan","state_id":1314,"state_code":"13","state_name":"Caraga","country_id":174,"country_code":"PH","country_name":"Philippines","latitude":"8.42056000","longitude":"125.98250000","wikiDataId":"Q31811799"},{"id":83074,"Name":"Lianga","state_id":1314,"state_code":"13","state_name":"Caraga","country_id":174,"country_code":"PH","country_name":"Philippines","latitude":"8.63361000","longitude":"126.09472000","wikiDataId":"Q155590"},{"id":83081,"Name":"Libas","state_id":1314,"state_code":"13","state_name":"Caraga","country_id":174,"country_code":"PH","country_name":"Philippines","latitude":"9.88333000","longitude":"125.98333000","wikiDataId":"Q31811843"},{"id":83083,"Name":"Libertad","state_id":1314,"state_code":"13","state_name":"Caraga","country_id":174,"country_code":"PH","country_name":"Philippines","latitude":"8.94417000","longitude":"125.50194000","wikiDataId":"Q31811852"},{"id":83091,"Name":"Libjo","state_id":1314,"state_code":"13","state_name":"Caraga","country_id":174,"country_code":"PH","country_name":"Philippines","latitude":"10.19778000","longitude":"125.53528000","wikiDataId":"Q314345"},{"id":83140,"Name":"Lingig","state_id":1314,"state_code":"13","state_name":"Caraga","country_id":174,"country_code":"PH","country_name":"Philippines","latitude":"8.03889000","longitude":"126.41250000","wikiDataId":"Q155598"},{"id":83164,"Name":"Lombocan","state_id":1314,"state_code":"13","state_name":"Caraga","country_id":174,"country_code":"PH","country_name":"Philippines","latitude":"9.00767000","longitude":"125.50558000","wikiDataId":"Q31811933"},{"id":83182,"Name":"Loreto","state_id":1314,"state_code":"13","state_name":"Caraga","country_id":174,"country_code":"PH","country_name":"Philippines","latitude":"8.18694000","longitude":"125.85306000","wikiDataId":"Q627120"},{"id":83183,"Name":"Los Angeles","state_id":1314,"state_code":"13","state_name":"Caraga","country_id":174,"country_code":"PH","country_name":"Philippines","latitude":"9.01250000","longitude":"125.60806000","wikiDataId":"Q31811955"},{"id":83184,"Name":"Los Arcos","state_id":1314,"state_code":"13","state_name":"Caraga","country_id":174,"country_code":"PH","country_name":"Philippines","latitude":"8.63278000","longitude":"125.98556000","wikiDataId":"Q31811956"},{"id":83189,"Name":"Loyola","state_id":1314,"state_code":"13","state_name":"Caraga","country_id":174,"country_code":"PH","country_name":"Philippines","latitude":"8.33492000","longitude":"126.33366000","wikiDataId":"Q31811962"},{"id":83230,"Name":"Luna","state_id":1314,"state_code":"13","state_name":"Caraga","country_id":174,"country_code":"PH","country_name":"Philippines","latitude":"9.73700000","longitude":"125.49760000","wikiDataId":"Q31812000"},{"id":83265,"Name":"Mabahin","state_id":1314,"state_code":"13","state_name":"Caraga","country_id":174,"country_code":"PH","country_name":"Philippines","latitude":"9.18556000","longitude":"126.17056000","wikiDataId":"Q31812034"},{"id":83286,"Name":"Mabua","state_id":1314,"state_code":"13","state_name":"Caraga","country_id":174,"country_code":"PH","country_name":"Philippines","latitude":"9.80390000","longitude":"125.44090000","wikiDataId":"Q31812050"},{"id":83313,"Name":"Madrid","state_id":1314,"state_code":"13","state_name":"Caraga","country_id":174,"country_code":"PH","country_name":"Philippines","latitude":"9.26211000","longitude":"125.96437000","wikiDataId":"Q155605"},{"id":83319,"Name":"Magallanes","state_id":1314,"state_code":"13","state_name":"Caraga","country_id":174,"country_code":"PH","country_name":"Philippines","latitude":"9.02000000","longitude":"125.51722000","wikiDataId":"Q627572"},{"id":83370,"Name":"Mainit","state_id":1314,"state_code":"13","state_name":"Caraga","country_id":174,"country_code":"PH","country_name":"Philippines","latitude":"9.53500000","longitude":"125.52306000","wikiDataId":"Q155808"},{"id":83433,"Name":"Malimono","state_id":1314,"state_code":"13","state_name":"Caraga","country_id":174,"country_code":"PH","country_name":"Philippines","latitude":"9.61806000","longitude":"125.40222000","wikiDataId":"Q155819"},{"id":83492,"Name":"Manapa","state_id":1314,"state_code":"13","state_name":"Caraga","country_id":174,"country_code":"PH","country_name":"Philippines","latitude":"8.97778000","longitude":"125.43944000","wikiDataId":"Q31812226"},{"id":83582,"Name":"Marihatag","state_id":1314,"state_code":"13","state_name":"Caraga","country_id":174,"country_code":"PH","country_name":"Philippines","latitude":"8.80590000","longitude":"126.29660000","wikiDataId":"Q155611"},{"id":83612,"Name":"Matabao","state_id":1314,"state_code":"13","state_name":"Caraga","country_id":174,"country_code":"PH","country_name":"Philippines","latitude":"8.95722000","longitude":"125.39944000","wikiDataId":"Q31812333"},{"id":83624,"Name":"Mati","state_id":1314,"state_code":"13","state_name":"Caraga","country_id":174,"country_code":"PH","country_name":"Philippines","latitude":"9.73580000","longitude":"125.46800000","wikiDataId":"Q31812345"},{"id":83649,"Name":"Maygatasan","state_id":1314,"state_code":"13","state_name":"Caraga","country_id":174,"country_code":"PH","country_name":"Philippines","latitude":"8.70944000","longitude":"125.71833000","wikiDataId":"Q31812374"},{"id":83783,"Name":"Nasipit","state_id":1314,"state_code":"13","state_name":"Caraga","country_id":174,"country_code":"PH","country_name":"Philippines","latitude":"8.96917000","longitude":"125.29472000","wikiDataId":"Q627604"},{"id":83986,"Name":"Panikian","state_id":1314,"state_code":"13","state_name":"Caraga","country_id":174,"country_code":"PH","country_name":"Philippines","latitude":"9.32935000","longitude":"125.93380000","wikiDataId":"Q31462171"},{"id":84018,"Name":"Parang","state_id":1314,"state_code":"13","state_name":"Caraga","country_id":174,"country_code":"PH","country_name":"Philippines","latitude":"9.28149000","longitude":"125.94208000","wikiDataId":"Q31463267"},{"id":84043,"Name":"Patin-ay","state_id":1314,"state_code":"13","state_name":"Caraga","country_id":174,"country_code":"PH","country_name":"Philippines","latitude":"8.55056000","longitude":"125.93722000","wikiDataId":"Q31464293"},{"id":84092,"Name":"Pilar","state_id":1314,"state_code":"13","state_name":"Caraga","country_id":174,"country_code":"PH","country_name":"Philippines","latitude":"9.86500000","longitude":"126.09944000","wikiDataId":"Q155830"},{"id":84128,"Name":"Placer","state_id":1314,"state_code":"13","state_name":"Caraga","country_id":174,"country_code":"PH","country_name":"Philippines","latitude":"9.65417000","longitude":"125.60250000","wikiDataId":"Q31471792"},{"id":84178,"Name":"Prosperidad","state_id":1314,"state_code":"13","state_name":"Caraga","country_id":174,"country_code":"PH","country_name":"Philippines","latitude":"8.58000000","longitude":"125.89639000","wikiDataId":"Q627144"},{"id":84182,"Name":"Province of Agusan del Norte","state_id":1314,"state_code":"13","state_name":"Caraga","country_id":174,"country_code":"PH","country_name":"Philippines","latitude":"8.99360000","longitude":"125.57098000","wikiDataId":"Q13714"},{"id":84183,"Name":"Province of Agusan del Sur","state_id":1314,"state_code":"13","state_name":"Caraga","country_id":174,"country_code":"PH","country_name":"Philippines","latitude":"8.50000000","longitude":"125.83333000","wikiDataId":"Q13721"},{"id":84246,"Name":"Province of Surigao del Norte","state_id":1314,"state_code":"13","state_name":"Caraga","country_id":174,"country_code":"PH","country_name":"Philippines","latitude":"9.66303000","longitude":"125.52704000","wikiDataId":"Q13889"},{"id":84247,"Name":"Province of Surigao del Sur","state_id":1314,"state_code":"13","state_name":"Caraga","country_id":174,"country_code":"PH","country_name":"Philippines","latitude":"8.80908000","longitude":"126.12854000","wikiDataId":"Q13891"},{"id":84280,"Name":"Punta","state_id":1314,"state_code":"13","state_name":"Caraga","country_id":174,"country_code":"PH","country_name":"Philippines","latitude":"8.98972000","longitude":"125.34000000","wikiDataId":"Q31480360"},{"id":84345,"Name":"Rizal","state_id":1314,"state_code":"13","state_name":"Caraga","country_id":174,"country_code":"PH","country_name":"Philippines","latitude":"8.92917000","longitude":"125.39861000","wikiDataId":"Q31490427"},{"id":84421,"Name":"Salvacion","state_id":1314,"state_code":"13","state_name":"Caraga","country_id":174,"country_code":"PH","country_name":"Philippines","latitude":"7.99954000","longitude":"126.12480000","wikiDataId":"Q31500524"},{"id":84455,"Name":"San Benito","state_id":1314,"state_code":"13","state_name":"Caraga","country_id":174,"country_code":"PH","country_name":"Philippines","latitude":"9.95778000","longitude":"126.00694000","wikiDataId":"Q155849"},{"id":84486,"Name":"San Francisco","state_id":1314,"state_code":"13","state_name":"Caraga","country_id":174,"country_code":"PH","country_name":"Philippines","latitude":"8.53556000","longitude":"125.95000000","wikiDataId":"Q627190"},{"id":84503,"Name":"San Isidro","state_id":1314,"state_code":"13","state_name":"Caraga","country_id":174,"country_code":"PH","country_name":"Philippines","latitude":"9.93694000","longitude":"126.08861000","wikiDataId":"Q155876"},{"id":84538,"Name":"San Luis","state_id":1314,"state_code":"13","state_name":"Caraga","country_id":174,"country_code":"PH","country_name":"Philippines","latitude":"8.47806000","longitude":"125.74389000","wikiDataId":"Q627210"},{"id":84566,"Name":"San Miguel","state_id":1314,"state_code":"13","state_name":"Caraga","country_id":174,"country_code":"PH","country_name":"Philippines","latitude":"8.96889000","longitude":"125.94500000","wikiDataId":"Q155625"},{"id":84634,"Name":"Sanghan","state_id":1314,"state_code":"13","state_name":"Caraga","country_id":174,"country_code":"PH","country_name":"Philippines","latitude":"9.08556000","longitude":"125.57278000","wikiDataId":"Q31509883"},{"id":84640,"Name":"Santa Ana","state_id":1314,"state_code":"13","state_name":"Caraga","country_id":174,"country_code":"PH","country_name":"Philippines","latitude":"9.19278000","longitude":"125.56444000","wikiDataId":"Q31510107"},{"id":84674,"Name":"Santa Josefa","state_id":1314,"state_code":"13","state_name":"Caraga","country_id":174,"country_code":"PH","country_name":"Philippines","latitude":"7.99111000","longitude":"126.03000000","wikiDataId":"Q627231"},{"id":84684,"Name":"Santa Maria","state_id":1314,"state_code":"13","state_name":"Caraga","country_id":174,"country_code":"PH","country_name":"Philippines","latitude":"8.03333000","longitude":"126.16250000","wikiDataId":"Q31511448"},{"id":84691,"Name":"Santa Monica","state_id":1314,"state_code":"13","state_name":"Caraga","country_id":174,"country_code":"PH","country_name":"Philippines","latitude":"10.02000000","longitude":"126.03833000","wikiDataId":"Q28958"},{"id":84730,"Name":"Santo Tomas","state_id":1314,"state_code":"13","state_name":"Caraga","country_id":174,"country_code":"PH","country_name":"Philippines","latitude":"8.18583000","longitude":"125.80389000","wikiDataId":"Q314486"},{"id":84768,"Name":"Sibagat","state_id":1314,"state_code":"13","state_name":"Caraga","country_id":174,"country_code":"PH","country_name":"Philippines","latitude":"8.82250000","longitude":"125.69750000","wikiDataId":"Q31518319"},{"id":84820,"Name":"Sinubong","state_id":1314,"state_code":"13","state_name":"Caraga","country_id":174,"country_code":"PH","country_name":"Philippines","latitude":"8.06840000","longitude":"125.93080000","wikiDataId":"Q31521133"},{"id":84832,"Name":"Sison","state_id":1314,"state_code":"13","state_name":"Caraga","country_id":174,"country_code":"PH","country_name":"Philippines","latitude":"9.66028000","longitude":"125.52861000","wikiDataId":"Q155905"},{"id":84835,"Name":"Socorro","state_id":1314,"state_code":"13","state_name":"Caraga","country_id":174,"country_code":"PH","country_name":"Philippines","latitude":"9.62139000","longitude":"125.96667000","wikiDataId":"Q107612"},{"id":84882,"Name":"Surigao","state_id":1314,"state_code":"13","state_name":"Caraga","country_id":174,"country_code":"PH","country_name":"Philippines","latitude":"9.78900000","longitude":"125.49500000","wikiDataId":"Q173986"},{"id":84927,"Name":"Tagana-an","state_id":1314,"state_code":"13","state_name":"Caraga","country_id":174,"country_code":"PH","country_name":"Philippines","latitude":"9.69722000","longitude":"125.58556000","wikiDataId":"Q31541883"},{"id":84936,"Name":"Tagbina","state_id":1314,"state_code":"13","state_name":"Caraga","country_id":174,"country_code":"PH","country_name":"Philippines","latitude":"8.45194000","longitude":"126.17139000","wikiDataId":"Q155633"},{"id":84940,"Name":"Tagcatong","state_id":1314,"state_code":"13","state_name":"Caraga","country_id":174,"country_code":"PH","country_name":"Philippines","latitude":"9.00222000","longitude":"125.25694000","wikiDataId":"Q31542280"},{"id":84944,"Name":"Tago","state_id":1314,"state_code":"13","state_name":"Caraga","country_id":174,"country_code":"PH","country_name":"Philippines","latitude":"9.02111000","longitude":"126.23167000","wikiDataId":"Q155648"},{"id":84961,"Name":"Talacogon","state_id":1314,"state_code":"13","state_name":"Caraga","country_id":174,"country_code":"PH","country_name":"Philippines","latitude":"8.45611000","longitude":"125.78417000","wikiDataId":"Q31543149"},{"id":84975,"Name":"Taligaman","state_id":1314,"state_code":"13","state_name":"Caraga","country_id":174,"country_code":"PH","country_name":"Philippines","latitude":"8.90444000","longitude":"125.65583000","wikiDataId":"Q31543623"},{"id":84982,"Name":"Talisay","state_id":1314,"state_code":"13","state_name":"Caraga","country_id":174,"country_code":"PH","country_name":"Philippines","latitude":"9.81889000","longitude":"125.61556000","wikiDataId":"Q316500"},{"id":85031,"Name":"Tandag","state_id":1314,"state_code":"13","state_name":"Caraga","country_id":174,"country_code":"PH","country_name":"Philippines","latitude":"9.07833000","longitude":"126.19861000","wikiDataId":"Q155674"},{"id":85099,"Name":"Tidman","state_id":1314,"state_code":"13","state_name":"Caraga","country_id":174,"country_code":"PH","country_name":"Philippines","latitude":"8.29861000","longitude":"126.33889000","wikiDataId":"Q31555326"},{"id":85101,"Name":"Tigao","state_id":1314,"state_code":"13","state_name":"Caraga","country_id":174,"country_code":"PH","country_name":"Philippines","latitude":"9.20889000","longitude":"126.17611000","wikiDataId":"Q31555536"},{"id":85178,"Name":"Trento","state_id":1314,"state_code":"13","state_name":"Caraga","country_id":174,"country_code":"PH","country_name":"Philippines","latitude":"8.04583000","longitude":"126.06361000","wikiDataId":"Q31560282"},{"id":85181,"Name":"Tubajon","state_id":1314,"state_code":"13","state_name":"Caraga","country_id":174,"country_code":"PH","country_name":"Philippines","latitude":"10.33167000","longitude":"125.56194000","wikiDataId":"Q314374"},{"id":85188,"Name":"Tubay","state_id":1314,"state_code":"13","state_name":"Caraga","country_id":174,"country_code":"PH","country_name":"Philippines","latitude":"9.16694000","longitude":"125.52389000","wikiDataId":"Q176975"},{"id":85194,"Name":"Tubod","state_id":1314,"state_code":"13","state_name":"Caraga","country_id":174,"country_code":"PH","country_name":"Philippines","latitude":"9.56250000","longitude":"125.57083000","wikiDataId":"Q155946"},{"id":85226,"Name":"Tungao","state_id":1314,"state_code":"13","state_name":"Caraga","country_id":174,"country_code":"PH","country_name":"Philippines","latitude":"8.78368000","longitude":"125.59587000","wikiDataId":"Q213455"},{"id":85254,"Name":"Unidad","state_id":1314,"state_code":"13","state_name":"Caraga","country_id":174,"country_code":"PH","country_name":"Philippines","latitude":"8.53556000","longitude":"126.22865000","wikiDataId":"Q31567927"},{"id":85259,"Name":"Union","state_id":1314,"state_code":"13","state_name":"Caraga","country_id":174,"country_code":"PH","country_name":"Philippines","latitude":"9.75667000","longitude":"126.11028000","wikiDataId":"Q31568006"},{"id":85282,"Name":"Veruela","state_id":1314,"state_code":"13","state_name":"Caraga","country_id":174,"country_code":"PH","country_name":"Philippines","latitude":"8.07310000","longitude":"125.95580000","wikiDataId":"Q627349"}]