[{"id":107065,"Name":"Adilcevaz","state_id":2215,"state_code":"13","state_name":"Bitlis","country_id":225,"country_code":"TR","country_name":"Turkey","latitude":"38.79911000","longitude":"42.73159000","wikiDataId":"Q175323"},{"id":107071,"Name":"Ahlat","state_id":2215,"state_code":"13","state_name":"Bitlis","country_id":225,"country_code":"TR","country_name":"Turkey","latitude":"38.74890000","longitude":"42.48007000","wikiDataId":"Q166824"},{"id":107347,"Name":"Beğendik","state_id":2215,"state_code":"13","state_name":"Bitlis","country_id":225,"country_code":"TR","country_name":"Turkey","latitude":"37.97557000","longitude":"42.64823000","wikiDataId":"Q127389"},{"id":107364,"Name":"Bitlis","state_id":2215,"state_code":"13","state_name":"Bitlis","country_id":225,"country_code":"TR","country_name":"Turkey","latitude":"38.40115000","longitude":"42.10784000","wikiDataId":"Q83531"},{"id":107751,"Name":"Güroymak","state_id":2215,"state_code":"13","state_name":"Bitlis","country_id":225,"country_code":"TR","country_name":"Turkey","latitude":"38.57580000","longitude":"42.01558000","wikiDataId":"Q1023310"},{"id":107829,"Name":"Hizan","state_id":2215,"state_code":"13","state_name":"Bitlis","country_id":225,"country_code":"TR","country_name":"Turkey","latitude":"38.22498000","longitude":"42.41830000","wikiDataId":"Q990319"},{"id":108189,"Name":"Merkez","state_id":2215,"state_code":"13","state_name":"Bitlis","country_id":225,"country_code":"TR","country_name":"Turkey","latitude":"38.31702000","longitude":"42.10065000","wikiDataId":"Q3055997"},{"id":108233,"Name":"Mutki","state_id":2215,"state_code":"13","state_name":"Bitlis","country_id":225,"country_code":"TR","country_name":"Turkey","latitude":"38.40624000","longitude":"41.92018000","wikiDataId":"Q94637"},{"id":108538,"Name":"Tatvan","state_id":2215,"state_code":"13","state_name":"Bitlis","country_id":225,"country_code":"TR","country_name":"Turkey","latitude":"38.49221000","longitude":"42.28269000","wikiDataId":"Q4817099"}]