[{"id":9160,"Name":"Batié","state_id":3140,"state_code":"13","state_name":"Sud-Ouest Region","country_id":35,"country_code":"BF","country_name":"Burkina Faso","latitude":"9.88333000","longitude":"-2.91667000","wikiDataId":"Q639674"},{"id":9167,"Name":"Dano","state_id":3140,"state_code":"13","state_name":"Sud-Ouest Region","country_id":35,"country_code":"BF","country_name":"Burkina Faso","latitude":"11.14640000","longitude":"-3.05784000","wikiDataId":"Q1164836"},{"id":9169,"Name":"Diébougou","state_id":3140,"state_code":"13","state_name":"Sud-Ouest Region","country_id":35,"country_code":"BF","country_name":"Burkina Faso","latitude":"10.96209000","longitude":"-3.24967000","wikiDataId":"Q578567"},{"id":9199,"Name":"Province de la Bougouriba","state_id":3140,"state_code":"13","state_name":"Sud-Ouest Region","country_id":35,"country_code":"BF","country_name":"Burkina Faso","latitude":"10.83333000","longitude":"-3.41667000","wikiDataId":"Q676641"},{"id":9216,"Name":"Province du Ioba","state_id":3140,"state_code":"13","state_name":"Sud-Ouest Region","country_id":35,"country_code":"BF","country_name":"Burkina Faso","latitude":"11.08333000","longitude":"-3.08333000","wikiDataId":"Q1074154"},{"id":9224,"Name":"Province du Noumbièl","state_id":3140,"state_code":"13","state_name":"Sud-Ouest Region","country_id":35,"country_code":"BF","country_name":"Burkina Faso","latitude":"9.83333000","longitude":"-3.00000000","wikiDataId":"Q646647"},{"id":9226,"Name":"Province du Poni","state_id":3140,"state_code":"13","state_name":"Sud-Ouest Region","country_id":35,"country_code":"BF","country_name":"Burkina Faso","latitude":"10.25000000","longitude":"-3.41667000","wikiDataId":"Q953657"}]