[{"id":105410,"Name":"Amphoe Khlong Luang","state_id":3500,"state_code":"13","state_name":"Pathum Thani","country_id":219,"country_code":"TH","country_name":"Thailand","latitude":"14.09323000","longitude":"100.68106000","wikiDataId":"Q475707"},{"id":105473,"Name":"Amphoe Lam Luk Ka","state_id":3500,"state_code":"13","state_name":"Pathum Thani","country_id":219,"country_code":"TH","country_name":"Thailand","latitude":"13.97744000","longitude":"100.79244000","wikiDataId":"Q475872"},{"id":105488,"Name":"Amphoe Lat Lum Kaeo","state_id":3500,"state_code":"13","state_name":"Pathum Thani","country_id":219,"country_code":"TH","country_name":"Thailand","latitude":"14.04459000","longitude":"100.40948000","wikiDataId":"Q279560"},{"id":105565,"Name":"Amphoe Mueang Pathum Thani","state_id":3500,"state_code":"13","state_name":"Pathum Thani","country_id":219,"country_code":"TH","country_name":"Thailand","latitude":"13.99105000","longitude":"100.53554000","wikiDataId":"Q1935501"},{"id":105682,"Name":"Amphoe Nong Suea","state_id":3500,"state_code":"13","state_name":"Pathum Thani","country_id":219,"country_code":"TH","country_name":"Thailand","latitude":"14.16030000","longitude":"100.83929000","wikiDataId":"Q476285"},{"id":106298,"Name":"Amphoe Thanyaburi","state_id":3500,"state_code":"13","state_name":"Pathum Thani","country_id":219,"country_code":"TH","country_name":"Thailand","latitude":"14.02852000","longitude":"100.76291000","wikiDataId":"Q476881"},{"id":106397,"Name":"Ban Lam Luk Ka","state_id":3500,"state_code":"13","state_name":"Pathum Thani","country_id":219,"country_code":"TH","country_name":"Thailand","latitude":"13.97738000","longitude":"100.77776000","wikiDataId":"Q340034"},{"id":106524,"Name":"Khlong Luang","state_id":3500,"state_code":"13","state_name":"Pathum Thani","country_id":219,"country_code":"TH","country_name":"Thailand","latitude":"14.06467000","longitude":"100.64578000","wikiDataId":"Q11980574"},{"id":106614,"Name":"Pathum Thani","state_id":3500,"state_code":"13","state_name":"Pathum Thani","country_id":219,"country_code":"TH","country_name":"Thailand","latitude":"14.01346000","longitude":"100.53049000","wikiDataId":"Q1365723"}]