[{"id":88906,"Name":"Abrantes","state_id":2238,"state_code":"14","state_name":"Santarém","country_id":177,"country_code":"PT","country_name":"Portugal","latitude":"39.46667000","longitude":"-8.20000000","wikiDataId":"Q331191"},{"id":88916,"Name":"Alcanede","state_id":2238,"state_code":"14","state_name":"Santarém","country_id":177,"country_code":"PT","country_name":"Portugal","latitude":"39.41501000","longitude":"-8.82189000","wikiDataId":"Q31877466"},{"id":88917,"Name":"Alcanena","state_id":2238,"state_code":"14","state_name":"Santarém","country_id":177,"country_code":"PT","country_name":"Portugal","latitude":"39.45900000","longitude":"-8.66892000","wikiDataId":"Q31877477"},{"id":88918,"Name":"Alcanhões","state_id":2238,"state_code":"14","state_name":"Santarém","country_id":177,"country_code":"PT","country_name":"Portugal","latitude":"39.29603000","longitude":"-8.65847000","wikiDataId":"Q2296664"},{"id":88932,"Name":"Alferrarede","state_id":2238,"state_code":"14","state_name":"Santarém","country_id":177,"country_code":"PT","country_name":"Portugal","latitude":"39.48333000","longitude":"-8.16667000","wikiDataId":"Q2296644"},{"id":88948,"Name":"Almeirim","state_id":2238,"state_code":"14","state_name":"Santarém","country_id":177,"country_code":"PT","country_name":"Portugal","latitude":"39.20837000","longitude":"-8.62635000","wikiDataId":"Q31879456"},{"id":88952,"Name":"Alpiarça","state_id":2238,"state_code":"14","state_name":"Santarém","country_id":177,"country_code":"PT","country_name":"Portugal","latitude":"39.25712000","longitude":"-8.58187000","wikiDataId":"Q49280913"},{"id":88963,"Name":"Amiães de Baixo","state_id":2238,"state_code":"14","state_name":"Santarém","country_id":177,"country_code":"PT","country_name":"Portugal","latitude":"39.44296000","longitude":"-8.73358000","wikiDataId":"Q455012"},{"id":89012,"Name":"Azinhaga","state_id":2238,"state_code":"14","state_name":"Santarém","country_id":177,"country_code":"PT","country_name":"Portugal","latitude":"39.34877000","longitude":"-8.53005000","wikiDataId":"Q31894654"},{"id":89031,"Name":"Bemfica","state_id":2238,"state_code":"14","state_name":"Santarém","country_id":177,"country_code":"PT","country_name":"Portugal","latitude":"39.14325000","longitude":"-8.68717000","wikiDataId":"Q816270"},{"id":89032,"Name":"Benavente","state_id":2238,"state_code":"14","state_name":"Santarém","country_id":177,"country_code":"PT","country_name":"Portugal","latitude":"38.90800000","longitude":"-8.76898000","wikiDataId":"Q571140"},{"id":89098,"Name":"Cartaxo","state_id":2238,"state_code":"14","state_name":"Santarém","country_id":177,"country_code":"PT","country_name":"Portugal","latitude":"39.15377000","longitude":"-8.81373000","wikiDataId":"Q841304"},{"id":89116,"Name":"Chamusca","state_id":2238,"state_code":"14","state_name":"Santarém","country_id":177,"country_code":"PT","country_name":"Portugal","latitude":"39.29900000","longitude":"-8.39933000","wikiDataId":"Q1000093"},{"id":89127,"Name":"Constância","state_id":2238,"state_code":"14","state_name":"Santarém","country_id":177,"country_code":"PT","country_name":"Portugal","latitude":"39.45718000","longitude":"-8.30368000","wikiDataId":"Q1003157"},{"id":89130,"Name":"Coruche","state_id":2238,"state_code":"14","state_name":"Santarém","country_id":177,"country_code":"PT","country_name":"Portugal","latitude":"38.95950000","longitude":"-8.52745000","wikiDataId":"Q1000052"},{"id":89143,"Name":"Entroncamento","state_id":2238,"state_code":"14","state_name":"Santarém","country_id":177,"country_code":"PT","country_name":"Portugal","latitude":"39.46667000","longitude":"-8.46667000","wikiDataId":"Q990422"},{"id":89201,"Name":"Fátima","state_id":2238,"state_code":"14","state_name":"Santarém","country_id":177,"country_code":"PT","country_name":"Portugal","latitude":"39.62071000","longitude":"-8.65237000","wikiDataId":"Q49350714"},{"id":89169,"Name":"Fazendas de Almeirim","state_id":2238,"state_code":"14","state_name":"Santarém","country_id":177,"country_code":"PT","country_name":"Portugal","latitude":"39.17553000","longitude":"-8.56927000","wikiDataId":"Q1399148"},{"id":89177,"Name":"Ferreira do Zêzere","state_id":2238,"state_code":"14","state_name":"Santarém","country_id":177,"country_code":"PT","country_name":"Portugal","latitude":"39.72303000","longitude":"-8.31661000","wikiDataId":"Q995202"},{"id":89211,"Name":"Golegã","state_id":2238,"state_code":"14","state_name":"Santarém","country_id":177,"country_code":"PT","country_name":"Portugal","latitude":"39.38683000","longitude":"-8.50591000","wikiDataId":"Q1012522"},{"id":89285,"Name":"Mação","state_id":2238,"state_code":"14","state_name":"Santarém","country_id":177,"country_code":"PT","country_name":"Portugal","latitude":"39.59331000","longitude":"-7.99772000","wikiDataId":"Q1012723"},{"id":89265,"Name":"Madalena","state_id":2238,"state_code":"14","state_name":"Santarém","country_id":177,"country_code":"PT","country_name":"Portugal","latitude":"39.57133000","longitude":"-8.44635000","wikiDataId":"Q579519"},{"id":89278,"Name":"Marinhais","state_id":2238,"state_code":"14","state_name":"Santarém","country_id":177,"country_code":"PT","country_name":"Portugal","latitude":"39.04730000","longitude":"-8.70236000","wikiDataId":"Q1898548"},{"id":89300,"Name":"Minde","state_id":2238,"state_code":"14","state_name":"Santarém","country_id":177,"country_code":"PT","country_name":"Portugal","latitude":"39.51631000","longitude":"-8.68799000","wikiDataId":"Q1717071"},{"id":89315,"Name":"Monsanto","state_id":2238,"state_code":"14","state_name":"Santarém","country_id":177,"country_code":"PT","country_name":"Portugal","latitude":"39.46203000","longitude":"-8.71180000","wikiDataId":"Q35732321"},{"id":89317,"Name":"Montalvinho","state_id":2238,"state_code":"14","state_name":"Santarém","country_id":177,"country_code":"PT","country_name":"Portugal","latitude":"39.48333000","longitude":"-8.30000000","wikiDataId":"Q757860"},{"id":89318,"Name":"Montalvo","state_id":2238,"state_code":"14","state_name":"Santarém","country_id":177,"country_code":"PT","country_name":"Portugal","latitude":"39.48333000","longitude":"-8.30000000","wikiDataId":"Q757860"},{"id":89373,"Name":"Ourém","state_id":2238,"state_code":"14","state_name":"Santarém","country_id":177,"country_code":"PT","country_name":"Portugal","latitude":"39.66179000","longitude":"-8.57895000","wikiDataId":"Q771546"},{"id":89376,"Name":"Paialvo","state_id":2238,"state_code":"14","state_name":"Santarém","country_id":177,"country_code":"PT","country_name":"Portugal","latitude":"39.56399000","longitude":"-8.46835000","wikiDataId":"Q49359643"},{"id":89392,"Name":"Pego","state_id":2238,"state_code":"14","state_name":"Santarém","country_id":177,"country_code":"PT","country_name":"Portugal","latitude":"39.46146000","longitude":"-8.14955000","wikiDataId":"Q1013094"},{"id":89408,"Name":"Pinheiro Grande","state_id":2238,"state_code":"14","state_name":"Santarém","country_id":177,"country_code":"PT","country_name":"Portugal","latitude":"39.39212000","longitude":"-8.43410000","wikiDataId":"Q179045"},{"id":89409,"Name":"Poceirão","state_id":2238,"state_code":"14","state_name":"Santarém","country_id":177,"country_code":"PT","country_name":"Portugal","latitude":"38.83095000","longitude":"-8.79365000","wikiDataId":"Q49361444"},{"id":89420,"Name":"Pontével","state_id":2238,"state_code":"14","state_name":"Santarém","country_id":177,"country_code":"PT","country_name":"Portugal","latitude":"39.14945000","longitude":"-8.83880000","wikiDataId":"Q49361889"},{"id":89438,"Name":"Praia do Ribatejo","state_id":2238,"state_code":"14","state_name":"Santarém","country_id":177,"country_code":"PT","country_name":"Portugal","latitude":"39.46667000","longitude":"-8.35000000","wikiDataId":"Q49362272"},{"id":89463,"Name":"Riachos","state_id":2238,"state_code":"14","state_name":"Santarém","country_id":177,"country_code":"PT","country_name":"Portugal","latitude":"39.44472000","longitude":"-8.51420000","wikiDataId":"Q49363702"},{"id":89471,"Name":"Rio Maior","state_id":2238,"state_code":"14","state_name":"Santarém","country_id":177,"country_code":"PT","country_name":"Portugal","latitude":"39.34288000","longitude":"-8.93806000","wikiDataId":"Q941958"},{"id":89486,"Name":"Salvaterra de Magos","state_id":2238,"state_code":"14","state_name":"Santarém","country_id":177,"country_code":"PT","country_name":"Portugal","latitude":"39.04482000","longitude":"-8.68903000","wikiDataId":"Q1027809"},{"id":89488,"Name":"Samora Correia","state_id":2238,"state_code":"14","state_name":"Santarém","country_id":177,"country_code":"PT","country_name":"Portugal","latitude":"38.93709000","longitude":"-8.87178000","wikiDataId":"Q49366838"},{"id":89506,"Name":"Santa Margarida da Coutada","state_id":2238,"state_code":"14","state_name":"Santarém","country_id":177,"country_code":"PT","country_name":"Portugal","latitude":"39.45000000","longitude":"-8.31667000","wikiDataId":"Q2687695"},{"id":89510,"Name":"Santarém","state_id":2238,"state_code":"14","state_name":"Santarém","country_id":177,"country_code":"PT","country_name":"Portugal","latitude":"39.23333000","longitude":"-8.68333000","wikiDataId":"Q863744"},{"id":89578,"Name":"São Miguel de Rio Torto","state_id":2238,"state_code":"14","state_name":"Santarém","country_id":177,"country_code":"PT","country_name":"Portugal","latitude":"39.43333000","longitude":"-8.21667000","wikiDataId":"Q2035277"},{"id":89593,"Name":"São Vicente do Paul","state_id":2238,"state_code":"14","state_name":"Santarém","country_id":177,"country_code":"PT","country_name":"Portugal","latitude":"39.34946000","longitude":"-8.62221000","wikiDataId":"Q304464"},{"id":89521,"Name":"Sardoal","state_id":2238,"state_code":"14","state_name":"Santarém","country_id":177,"country_code":"PT","country_name":"Portugal","latitude":"39.55643000","longitude":"-8.14323000","wikiDataId":"Q635165"},{"id":89604,"Name":"Tomar","state_id":2238,"state_code":"14","state_name":"Santarém","country_id":177,"country_code":"PT","country_name":"Portugal","latitude":"39.60199000","longitude":"-8.40924000","wikiDataId":"Q622817"},{"id":89607,"Name":"Torres Novas","state_id":2238,"state_code":"14","state_name":"Santarém","country_id":177,"country_code":"PT","country_name":"Portugal","latitude":"39.49160000","longitude":"-8.54796000","wikiDataId":"Q81139"},{"id":89610,"Name":"Tramagal","state_id":2238,"state_code":"14","state_name":"Santarém","country_id":177,"country_code":"PT","country_name":"Portugal","latitude":"39.45000000","longitude":"-8.25000000","wikiDataId":"Q1850950"},{"id":89626,"Name":"Vale de Figueira","state_id":2238,"state_code":"14","state_name":"Santarém","country_id":177,"country_code":"PT","country_name":"Portugal","latitude":"39.30569000","longitude":"-8.62876000","wikiDataId":"Q395953"},{"id":89627,"Name":"Vale de Santarém","state_id":2238,"state_code":"14","state_name":"Santarém","country_id":177,"country_code":"PT","country_name":"Portugal","latitude":"39.19052000","longitude":"-8.72735000","wikiDataId":"Q395953"},{"id":89646,"Name":"Vila Chã de Ourique","state_id":2238,"state_code":"14","state_name":"Santarém","country_id":177,"country_code":"PT","country_name":"Portugal","latitude":"39.17219000","longitude":"-8.76658000","wikiDataId":"Q33511815"},{"id":89654,"Name":"Vila Nova da Barquinha","state_id":2238,"state_code":"14","state_name":"Santarém","country_id":177,"country_code":"PT","country_name":"Portugal","latitude":"39.46081000","longitude":"-8.43588000","wikiDataId":"Q995176"}]