[{"id":102804,"Name":"Abha","state_id":2853,"state_code":"14","state_name":"'Asir","country_id":194,"country_code":"SA","country_name":"Saudi Arabia","latitude":"18.21639000","longitude":"42.50528000","wikiDataId":"Q190948"},{"id":148592,"Name":"Al Bahah","state_id":2853,"state_code":"14","state_name":"'Asir","country_id":194,"country_code":"SA","country_name":"Saudi Arabia","latitude":"20.01288000","longitude":"41.46767000","wikiDataId":"Q27176"},{"id":102827,"Name":"Al Majāridah","state_id":2853,"state_code":"14","state_name":"'Asir","country_id":194,"country_code":"SA","country_name":"Saudi Arabia","latitude":"19.12361000","longitude":"41.91111000","wikiDataId":"Q31874518"},{"id":148593,"Name":"Al Mindak","state_id":2853,"state_code":"14","state_name":"'Asir","country_id":194,"country_code":"SA","country_name":"Saudi Arabia","latitude":"20.15888889","longitude":"41.28333333","wikiDataId":"Q31875144"},{"id":148594,"Name":"Al Qahab","state_id":2853,"state_code":"14","state_name":"'Asir","country_id":194,"country_code":"SA","country_name":"Saudi Arabia","latitude":"18.92560000","longitude":"41.95500000","wikiDataId":"Q15178975"},{"id":102840,"Name":"An Nimāş","state_id":2853,"state_code":"14","state_name":"'Asir","country_id":194,"country_code":"SA","country_name":"Saudi Arabia","latitude":"19.14547000","longitude":"42.12009000","wikiDataId":"Q31882853"},{"id":148595,"Name":"Hajrah","state_id":2853,"state_code":"14","state_name":"'Asir","country_id":194,"country_code":"SA","country_name":"Saudi Arabia","latitude":"20.23333333","longitude":"41.05000000","wikiDataId":"Q3545550"},{"id":102861,"Name":"Khamis Mushait","state_id":2853,"state_code":"14","state_name":"'Asir","country_id":194,"country_code":"SA","country_name":"Saudi Arabia","latitude":"18.30000000","longitude":"42.73333000","wikiDataId":"Q759381"},{"id":148596,"Name":"Ma`riyah","state_id":2853,"state_code":"14","state_name":"'Asir","country_id":194,"country_code":"SA","country_name":"Saudi Arabia","latitude":"18.85000000","longitude":"41.96670000","wikiDataId":"Q15243285"},{"id":148597,"Name":"Mifa","state_id":2853,"state_code":"14","state_name":"'Asir","country_id":194,"country_code":"SA","country_name":"Saudi Arabia","latitude":"18.89170000","longitude":"41.96330000","wikiDataId":"Q6843982"},{"id":148598,"Name":"Munayzir","state_id":2853,"state_code":"14","state_name":"'Asir","country_id":194,"country_code":"SA","country_name":"Saudi Arabia","latitude":"18.94640000","longitude":"41.91640000","wikiDataId":"Q6935631"},{"id":102871,"Name":"Qal‘at Bīshah","state_id":2853,"state_code":"14","state_name":"'Asir","country_id":194,"country_code":"SA","country_name":"Saudi Arabia","latitude":"20.00054000","longitude":"42.60520000","wikiDataId":"Q27135"},{"id":102876,"Name":"Sabt Al Alayah","state_id":2853,"state_code":"14","state_name":"'Asir","country_id":194,"country_code":"SA","country_name":"Saudi Arabia","latitude":"19.70000000","longitude":"41.91667000","wikiDataId":"Q27274"},{"id":102882,"Name":"Tabālah","state_id":2853,"state_code":"14","state_name":"'Asir","country_id":194,"country_code":"SA","country_name":"Saudi Arabia","latitude":"19.95000000","longitude":"42.40000000","wikiDataId":"Q32189185"}]