[{"id":62292,"Name":"Above Rocks","state_id":3746,"state_code":"14","state_name":"Saint Catherine Parish","country_id":108,"country_code":"JM","country_name":"Jamaica","latitude":"18.11432000","longitude":"-76.87590000","wikiDataId":"Q18436859"},{"id":62338,"Name":"Bartons","state_id":3746,"state_code":"14","state_name":"Saint Catherine Parish","country_id":108,"country_code":"JM","country_name":"Jamaica","latitude":"18.02895000","longitude":"-77.13322000","wikiDataId":"Q1880599"},{"id":62348,"Name":"Bellas Gate","state_id":3746,"state_code":"14","state_name":"Saint Catherine Parish","country_id":108,"country_code":"JM","country_name":"Jamaica","latitude":"18.04715000","longitude":"-77.14906000","wikiDataId":"Q1880599"},{"id":62369,"Name":"Bog Walk","state_id":3746,"state_code":"14","state_name":"Saint Catherine Parish","country_id":108,"country_code":"JM","country_name":"Jamaica","latitude":"18.10205000","longitude":"-77.00541000","wikiDataId":"Q890358"},{"id":62372,"Name":"Bogwalk","state_id":3746,"state_code":"14","state_name":"Saint Catherine Parish","country_id":108,"country_code":"JM","country_name":"Jamaica","latitude":"18.10468000","longitude":"-76.98792000","wikiDataId":"Q890358"},{"id":62382,"Name":"Braeton","state_id":3746,"state_code":"14","state_name":"Saint Catherine Parish","country_id":108,"country_code":"JM","country_name":"Jamaica","latitude":"17.94174000","longitude":"-76.88635000","wikiDataId":"Q890358"},{"id":62389,"Name":"Bridgeport","state_id":3746,"state_code":"14","state_name":"Saint Catherine Parish","country_id":108,"country_code":"JM","country_name":"Jamaica","latitude":"17.96264000","longitude":"-76.87809000","wikiDataId":"Q890358"},{"id":62395,"Name":"Browns Hill","state_id":3746,"state_code":"14","state_name":"Saint Catherine Parish","country_id":108,"country_code":"JM","country_name":"Jamaica","latitude":"18.05358000","longitude":"-77.11855000","wikiDataId":"Q890358"},{"id":62436,"Name":"Caymanas","state_id":3746,"state_code":"14","state_name":"Saint Catherine Parish","country_id":108,"country_code":"JM","country_name":"Jamaica","latitude":"18.03824000","longitude":"-76.89833000","wikiDataId":"Q1001895"},{"id":62441,"Name":"Central Village","state_id":3746,"state_code":"14","state_name":"Saint Catherine Parish","country_id":108,"country_code":"JM","country_name":"Jamaica","latitude":"17.99992000","longitude":"-76.92393000","wikiDataId":"Q1001895"},{"id":62488,"Name":"Crescent","state_id":3746,"state_code":"14","state_name":"Saint Catherine Parish","country_id":108,"country_code":"JM","country_name":"Jamaica","latitude":"18.03621000","longitude":"-76.97626000","wikiDataId":"Q1127696"},{"id":62490,"Name":"Cromarty","state_id":3746,"state_code":"14","state_name":"Saint Catherine Parish","country_id":108,"country_code":"JM","country_name":"Jamaica","latitude":"17.95840000","longitude":"-76.98457000","wikiDataId":"Q1127696"},{"id":62495,"Name":"Cumberland","state_id":3746,"state_code":"14","state_name":"Saint Catherine Parish","country_id":108,"country_code":"JM","country_name":"Jamaica","latitude":"17.97650000","longitude":"-76.88208000","wikiDataId":"Q1127696"},{"id":62532,"Name":"Edgewater","state_id":3746,"state_code":"14","state_name":"Saint Catherine Parish","country_id":108,"country_code":"JM","country_name":"Jamaica","latitude":"17.96448000","longitude":"-76.86547000","wikiDataId":"Q1265469"},{"id":62540,"Name":"Ensom","state_id":3746,"state_code":"14","state_name":"Saint Catherine Parish","country_id":108,"country_code":"JM","country_name":"Jamaica","latitude":"18.01778000","longitude":"-76.96221000","wikiDataId":"Q1265469"},{"id":62544,"Name":"Ewarton","state_id":3746,"state_code":"14","state_name":"Saint Catherine Parish","country_id":108,"country_code":"JM","country_name":"Jamaica","latitude":"18.18333000","longitude":"-77.08536000","wikiDataId":"Q1383013"},{"id":62587,"Name":"Ginger Ridge","state_id":3746,"state_code":"14","state_name":"Saint Catherine Parish","country_id":108,"country_code":"JM","country_name":"Jamaica","latitude":"18.07688000","longitude":"-77.16865000","wikiDataId":"Q1394786"},{"id":62589,"Name":"Glengoffe","state_id":3746,"state_code":"14","state_name":"Saint Catherine Parish","country_id":108,"country_code":"JM","country_name":"Jamaica","latitude":"18.15214000","longitude":"-76.89057000","wikiDataId":"Q1394786"},{"id":62591,"Name":"Golden Acres","state_id":3746,"state_code":"14","state_name":"Saint Catherine Parish","country_id":108,"country_code":"JM","country_name":"Jamaica","latitude":"18.01950000","longitude":"-76.98040000","wikiDataId":"Q1394786"},{"id":62609,"Name":"Greater Portmore","state_id":3746,"state_code":"14","state_name":"Saint Catherine Parish","country_id":108,"country_code":"JM","country_name":"Jamaica","latitude":"17.95228000","longitude":"-76.91133000","wikiDataId":"Q1394786"},{"id":62612,"Name":"Greendale","state_id":3746,"state_code":"14","state_name":"Saint Catherine Parish","country_id":108,"country_code":"JM","country_name":"Jamaica","latitude":"18.01251000","longitude":"-76.94831000","wikiDataId":"Q1394786"},{"id":62616,"Name":"Gregory Park","state_id":3746,"state_code":"14","state_name":"Saint Catherine Parish","country_id":108,"country_code":"JM","country_name":"Jamaica","latitude":"17.99490000","longitude":"-76.88302000","wikiDataId":"Q1394786"},{"id":62628,"Name":"Hampton Green","state_id":3746,"state_code":"14","state_name":"Saint Catherine Parish","country_id":108,"country_code":"JM","country_name":"Jamaica","latitude":"18.00544000","longitude":"-76.96818000","wikiDataId":"Q1423367"},{"id":62631,"Name":"Harewood","state_id":3746,"state_code":"14","state_name":"Saint Catherine Parish","country_id":108,"country_code":"JM","country_name":"Jamaica","latitude":"18.17277000","longitude":"-76.94395000","wikiDataId":"Q1423367"},{"id":62632,"Name":"Harkers Hall","state_id":3746,"state_code":"14","state_name":"Saint Catherine Parish","country_id":108,"country_code":"JM","country_name":"Jamaica","latitude":"18.13149000","longitude":"-76.91350000","wikiDataId":"Q1423367"},{"id":62643,"Name":"Hellshire","state_id":3746,"state_code":"14","state_name":"Saint Catherine Parish","country_id":108,"country_code":"JM","country_name":"Jamaica","latitude":"17.89669000","longitude":"-76.96187000","wikiDataId":"Q1008008"},{"id":62660,"Name":"Independence City","state_id":3746,"state_code":"14","state_name":"Saint Catherine Parish","country_id":108,"country_code":"JM","country_name":"Jamaica","latitude":"17.97783000","longitude":"-76.87498000","wikiDataId":"Q1008008"},{"id":62689,"Name":"Keystone","state_id":3746,"state_code":"14","state_name":"Saint Catherine Parish","country_id":108,"country_code":"JM","country_name":"Jamaica","latitude":"18.01652000","longitude":"-76.93525000","wikiDataId":"Q1008008"},{"id":62696,"Name":"Kitson Town","state_id":3746,"state_code":"14","state_name":"Saint Catherine Parish","country_id":108,"country_code":"JM","country_name":"Jamaica","latitude":"18.03487000","longitude":"-77.04028000","wikiDataId":"Q34692"},{"id":62713,"Name":"Linstead","state_id":3746,"state_code":"14","state_name":"Saint Catherine Parish","country_id":108,"country_code":"JM","country_name":"Jamaica","latitude":"18.13683000","longitude":"-77.03171000","wikiDataId":"Q769578"},{"id":62722,"Name":"Lluidas Vale","state_id":3746,"state_code":"14","state_name":"Saint Catherine Parish","country_id":108,"country_code":"JM","country_name":"Jamaica","latitude":"18.14977000","longitude":"-77.16853000","wikiDataId":"Q1827268"},{"id":62808,"Name":"Naggo Head","state_id":3746,"state_code":"14","state_name":"Saint Catherine Parish","country_id":108,"country_code":"JM","country_name":"Jamaica","latitude":"17.96415000","longitude":"-76.88820000","wikiDataId":"Q429741"},{"id":62838,"Name":"Old Harbour","state_id":3746,"state_code":"14","state_name":"Saint Catherine Parish","country_id":108,"country_code":"JM","country_name":"Jamaica","latitude":"17.94144000","longitude":"-77.10898000","wikiDataId":"Q771267"},{"id":62839,"Name":"Old Harbour Bay","state_id":3746,"state_code":"14","state_name":"Saint Catherine Parish","country_id":108,"country_code":"JM","country_name":"Jamaica","latitude":"17.90918000","longitude":"-77.09718000","wikiDataId":"Q771267"},{"id":62840,"Name":"Old Harbour Road","state_id":3746,"state_code":"14","state_name":"Saint Catherine Parish","country_id":108,"country_code":"JM","country_name":"Jamaica","latitude":"17.95797000","longitude":"-77.02730000","wikiDataId":"Q771267"},{"id":62860,"Name":"Part of Guys Hill","state_id":3746,"state_code":"14","state_name":"Saint Catherine Parish","country_id":108,"country_code":"JM","country_name":"Jamaica","latitude":"18.24525000","longitude":"-76.99081000","wikiDataId":"Q7099213"},{"id":62862,"Name":"Part of Keystone","state_id":3746,"state_code":"14","state_name":"Saint Catherine Parish","country_id":108,"country_code":"JM","country_name":"Jamaica","latitude":"18.03965000","longitude":"-76.95113000","wikiDataId":"Q7099213"},{"id":62863,"Name":"Part of Rock Hall","state_id":3746,"state_code":"14","state_name":"Saint Catherine Parish","country_id":108,"country_code":"JM","country_name":"Jamaica","latitude":"18.09119000","longitude":"-76.88804000","wikiDataId":"Q7099213"},{"id":62865,"Name":"Passage Fort","state_id":3746,"state_code":"14","state_name":"Saint Catherine Parish","country_id":108,"country_code":"JM","country_name":"Jamaica","latitude":"17.97788000","longitude":"-76.86793000","wikiDataId":"Q7099213"},{"id":62870,"Name":"Pear Tree Grove","state_id":3746,"state_code":"14","state_name":"Saint Catherine Parish","country_id":108,"country_code":"JM","country_name":"Jamaica","latitude":"18.22515000","longitude":"-76.95293000","wikiDataId":"Q7099213"},{"id":62888,"Name":"Point Hill","state_id":3746,"state_code":"14","state_name":"Saint Catherine Parish","country_id":108,"country_code":"JM","country_name":"Jamaica","latitude":"18.09361000","longitude":"-77.10480000","wikiDataId":"Q7099213"},{"id":62898,"Name":"Portmore","state_id":3746,"state_code":"14","state_name":"Saint Catherine Parish","country_id":108,"country_code":"JM","country_name":"Jamaica","latitude":"17.95032000","longitude":"-76.88215000","wikiDataId":"Q644663"},{"id":62920,"Name":"Redwood","state_id":3746,"state_code":"14","state_name":"Saint Catherine Parish","country_id":108,"country_code":"JM","country_name":"Jamaica","latitude":"18.21026000","longitude":"-76.98536000","wikiDataId":"Q2125159"},{"id":62937,"Name":"Riversdale","state_id":3746,"state_code":"14","state_name":"Saint Catherine Parish","country_id":108,"country_code":"JM","country_name":"Jamaica","latitude":"18.17802000","longitude":"-76.96636000","wikiDataId":"Q2125159"},{"id":62995,"Name":"Sligoville","state_id":3746,"state_code":"14","state_name":"Saint Catherine Parish","country_id":108,"country_code":"JM","country_name":"Jamaica","latitude":"18.08203000","longitude":"-76.93991000","wikiDataId":"Q305508"},{"id":63007,"Name":"Spanish Town","state_id":3746,"state_code":"14","state_name":"Saint Catherine Parish","country_id":108,"country_code":"JM","country_name":"Jamaica","latitude":"17.99107000","longitude":"-76.95742000","wikiDataId":"Q846939"},{"id":63008,"Name":"Spanish Town Central","state_id":3746,"state_code":"14","state_name":"Saint Catherine Parish","country_id":108,"country_code":"JM","country_name":"Jamaica","latitude":"17.98014000","longitude":"-76.92294000","wikiDataId":"Q846939"},{"id":63021,"Name":"St. John's East","state_id":3746,"state_code":"14","state_name":"Saint Catherine Parish","country_id":108,"country_code":"JM","country_name":"Jamaica","latitude":"18.00090000","longitude":"-76.97466000","wikiDataId":"Q846939"},{"id":63022,"Name":"St. John's West","state_id":3746,"state_code":"14","state_name":"Saint Catherine Parish","country_id":108,"country_code":"JM","country_name":"Jamaica","latitude":"18.00539000","longitude":"-77.00755000","wikiDataId":"Q846939"},{"id":63066,"Name":"Troja","state_id":3746,"state_code":"14","state_name":"Saint Catherine Parish","country_id":108,"country_code":"JM","country_name":"Jamaica","latitude":"18.20485000","longitude":"-76.93196000","wikiDataId":"Q1651059"},{"id":63089,"Name":"Waterford","state_id":3746,"state_code":"14","state_name":"Saint Catherine Parish","country_id":108,"country_code":"JM","country_name":"Jamaica","latitude":"17.99340000","longitude":"-76.86090000","wikiDataId":"Q1651059"},{"id":63091,"Name":"Watermount","state_id":3746,"state_code":"14","state_name":"Saint Catherine Parish","country_id":108,"country_code":"JM","country_name":"Jamaica","latitude":"18.06686000","longitude":"-77.09112000","wikiDataId":"Q1651059"},{"id":63095,"Name":"West Cumberland","state_id":3746,"state_code":"14","state_name":"Saint Catherine Parish","country_id":108,"country_code":"JM","country_name":"Jamaica","latitude":"17.97890000","longitude":"-76.88662000","wikiDataId":"Q1651059"},{"id":63108,"Name":"Willowdene","state_id":3746,"state_code":"14","state_name":"Saint Catherine Parish","country_id":108,"country_code":"JM","country_name":"Jamaica","latitude":"17.99189000","longitude":"-76.98199000","wikiDataId":"Q1651059"}]