[{"id":134586,"Name":"Ben","state_id":3921,"state_code":"14","state_name":"Chaharmahal and Bakhtiari","country_id":103,"country_code":"IR","country_name":"Iran","latitude":"32.53556000","longitude":"50.75201000","wikiDataId":"Q814594"},{"id":134590,"Name":"Borūjen","state_id":3921,"state_code":"14","state_name":"Chaharmahal and Bakhtiari","country_id":103,"country_code":"IR","country_name":"Iran","latitude":"31.96523000","longitude":"51.28730000","wikiDataId":"Q888701"},{"id":134607,"Name":"Chelgard","state_id":3921,"state_code":"14","state_name":"Chaharmahal and Bakhtiari","country_id":103,"country_code":"IR","country_name":"Iran","latitude":"32.46720000","longitude":"50.12229000","wikiDataId":"Q2634871"},{"id":134637,"Name":"Farrokh Shahr","state_id":3921,"state_code":"14","state_name":"Chaharmahal and Bakhtiari","country_id":103,"country_code":"IR","country_name":"Iran","latitude":"32.27174000","longitude":"50.98008000","wikiDataId":"Q2614253"},{"id":134641,"Name":"Fārsān","state_id":3921,"state_code":"14","state_name":"Chaharmahal and Bakhtiari","country_id":103,"country_code":"IR","country_name":"Iran","latitude":"32.25694000","longitude":"50.56095000","wikiDataId":"Q2325495"},{"id":134764,"Name":"Saman","state_id":3921,"state_code":"14","state_name":"Chaharmahal and Bakhtiari","country_id":103,"country_code":"IR","country_name":"Iran","latitude":"32.44980000","longitude":"50.91379000","wikiDataId":"Q765806"},{"id":134777,"Name":"Shahr-e Kord","state_id":3921,"state_code":"14","state_name":"Chaharmahal and Bakhtiari","country_id":103,"country_code":"IR","country_name":"Iran","latitude":"32.32612000","longitude":"50.85720000","wikiDataId":"Q386649"},{"id":134783,"Name":"Shahrekord","state_id":3921,"state_code":"14","state_name":"Chaharmahal and Bakhtiari","country_id":103,"country_code":"IR","country_name":"Iran","latitude":"32.31667000","longitude":"50.80000000","wikiDataId":"Q498106"},{"id":134813,"Name":"Shahrestān-e Borūjen","state_id":3921,"state_code":"14","state_name":"Chaharmahal and Bakhtiari","country_id":103,"country_code":"IR","country_name":"Iran","latitude":"31.90000000","longitude":"51.20000000","wikiDataId":"Q498106"},{"id":134871,"Name":"Shahrestān-e Fārsān","state_id":3921,"state_code":"14","state_name":"Chaharmahal and Bakhtiari","country_id":103,"country_code":"IR","country_name":"Iran","latitude":"32.25779000","longitude":"50.56235000","wikiDataId":"Q721034"},{"id":134937,"Name":"Shahrestān-e Kīār","state_id":3921,"state_code":"14","state_name":"Chaharmahal and Bakhtiari","country_id":103,"country_code":"IR","country_name":"Iran","latitude":"32.00000000","longitude":"50.76667000","wikiDataId":"Q1264551"},{"id":134940,"Name":"Shahrestān-e Kūhrang","state_id":3921,"state_code":"14","state_name":"Chaharmahal and Bakhtiari","country_id":103,"country_code":"IR","country_name":"Iran","latitude":"32.41667000","longitude":"50.00000000","wikiDataId":"Q1264551"},{"id":134943,"Name":"Shahrestān-e Lordegān","state_id":3921,"state_code":"14","state_name":"Chaharmahal and Bakhtiari","country_id":103,"country_code":"IR","country_name":"Iran","latitude":"31.43333000","longitude":"50.83333000","wikiDataId":"Q1264551"}]