[{"id":9268,"Name":"Batanovtsi","state_id":4695,"state_code":"14","state_name":"Pernik Province","country_id":34,"country_code":"BG","country_name":"Bulgaria","latitude":"42.59692000","longitude":"22.95634000","wikiDataId":"Q407198"},{"id":9288,"Name":"Breznik","state_id":4695,"state_code":"14","state_name":"Pernik Province","country_id":34,"country_code":"BG","country_name":"Bulgaria","latitude":"42.74085000","longitude":"22.90723000","wikiDataId":"Q390361"},{"id":9509,"Name":"Obshtina Kovachevtsi","state_id":4695,"state_code":"14","state_name":"Pernik Province","country_id":34,"country_code":"BG","country_name":"Bulgaria","latitude":"42.55000000","longitude":"22.83333000","wikiDataId":"Q2405644"},{"id":9552,"Name":"Obshtina Pernik","state_id":4695,"state_code":"14","state_name":"Pernik Province","country_id":34,"country_code":"BG","country_name":"Bulgaria","latitude":"42.61667000","longitude":"23.08333000","wikiDataId":"Q4351615"},{"id":9567,"Name":"Obshtina Radomir","state_id":4695,"state_code":"14","state_name":"Pernik Province","country_id":34,"country_code":"BG","country_name":"Bulgaria","latitude":"42.46667000","longitude":"23.01667000","wikiDataId":"Q1749664"},{"id":9636,"Name":"Obshtina Zemen","state_id":4695,"state_code":"14","state_name":"Pernik Province","country_id":34,"country_code":"BG","country_name":"Bulgaria","latitude":"42.55067000","longitude":"22.71440000","wikiDataId":"Q4191007"},{"id":9650,"Name":"Pernik","state_id":4695,"state_code":"14","state_name":"Pernik Province","country_id":34,"country_code":"BG","country_name":"Bulgaria","latitude":"42.60000000","longitude":"23.03333000","wikiDataId":"Q185289"},{"id":9665,"Name":"Radomir","state_id":4695,"state_code":"14","state_name":"Pernik Province","country_id":34,"country_code":"BG","country_name":"Bulgaria","latitude":"42.54565000","longitude":"22.96553000","wikiDataId":"Q405742"},{"id":9724,"Name":"Tran","state_id":4695,"state_code":"14","state_name":"Pernik Province","country_id":34,"country_code":"BG","country_name":"Bulgaria","latitude":"42.83528000","longitude":"22.65167000","wikiDataId":"Q406863"},{"id":9748,"Name":"Zemen","state_id":4695,"state_code":"14","state_name":"Pernik Province","country_id":34,"country_code":"BG","country_name":"Bulgaria","latitude":"42.47889000","longitude":"22.74917000","wikiDataId":"Q405329"}]