[{"id":66576,"Name":"Akademija (Kaunas)","state_id":1580,"state_code":"15","state_name":"Kaunas City Municipality","country_id":126,"country_code":"LT","country_name":"Lithuania","latitude":"54.89640000","longitude":"23.82411000","wikiDataId":"Q2869148"},{"id":66579,"Name":"Aleksotas","state_id":1580,"state_code":"15","state_name":"Kaunas City Municipality","country_id":126,"country_code":"LT","country_name":"Lithuania","latitude":"54.88037000","longitude":"23.90842000","wikiDataId":"Q1023041"},{"id":66584,"Name":"Ariogala","state_id":1580,"state_code":"15","state_name":"Kaunas City Municipality","country_id":126,"country_code":"LT","country_name":"Lithuania","latitude":"55.26200000","longitude":"23.47700000","wikiDataId":"Q1004320"},{"id":66588,"Name":"Birštonas","state_id":1580,"state_code":"15","state_name":"Kaunas City Municipality","country_id":126,"country_code":"LT","country_name":"Lithuania","latitude":"54.61667000","longitude":"24.03333000","wikiDataId":"Q804035"},{"id":66591,"Name":"Dainava (Kaunas)","state_id":1580,"state_code":"15","state_name":"Kaunas City Municipality","country_id":126,"country_code":"LT","country_name":"Lithuania","latitude":"54.91525000","longitude":"23.96831000","wikiDataId":"Q763504"},{"id":66595,"Name":"Eiguliai","state_id":1580,"state_code":"15","state_name":"Kaunas City Municipality","country_id":126,"country_code":"LT","country_name":"Lithuania","latitude":"54.93133000","longitude":"23.93243000","wikiDataId":"Q2356406"},{"id":66598,"Name":"Ežerėlis","state_id":1580,"state_code":"15","state_name":"Kaunas City Municipality","country_id":126,"country_code":"LT","country_name":"Lithuania","latitude":"54.88315000","longitude":"23.60396000","wikiDataId":"Q2044597"},{"id":66601,"Name":"Garliava","state_id":1580,"state_code":"15","state_name":"Kaunas City Municipality","country_id":126,"country_code":"LT","country_name":"Lithuania","latitude":"54.82139000","longitude":"23.87130000","wikiDataId":"Q1004312"},{"id":66605,"Name":"Jieznas","state_id":1580,"state_code":"15","state_name":"Kaunas City Municipality","country_id":126,"country_code":"LT","country_name":"Lithuania","latitude":"54.59937000","longitude":"24.17593000","wikiDataId":"Q47068"},{"id":66606,"Name":"Jonava","state_id":1580,"state_code":"15","state_name":"Kaunas City Municipality","country_id":126,"country_code":"LT","country_name":"Lithuania","latitude":"55.08333000","longitude":"24.28333000","wikiDataId":"Q1351768"},{"id":66611,"Name":"Kaišiadorys","state_id":1580,"state_code":"15","state_name":"Kaunas City Municipality","country_id":126,"country_code":"LT","country_name":"Lithuania","latitude":"54.86667000","longitude":"24.45000000","wikiDataId":"Q1260423"},{"id":66614,"Name":"Karmėlava","state_id":1580,"state_code":"15","state_name":"Kaunas City Municipality","country_id":126,"country_code":"LT","country_name":"Lithuania","latitude":"54.97055000","longitude":"24.06182000","wikiDataId":"Q1734094"},{"id":66615,"Name":"Kaunas","state_id":1580,"state_code":"15","state_name":"Kaunas City Municipality","country_id":126,"country_code":"LT","country_name":"Lithuania","latitude":"54.90272000","longitude":"23.90961000","wikiDataId":"Q4115712"},{"id":66629,"Name":"Kėdainiai","state_id":1580,"state_code":"15","state_name":"Kaunas City Municipality","country_id":126,"country_code":"LT","country_name":"Lithuania","latitude":"55.28333000","longitude":"23.96667000","wikiDataId":"Q46786"},{"id":66624,"Name":"Kulautuva","state_id":1580,"state_code":"15","state_name":"Kaunas City Municipality","country_id":126,"country_code":"LT","country_name":"Lithuania","latitude":"54.94212000","longitude":"23.64218000","wikiDataId":"Q2097414"},{"id":66636,"Name":"Mastaiciai","state_id":1580,"state_code":"15","state_name":"Kaunas City Municipality","country_id":126,"country_code":"LT","country_name":"Lithuania","latitude":"54.81998000","longitude":"23.84462000","wikiDataId":"Q1351046"},{"id":66661,"Name":"Prienai","state_id":1580,"state_code":"15","state_name":"Kaunas City Municipality","country_id":126,"country_code":"LT","country_name":"Lithuania","latitude":"54.63333000","longitude":"23.95000000","wikiDataId":"Q768416"},{"id":66664,"Name":"Ramučiai","state_id":1580,"state_code":"15","state_name":"Kaunas City Municipality","country_id":126,"country_code":"LT","country_name":"Lithuania","latitude":"54.94830000","longitude":"24.03050000","wikiDataId":"Q384446"},{"id":66666,"Name":"Raseiniai","state_id":1580,"state_code":"15","state_name":"Kaunas City Municipality","country_id":126,"country_code":"LT","country_name":"Lithuania","latitude":"55.36667000","longitude":"23.11667000","wikiDataId":"Q2069355"},{"id":66674,"Name":"Sargėnai","state_id":1580,"state_code":"15","state_name":"Kaunas City Municipality","country_id":126,"country_code":"LT","country_name":"Lithuania","latitude":"54.94933000","longitude":"23.88316000","wikiDataId":"Q157516"},{"id":66714,"Name":"Šilainiai","state_id":1580,"state_code":"15","state_name":"Kaunas City Municipality","country_id":126,"country_code":"LT","country_name":"Lithuania","latitude":"54.92911000","longitude":"23.88599000","wikiDataId":"Q1417346"},{"id":66701,"Name":"Vilkija","state_id":1580,"state_code":"15","state_name":"Kaunas City Municipality","country_id":126,"country_code":"LT","country_name":"Lithuania","latitude":"55.04609000","longitude":"23.58552000","wikiDataId":"Q1994818"},{"id":66723,"Name":"Žiežmariai","state_id":1580,"state_code":"15","state_name":"Kaunas City Municipality","country_id":126,"country_code":"LT","country_name":"Lithuania","latitude":"54.80725000","longitude":"24.44073000","wikiDataId":"Q4178675"}]