[{"id":109070,"Name":"Geiro","state_id":1470,"state_code":"16","state_name":"Morogoro","country_id":218,"country_code":"TZ","country_name":"Tanzania","latitude":"-6.15000000","longitude":"36.86667000","wikiDataId":"Q49349721"},{"id":109073,"Name":"Ifakara","state_id":1470,"state_code":"16","state_name":"Morogoro","country_id":218,"country_code":"TZ","country_name":"Tanzania","latitude":"-8.13333000","longitude":"36.68333000","wikiDataId":"Q995454"},{"id":109106,"Name":"Kidatu","state_id":1470,"state_code":"16","state_name":"Morogoro","country_id":218,"country_code":"TZ","country_name":"Tanzania","latitude":"-7.69916000","longitude":"36.95722000","wikiDataId":"Q939295"},{"id":109107,"Name":"Kidodi","state_id":1470,"state_code":"16","state_name":"Morogoro","country_id":218,"country_code":"TZ","country_name":"Tanzania","latitude":"-7.60361000","longitude":"37.00438000","wikiDataId":"Q939295"},{"id":109115,"Name":"Kilosa","state_id":1470,"state_code":"16","state_name":"Morogoro","country_id":218,"country_code":"TZ","country_name":"Tanzania","latitude":"-6.83333000","longitude":"36.98333000","wikiDataId":"Q6408133"},{"id":109116,"Name":"Kimamba","state_id":1470,"state_code":"16","state_name":"Morogoro","country_id":218,"country_code":"TZ","country_name":"Tanzania","latitude":"-6.78333000","longitude":"37.13333000","wikiDataId":"Q6408133"},{"id":109123,"Name":"Kisanga","state_id":1470,"state_code":"16","state_name":"Morogoro","country_id":218,"country_code":"TZ","country_name":"Tanzania","latitude":"-7.43622000","longitude":"37.70337000","wikiDataId":"Q11929863"},{"id":109149,"Name":"Lupiro","state_id":1470,"state_code":"16","state_name":"Morogoro","country_id":218,"country_code":"TZ","country_name":"Tanzania","latitude":"-8.38333000","longitude":"36.66667000","wikiDataId":"Q1877120"},{"id":109155,"Name":"Magole","state_id":1470,"state_code":"16","state_name":"Morogoro","country_id":218,"country_code":"TZ","country_name":"Tanzania","latitude":"-6.37697000","longitude":"37.37373000","wikiDataId":"Q35722319"},{"id":109160,"Name":"Mahenge","state_id":1470,"state_code":"16","state_name":"Morogoro","country_id":218,"country_code":"TZ","country_name":"Tanzania","latitude":"-8.68333000","longitude":"36.71667000","wikiDataId":"Q13123849"},{"id":109170,"Name":"Malinyi","state_id":1470,"state_code":"16","state_name":"Morogoro","country_id":218,"country_code":"TZ","country_name":"Tanzania","latitude":"-8.93333000","longitude":"36.13333000","wikiDataId":"Q6272925"},{"id":109197,"Name":"Mikumi","state_id":1470,"state_code":"16","state_name":"Morogoro","country_id":218,"country_code":"TZ","country_name":"Tanzania","latitude":"-7.40409000","longitude":"36.98309000","wikiDataId":"Q6850269"},{"id":109206,"Name":"Mlimba","state_id":1470,"state_code":"16","state_name":"Morogoro","country_id":218,"country_code":"TZ","country_name":"Tanzania","latitude":"-8.80000000","longitude":"35.81667000","wikiDataId":"Q29578870"},{"id":109208,"Name":"Morogoro","state_id":1470,"state_code":"16","state_name":"Morogoro","country_id":218,"country_code":"TZ","country_name":"Tanzania","latitude":"-6.82102000","longitude":"37.66122000","wikiDataId":"Q243319"},{"id":109213,"Name":"Msowero","state_id":1470,"state_code":"16","state_name":"Morogoro","country_id":218,"country_code":"TZ","country_name":"Tanzania","latitude":"-6.53333000","longitude":"37.20000000","wikiDataId":"Q3711197"},{"id":109216,"Name":"Mtimbira","state_id":1470,"state_code":"16","state_name":"Morogoro","country_id":218,"country_code":"TZ","country_name":"Tanzania","latitude":"-8.78333000","longitude":"36.35000000","wikiDataId":"Q13124271"},{"id":109228,"Name":"Mvomero District","state_id":1470,"state_code":"16","state_name":"Morogoro","country_id":218,"country_code":"TZ","country_name":"Tanzania","latitude":"-6.30000000","longitude":"37.45000000","wikiDataId":"Q3711212"},{"id":109252,"Name":"Ngerengere","state_id":1470,"state_code":"16","state_name":"Morogoro","country_id":218,"country_code":"TZ","country_name":"Tanzania","latitude":"-6.75000000","longitude":"38.11667000","wikiDataId":"Q3875760"}]