[{"id":107123,"Name":"Alanyurt","state_id":2163,"state_code":"16","state_name":"Bursa","country_id":225,"country_code":"TR","country_name":"Turkey","latitude":"40.10881000","longitude":"29.51871000","wikiDataId":"Q171810"},{"id":107269,"Name":"Balarim","state_id":2163,"state_code":"16","state_name":"Bursa","country_id":225,"country_code":"TR","country_name":"Turkey","latitude":"40.37381000","longitude":"29.59025000","wikiDataId":"Q752528"},{"id":107374,"Name":"Boyalıca","state_id":2163,"state_code":"16","state_name":"Bursa","country_id":225,"country_code":"TR","country_name":"Turkey","latitude":"40.48194000","longitude":"29.56083000","wikiDataId":"Q4952208"},{"id":107414,"Name":"Bursa","state_id":2163,"state_code":"16","state_name":"Bursa","country_id":225,"country_code":"TR","country_name":"Turkey","latitude":"40.19559000","longitude":"29.06013000","wikiDataId":"Q40738"},{"id":107419,"Name":"Büyükorhan İlçesi","state_id":2163,"state_code":"16","state_name":"Bursa","country_id":225,"country_code":"TR","country_name":"Turkey","latitude":"39.78223000","longitude":"28.89338000","wikiDataId":"Q2473756"},{"id":108757,"Name":"Çakırca","state_id":2163,"state_code":"16","state_name":"Bursa","country_id":225,"country_code":"TR","country_name":"Turkey","latitude":"40.47056000","longitude":"29.66333000","wikiDataId":"Q4830913"},{"id":108758,"Name":"Çakırlı","state_id":2163,"state_code":"16","state_name":"Bursa","country_id":225,"country_code":"TR","country_name":"Turkey","latitude":"40.51806000","longitude":"29.45222000","wikiDataId":"Q4830913"},{"id":107426,"Name":"Cerrah","state_id":2163,"state_code":"16","state_name":"Bursa","country_id":225,"country_code":"TR","country_name":"Turkey","latitude":"40.07124000","longitude":"29.44661000","wikiDataId":"Q5064809"},{"id":107464,"Name":"Demirtaş","state_id":2163,"state_code":"16","state_name":"Bursa","country_id":225,"country_code":"TR","country_name":"Turkey","latitude":"40.27194000","longitude":"29.09833000","wikiDataId":"Q1023149"},{"id":107560,"Name":"Elbeyli","state_id":2163,"state_code":"16","state_name":"Bursa","country_id":225,"country_code":"TR","country_name":"Turkey","latitude":"40.48611000","longitude":"29.72472000","wikiDataId":"Q4817523"},{"id":107660,"Name":"Gemlik","state_id":2163,"state_code":"16","state_name":"Bursa","country_id":225,"country_code":"TR","country_name":"Turkey","latitude":"40.43510000","longitude":"29.14943000","wikiDataId":"Q984701"},{"id":107756,"Name":"Gürsu","state_id":2163,"state_code":"16","state_name":"Bursa","country_id":225,"country_code":"TR","country_name":"Turkey","latitude":"40.25498000","longitude":"29.21183000","wikiDataId":"Q2384475"},{"id":107785,"Name":"Hamzabey","state_id":2163,"state_code":"16","state_name":"Bursa","country_id":225,"country_code":"TR","country_name":"Turkey","latitude":"40.13583000","longitude":"29.52639000","wikiDataId":"Q4821124"},{"id":107795,"Name":"Harmancık İlçesi","state_id":2163,"state_code":"16","state_name":"Bursa","country_id":225,"country_code":"TR","country_name":"Turkey","latitude":"39.67743000","longitude":"29.15523000","wikiDataId":"Q2671081"},{"id":108901,"Name":"İnegol","state_id":2163,"state_code":"16","state_name":"Bursa","country_id":225,"country_code":"TR","country_name":"Turkey","latitude":"40.07806000","longitude":"29.51333000","wikiDataId":"Q343973"},{"id":108925,"Name":"İznik","state_id":2163,"state_code":"16","state_name":"Bursa","country_id":225,"country_code":"TR","country_name":"Turkey","latitude":"40.42861000","longitude":"29.72111000","wikiDataId":"Q739037"},{"id":107890,"Name":"Karacabey","state_id":2163,"state_code":"16","state_name":"Bursa","country_id":225,"country_code":"TR","country_name":"Turkey","latitude":"40.21323000","longitude":"28.36120000","wikiDataId":"Q189697"},{"id":107935,"Name":"Karıncalı","state_id":2163,"state_code":"16","state_name":"Bursa","country_id":225,"country_code":"TR","country_name":"Turkey","latitude":"39.97118000","longitude":"28.85894000","wikiDataId":"Q6373893"},{"id":107967,"Name":"Keles","state_id":2163,"state_code":"16","state_name":"Bursa","country_id":225,"country_code":"TR","country_name":"Turkey","latitude":"39.91361000","longitude":"29.22944000","wikiDataId":"Q1023265"},{"id":107987,"Name":"Kestel","state_id":2163,"state_code":"16","state_name":"Bursa","country_id":225,"country_code":"TR","country_name":"Turkey","latitude":"40.19828000","longitude":"29.21237000","wikiDataId":"Q2447988"},{"id":108001,"Name":"Kirazlı","state_id":2163,"state_code":"16","state_name":"Bursa","country_id":225,"country_code":"TR","country_name":"Turkey","latitude":"40.09964000","longitude":"29.04163000","wikiDataId":"Q2709049"},{"id":108094,"Name":"Küçükkumla","state_id":2163,"state_code":"16","state_name":"Bursa","country_id":225,"country_code":"TR","country_name":"Turkey","latitude":"40.47047000","longitude":"29.10152000","wikiDataId":"Q188894"},{"id":108059,"Name":"Kurşunlu","state_id":2163,"state_code":"16","state_name":"Bursa","country_id":225,"country_code":"TR","country_name":"Turkey","latitude":"40.03712000","longitude":"29.65972000","wikiDataId":"Q1482869"},{"id":108217,"Name":"Mudanya","state_id":2163,"state_code":"16","state_name":"Bursa","country_id":225,"country_code":"TR","country_name":"Turkey","latitude":"40.33342000","longitude":"28.77218000","wikiDataId":"Q924252"},{"id":108230,"Name":"Mustafakemalpaşa","state_id":2163,"state_code":"16","state_name":"Bursa","country_id":225,"country_code":"TR","country_name":"Turkey","latitude":"40.03815000","longitude":"28.40866000","wikiDataId":"Q1018542"},{"id":108239,"Name":"Narlıca","state_id":2163,"state_code":"16","state_name":"Bursa","country_id":225,"country_code":"TR","country_name":"Turkey","latitude":"40.38583000","longitude":"29.48111000","wikiDataId":"Q1947523"},{"id":108249,"Name":"Nilüfer","state_id":2163,"state_code":"16","state_name":"Bursa","country_id":225,"country_code":"TR","country_name":"Turkey","latitude":"40.21375000","longitude":"28.98464000","wikiDataId":"Q206879"},{"id":108272,"Name":"Orhaneli","state_id":2163,"state_code":"16","state_name":"Bursa","country_id":225,"country_code":"TR","country_name":"Turkey","latitude":"39.90333000","longitude":"28.99056000","wikiDataId":"Q184539"},{"id":108274,"Name":"Orhangazi","state_id":2163,"state_code":"16","state_name":"Bursa","country_id":225,"country_code":"TR","country_name":"Turkey","latitude":"40.48917000","longitude":"29.30889000","wikiDataId":"Q1948420"},{"id":108293,"Name":"Osmangazi","state_id":2163,"state_code":"16","state_name":"Bursa","country_id":225,"country_code":"TR","country_name":"Turkey","latitude":"40.15644000","longitude":"29.08753000","wikiDataId":"Q1023140"},{"id":108517,"Name":"Sölöz","state_id":2163,"state_code":"16","state_name":"Bursa","country_id":225,"country_code":"TR","country_name":"Turkey","latitude":"40.39480000","longitude":"29.41559000","wikiDataId":"Q1004566"},{"id":108529,"Name":"Tacir","state_id":2163,"state_code":"16","state_name":"Bursa","country_id":225,"country_code":"TR","country_name":"Turkey","latitude":"40.52556000","longitude":"29.73972000","wikiDataId":"Q2344927"},{"id":108530,"Name":"Tahtaköprü","state_id":2163,"state_code":"16","state_name":"Bursa","country_id":225,"country_code":"TR","country_name":"Turkey","latitude":"39.95000000","longitude":"29.65000000","wikiDataId":"Q7675667"},{"id":108537,"Name":"Tatkavaklı","state_id":2163,"state_code":"16","state_name":"Bursa","country_id":225,"country_code":"TR","country_name":"Turkey","latitude":"40.03333000","longitude":"28.36667000","wikiDataId":"Q4817099"},{"id":108632,"Name":"Umurbey","state_id":2163,"state_code":"16","state_name":"Bursa","country_id":225,"country_code":"TR","country_name":"Turkey","latitude":"40.41472000","longitude":"29.18306000","wikiDataId":"Q4831150"},{"id":108692,"Name":"Yenice","state_id":2163,"state_code":"16","state_name":"Bursa","country_id":225,"country_code":"TR","country_name":"Turkey","latitude":"40.08778000","longitude":"29.42194000","wikiDataId":"Q2219198"},{"id":108702,"Name":"Yeniköy","state_id":2163,"state_code":"16","state_name":"Bursa","country_id":225,"country_code":"TR","country_name":"Turkey","latitude":"40.53568000","longitude":"29.35364000","wikiDataId":"Q4819792"},{"id":108714,"Name":"Yenişehir","state_id":2163,"state_code":"16","state_name":"Bursa","country_id":225,"country_code":"TR","country_name":"Turkey","latitude":"40.26444000","longitude":"29.65306000","wikiDataId":"Q1782806"},{"id":108746,"Name":"Yıldırım İlçesi","state_id":2163,"state_code":"16","state_name":"Bursa","country_id":225,"country_code":"TR","country_name":"Turkey","latitude":"40.19567000","longitude":"29.03640000","wikiDataId":"Q2598734"}]