[{"id":135149,"Name":"Ābdānān","state_id":3918,"state_code":"16","state_name":"Ilam","country_id":103,"country_code":"IR","country_name":"Iran","latitude":"32.99260000","longitude":"47.41980000","wikiDataId":"Q862554"},{"id":134574,"Name":"Badreh","state_id":3918,"state_code":"16","state_name":"Ilam","country_id":103,"country_code":"IR","country_name":"Iran","latitude":"33.00000000","longitude":"47.25000000","wikiDataId":"Q604576"},{"id":134606,"Name":"Chardavol County","state_id":3918,"state_code":"16","state_name":"Ilam","country_id":103,"country_code":"IR","country_name":"Iran","latitude":"33.75910000","longitude":"46.56980000","wikiDataId":"Q862466"},{"id":134614,"Name":"Darreh Shahr","state_id":3918,"state_code":"16","state_name":"Ilam","country_id":103,"country_code":"IR","country_name":"Iran","latitude":"33.14447000","longitude":"47.37990000","wikiDataId":"Q862604"},{"id":134615,"Name":"Darrehshahr","state_id":3918,"state_code":"16","state_name":"Ilam","country_id":103,"country_code":"IR","country_name":"Iran","latitude":"33.13333000","longitude":"47.36667000","wikiDataId":"Q862604"},{"id":134617,"Name":"Dehlorān","state_id":3918,"state_code":"16","state_name":"Ilam","country_id":103,"country_code":"IR","country_name":"Iran","latitude":"32.69410000","longitude":"47.26790000","wikiDataId":"Q862457"},{"id":135157,"Name":"Īlām","state_id":3918,"state_code":"16","state_name":"Ilam","country_id":103,"country_code":"IR","country_name":"Iran","latitude":"33.63740000","longitude":"46.42270000","wikiDataId":"Q499470"},{"id":134700,"Name":"Mehrān","state_id":3918,"state_code":"16","state_name":"Ilam","country_id":103,"country_code":"IR","country_name":"Iran","latitude":"33.12220000","longitude":"46.16460000","wikiDataId":"Q720410"},{"id":135078,"Name":"Shahrestān-e Ābdānān","state_id":3918,"state_code":"16","state_name":"Ilam","country_id":103,"country_code":"IR","country_name":"Iran","latitude":"32.88333000","longitude":"47.50000000","wikiDataId":"Q1286247"},{"id":134847,"Name":"Shahrestān-e Dehlorān","state_id":3918,"state_code":"16","state_name":"Ilam","country_id":103,"country_code":"IR","country_name":"Iran","latitude":"32.68333000","longitude":"47.26667000","wikiDataId":"Q498106"},{"id":134862,"Name":"Shahrestān-e Eyvān","state_id":3918,"state_code":"16","state_name":"Ilam","country_id":103,"country_code":"IR","country_name":"Iran","latitude":"33.90000000","longitude":"46.16667000","wikiDataId":"Q498106"},{"id":135091,"Name":"Shahrestān-e Īlām","state_id":3918,"state_code":"16","state_name":"Ilam","country_id":103,"country_code":"IR","country_name":"Iran","latitude":"33.68333000","longitude":"46.25000000","wikiDataId":"Q1277854"},{"id":134950,"Name":"Shahrestān-e Malekshāhī","state_id":3918,"state_code":"16","state_name":"Ilam","country_id":103,"country_code":"IR","country_name":"Iran","latitude":"33.30000000","longitude":"46.55000000","wikiDataId":"Q1264551"},{"id":134962,"Name":"Shahrestān-e Mehrān","state_id":3918,"state_code":"16","state_name":"Ilam","country_id":103,"country_code":"IR","country_name":"Iran","latitude":"33.28333000","longitude":"46.16667000","wikiDataId":"Q1264551"},{"id":135117,"Name":"Sirvan","state_id":3918,"state_code":"16","state_name":"Ilam","country_id":103,"country_code":"IR","country_name":"Iran","latitude":"33.75460000","longitude":"46.56651000","wikiDataId":"Q605224"}]