[{"id":109062,"Name":"Chiungutwa","state_id":1476,"state_code":"17","state_name":"Mtwara","country_id":218,"country_code":"TZ","country_name":"Tanzania","latitude":"-10.88333000","longitude":"38.98333000","wikiDataId":"Q993159"},{"id":109129,"Name":"Kitama","state_id":1476,"state_code":"17","state_name":"Mtwara","country_id":218,"country_code":"TZ","country_name":"Tanzania","latitude":"-10.71667000","longitude":"39.73333000","wikiDataId":"Q11929863"},{"id":109130,"Name":"Kitangari","state_id":1476,"state_code":"17","state_name":"Mtwara","country_id":218,"country_code":"TZ","country_name":"Tanzania","latitude":"-10.65000000","longitude":"39.33333000","wikiDataId":"Q11929863"},{"id":109145,"Name":"Luchingu","state_id":1476,"state_code":"17","state_name":"Mtwara","country_id":218,"country_code":"TZ","country_name":"Tanzania","latitude":"-10.90000000","longitude":"39.33333000","wikiDataId":"Q6673922"},{"id":109147,"Name":"Lukuledi","state_id":1476,"state_code":"17","state_name":"Mtwara","country_id":218,"country_code":"TZ","country_name":"Tanzania","latitude":"-10.56667000","longitude":"38.80000000","wikiDataId":"Q1877120"},{"id":109148,"Name":"Lulindi","state_id":1476,"state_code":"17","state_name":"Mtwara","country_id":218,"country_code":"TZ","country_name":"Tanzania","latitude":"-10.81667000","longitude":"39.13333000","wikiDataId":"Q1877120"},{"id":109153,"Name":"Madimba","state_id":1476,"state_code":"17","state_name":"Mtwara","country_id":218,"country_code":"TZ","country_name":"Tanzania","latitude":"-10.40000000","longitude":"40.33333000","wikiDataId":"Q35722319"},{"id":109162,"Name":"Mahuta","state_id":1476,"state_code":"17","state_name":"Mtwara","country_id":218,"country_code":"TZ","country_name":"Tanzania","latitude":"-10.86667000","longitude":"39.45000000","wikiDataId":"Q13123849"},{"id":109176,"Name":"Masasi","state_id":1476,"state_code":"17","state_name":"Mtwara","country_id":218,"country_code":"TZ","country_name":"Tanzania","latitude":"-10.71667000","longitude":"38.80000000","wikiDataId":"Q6272925"},{"id":109177,"Name":"Masuguru","state_id":1476,"state_code":"17","state_name":"Mtwara","country_id":218,"country_code":"TZ","country_name":"Tanzania","latitude":"-11.36667000","longitude":"38.41667000","wikiDataId":"Q6272925"},{"id":109220,"Name":"Mtwara","state_id":1476,"state_code":"17","state_name":"Mtwara","country_id":218,"country_code":"TZ","country_name":"Tanzania","latitude":"-10.26667000","longitude":"40.18333000","wikiDataId":"Q646684"},{"id":109237,"Name":"Namalenga","state_id":1476,"state_code":"17","state_name":"Mtwara","country_id":218,"country_code":"TZ","country_name":"Tanzania","latitude":"-10.95000000","longitude":"39.10000000","wikiDataId":"Q13124414"},{"id":109240,"Name":"Namikupa","state_id":1476,"state_code":"17","state_name":"Mtwara","country_id":218,"country_code":"TZ","country_name":"Tanzania","latitude":"-10.83333000","longitude":"39.60000000","wikiDataId":"Q6961283"},{"id":109241,"Name":"Nanganga","state_id":1476,"state_code":"17","state_name":"Mtwara","country_id":218,"country_code":"TZ","country_name":"Tanzania","latitude":"-10.38333000","longitude":"39.15000000","wikiDataId":"Q49357302"},{"id":109242,"Name":"Nangomba","state_id":1476,"state_code":"17","state_name":"Mtwara","country_id":218,"country_code":"TZ","country_name":"Tanzania","latitude":"-10.90000000","longitude":"38.50000000","wikiDataId":"Q49357302"},{"id":109244,"Name":"Nanhyanga","state_id":1476,"state_code":"17","state_name":"Mtwara","country_id":218,"country_code":"TZ","country_name":"Tanzania","latitude":"-10.80000000","longitude":"39.55000000","wikiDataId":"Q20622164"},{"id":109246,"Name":"Nanyamba","state_id":1476,"state_code":"17","state_name":"Mtwara","country_id":218,"country_code":"TZ","country_name":"Tanzania","latitude":"-10.68333000","longitude":"39.83333000","wikiDataId":"Q20622213"},{"id":109249,"Name":"Newala Kisimani","state_id":1476,"state_code":"17","state_name":"Mtwara","country_id":218,"country_code":"TZ","country_name":"Tanzania","latitude":"-10.95000000","longitude":"39.28333000","wikiDataId":"Q49357481"},{"id":109288,"Name":"Tandahimba","state_id":1476,"state_code":"17","state_name":"Mtwara","country_id":218,"country_code":"TZ","country_name":"Tanzania","latitude":"-10.75000000","longitude":"39.63333000","wikiDataId":"Q643112"}]