[{"id":107229,"Name":"Ayvacık","state_id":2216,"state_code":"17","state_name":"Çanakkale","country_id":225,"country_code":"TR","country_name":"Turkey","latitude":"39.60111000","longitude":"26.40472000","wikiDataId":"Q130022"},{"id":107301,"Name":"Bayramiç İlçesi","state_id":2216,"state_code":"17","state_name":"Çanakkale","country_id":225,"country_code":"TR","country_name":"Turkey","latitude":"39.81951000","longitude":"26.62490000","wikiDataId":"Q812617"},{"id":107325,"Name":"Behram","state_id":2216,"state_code":"17","state_name":"Çanakkale","country_id":225,"country_code":"TR","country_name":"Turkey","latitude":"39.49344000","longitude":"26.33316000","wikiDataId":"Q744631"},{"id":107353,"Name":"Biga","state_id":2216,"state_code":"17","state_name":"Çanakkale","country_id":225,"country_code":"TR","country_name":"Turkey","latitude":"40.26921000","longitude":"27.20841000","wikiDataId":"Q854667"},{"id":107380,"Name":"Bozcaada","state_id":2216,"state_code":"17","state_name":"Çanakkale","country_id":225,"country_code":"TR","country_name":"Turkey","latitude":"39.82409000","longitude":"26.04069000","wikiDataId":"Q10259759"},{"id":108773,"Name":"Çan","state_id":2216,"state_code":"17","state_name":"Çanakkale","country_id":225,"country_code":"TR","country_name":"Turkey","latitude":"40.03328000","longitude":"27.05236000","wikiDataId":"Q2671156"},{"id":108775,"Name":"Çanakkale","state_id":2216,"state_code":"17","state_name":"Çanakkale","country_id":225,"country_code":"TR","country_name":"Turkey","latitude":"40.15552000","longitude":"26.41271000","wikiDataId":"Q199712"},{"id":107548,"Name":"Eceabat","state_id":2216,"state_code":"17","state_name":"Çanakkale","country_id":225,"country_code":"TR","country_name":"Turkey","latitude":"40.18416000","longitude":"26.35740000","wikiDataId":"Q1023153"},{"id":107623,"Name":"Ezine","state_id":2216,"state_code":"17","state_name":"Çanakkale","country_id":225,"country_code":"TR","country_name":"Turkey","latitude":"39.78561000","longitude":"26.34083000","wikiDataId":"Q673073"},{"id":107655,"Name":"Gelibolu","state_id":2216,"state_code":"17","state_name":"Çanakkale","country_id":225,"country_code":"TR","country_name":"Turkey","latitude":"40.41028000","longitude":"26.67083000","wikiDataId":"Q1499635"},{"id":107672,"Name":"Geyikli","state_id":2216,"state_code":"17","state_name":"Çanakkale","country_id":225,"country_code":"TR","country_name":"Turkey","latitude":"39.80472000","longitude":"26.20750000","wikiDataId":"Q5554985"},{"id":107683,"Name":"Gökçeada","state_id":2216,"state_code":"17","state_name":"Çanakkale","country_id":225,"country_code":"TR","country_name":"Turkey","latitude":"40.16523000","longitude":"25.85907000","wikiDataId":"Q939677"},{"id":107782,"Name":"Hamdibey","state_id":2216,"state_code":"17","state_name":"Çanakkale","country_id":225,"country_code":"TR","country_name":"Turkey","latitude":"39.84944000","longitude":"27.24806000","wikiDataId":"Q4821124"},{"id":107878,"Name":"Kalkım","state_id":2216,"state_code":"17","state_name":"Çanakkale","country_id":225,"country_code":"TR","country_name":"Turkey","latitude":"39.81167000","longitude":"27.21500000","wikiDataId":"Q10775645"},{"id":108127,"Name":"Lapseki","state_id":2216,"state_code":"17","state_name":"Çanakkale","country_id":225,"country_code":"TR","country_name":"Turkey","latitude":"40.34417000","longitude":"26.68556000","wikiDataId":"Q2279679"},{"id":108135,"Name":"Lâpseki İlçesi","state_id":2216,"state_code":"17","state_name":"Çanakkale","country_id":225,"country_code":"TR","country_name":"Turkey","latitude":"40.35280000","longitude":"26.70657000","wikiDataId":"Q1012828"},{"id":108193,"Name":"Merkez","state_id":2216,"state_code":"17","state_name":"Çanakkale","country_id":225,"country_code":"TR","country_name":"Turkey","latitude":"40.05093000","longitude":"26.49489000","wikiDataId":"Q3055997"},{"id":108691,"Name":"Yenice","state_id":2216,"state_code":"17","state_name":"Çanakkale","country_id":225,"country_code":"TR","country_name":"Turkey","latitude":"39.93083000","longitude":"27.25806000","wikiDataId":"Q1758492"}]