[{"id":134616,"Name":"Dehdasht","state_id":3926,"state_code":"17","state_name":"Kohgiluyeh and Boyer-Ahmad","country_id":103,"country_code":"IR","country_name":"Iran","latitude":"30.79490000","longitude":"50.56457000","wikiDataId":"Q888365"},{"id":134622,"Name":"Dogonbadan","state_id":3926,"state_code":"17","state_name":"Kohgiluyeh and Boyer-Ahmad","country_id":103,"country_code":"IR","country_name":"Iran","latitude":"30.35860000","longitude":"50.79810000","wikiDataId":"Q719982"},{"id":134688,"Name":"Landeh","state_id":3926,"state_code":"17","state_name":"Kohgiluyeh and Boyer-Ahmad","country_id":103,"country_code":"IR","country_name":"Iran","latitude":"30.97994000","longitude":"50.42469000","wikiDataId":"Q721060"},{"id":134799,"Name":"Shahrestān-e Bahma’ī","state_id":3926,"state_code":"17","state_name":"Kohgiluyeh and Boyer-Ahmad","country_id":103,"country_code":"IR","country_name":"Iran","latitude":"31.05000000","longitude":"50.08333000","wikiDataId":"Q498106"},{"id":134823,"Name":"Shahrestān-e Bāsht","state_id":3926,"state_code":"17","state_name":"Kohgiluyeh and Boyer-Ahmad","country_id":103,"country_code":"IR","country_name":"Iran","latitude":"30.45000000","longitude":"51.11667000","wikiDataId":"Q498106"},{"id":134816,"Name":"Shahrestān-e Bowyer Aḩmad","state_id":3926,"state_code":"17","state_name":"Kohgiluyeh and Boyer-Ahmad","country_id":103,"country_code":"IR","country_name":"Iran","latitude":"30.78333000","longitude":"51.11667000","wikiDataId":"Q498106"},{"id":134832,"Name":"Shahrestān-e Charām","state_id":3926,"state_code":"17","state_name":"Kohgiluyeh and Boyer-Ahmad","country_id":103,"country_code":"IR","country_name":"Iran","latitude":"30.76667000","longitude":"50.85000000","wikiDataId":"Q498106"},{"id":134841,"Name":"Shahrestān-e Danā","state_id":3926,"state_code":"17","state_name":"Kohgiluyeh and Boyer-Ahmad","country_id":103,"country_code":"IR","country_name":"Iran","latitude":"30.95000000","longitude":"51.28333000","wikiDataId":"Q498106"},{"id":134878,"Name":"Shahrestān-e Gachsārān","state_id":3926,"state_code":"17","state_name":"Kohgiluyeh and Boyer-Ahmad","country_id":103,"country_code":"IR","country_name":"Iran","latitude":"30.33333000","longitude":"50.75000000","wikiDataId":"Q721034"},{"id":134928,"Name":"Shahrestān-e Kohgīlūyeh","state_id":3926,"state_code":"17","state_name":"Kohgiluyeh and Boyer-Ahmad","country_id":103,"country_code":"IR","country_name":"Iran","latitude":"31.03333000","longitude":"50.45000000","wikiDataId":"Q1264551"},{"id":135139,"Name":"Yasuj","state_id":3926,"state_code":"17","state_name":"Kohgiluyeh and Boyer-Ahmad","country_id":103,"country_code":"IR","country_name":"Iran","latitude":"30.66824000","longitude":"51.58796000","wikiDataId":"Q383129"}]