[{"id":79038,"Name":"Alstahaug","state_id":1025,"state_code":"18","state_name":"Nordland","country_id":165,"country_code":"NO","country_name":"Norway","latitude":"65.97556000","longitude":"12.56836000","wikiDataId":"Q217808"},{"id":79041,"Name":"Andenes","state_id":1025,"state_code":"18","state_name":"Nordland","country_id":165,"country_code":"NO","country_name":"Norway","latitude":"69.31428000","longitude":"16.11939000","wikiDataId":"Q167305"},{"id":79042,"Name":"Andøy","state_id":1025,"state_code":"18","state_name":"Nordland","country_id":165,"country_code":"NO","country_name":"Norway","latitude":"69.08033000","longitude":"15.77637000","wikiDataId":"Q113710"},{"id":79061,"Name":"Ballangen","state_id":1025,"state_code":"18","state_name":"Nordland","country_id":165,"country_code":"NO","country_name":"Norway","latitude":"68.34365000","longitude":"16.83317000","wikiDataId":"Q113514"},{"id":79067,"Name":"Beiarn","state_id":1025,"state_code":"18","state_name":"Nordland","country_id":165,"country_code":"NO","country_name":"Norway","latitude":"67.00725000","longitude":"14.57304000","wikiDataId":"Q487524"},{"id":79074,"Name":"Bindal","state_id":1025,"state_code":"18","state_name":"Nordland","country_id":165,"country_code":"NO","country_name":"Norway","latitude":"65.08780000","longitude":"12.37747000","wikiDataId":"Q489362"},{"id":79076,"Name":"Bjerkvik","state_id":1025,"state_code":"18","state_name":"Nordland","country_id":165,"country_code":"NO","country_name":"Norway","latitude":"68.54917000","longitude":"17.55709000","wikiDataId":"Q2388512"},{"id":79081,"Name":"Bodø","state_id":1025,"state_code":"18","state_name":"Nordland","country_id":165,"country_code":"NO","country_name":"Norway","latitude":"67.28325000","longitude":"14.38319000","wikiDataId":"Q221119"},{"id":79082,"Name":"Bogen","state_id":1025,"state_code":"18","state_name":"Nordland","country_id":165,"country_code":"NO","country_name":"Norway","latitude":"68.52647000","longitude":"16.99280000","wikiDataId":"Q2047509"},{"id":79096,"Name":"Bø","state_id":1025,"state_code":"18","state_name":"Nordland","country_id":165,"country_code":"NO","country_name":"Norway","latitude":"68.68823000","longitude":"14.47899000","wikiDataId":"Q484012"},{"id":79091,"Name":"Brønnøy","state_id":1025,"state_code":"18","state_name":"Nordland","country_id":165,"country_code":"NO","country_name":"Norway","latitude":"65.46786000","longitude":"12.20626000","wikiDataId":"Q112855"},{"id":79092,"Name":"Brønnøysund","state_id":1025,"state_code":"18","state_name":"Nordland","country_id":165,"country_code":"NO","country_name":"Norway","latitude":"65.47487000","longitude":"12.21285000","wikiDataId":"Q995929"},{"id":79108,"Name":"Dønna","state_id":1025,"state_code":"18","state_name":"Nordland","country_id":165,"country_code":"NO","country_name":"Norway","latitude":"66.10606000","longitude":"12.48189000","wikiDataId":"Q489347"},{"id":79128,"Name":"Evenes","state_id":1025,"state_code":"18","state_name":"Nordland","country_id":165,"country_code":"NO","country_name":"Norway","latitude":"68.52334000","longitude":"17.00888000","wikiDataId":"Q48897"},{"id":79130,"Name":"Evjen","state_id":1025,"state_code":"18","state_name":"Nordland","country_id":165,"country_code":"NO","country_name":"Norway","latitude":"68.26667000","longitude":"13.73333000","wikiDataId":"Q2232941"},{"id":79135,"Name":"Fauske","state_id":1025,"state_code":"18","state_name":"Nordland","country_id":165,"country_code":"NO","country_name":"Norway","latitude":"67.25963000","longitude":"15.39410000","wikiDataId":"Q48696"},{"id":79146,"Name":"Flakstad","state_id":1025,"state_code":"18","state_name":"Nordland","country_id":165,"country_code":"NO","country_name":"Norway","latitude":"68.09292000","longitude":"13.23310000","wikiDataId":"Q494680"},{"id":79175,"Name":"Gildeskål","state_id":1025,"state_code":"18","state_name":"Nordland","country_id":165,"country_code":"NO","country_name":"Norway","latitude":"67.03394000","longitude":"14.02582000","wikiDataId":"Q484208"},{"id":79181,"Name":"Gladstad","state_id":1025,"state_code":"18","state_name":"Nordland","country_id":165,"country_code":"NO","country_name":"Norway","latitude":"65.67683000","longitude":"11.96218000","wikiDataId":"Q2195796"},{"id":79182,"Name":"Glomfjord","state_id":1025,"state_code":"18","state_name":"Nordland","country_id":165,"country_code":"NO","country_name":"Norway","latitude":"66.81663000","longitude":"13.94404000","wikiDataId":"Q1019570"},{"id":79186,"Name":"Grane","state_id":1025,"state_code":"18","state_name":"Nordland","country_id":165,"country_code":"NO","country_name":"Norway","latitude":"65.53865000","longitude":"13.38499000","wikiDataId":"Q493758"},{"id":79189,"Name":"Gravdal","state_id":1025,"state_code":"18","state_name":"Nordland","country_id":165,"country_code":"NO","country_name":"Norway","latitude":"68.11832000","longitude":"13.55339000","wikiDataId":"Q2211730"},{"id":79197,"Name":"Hadsel","state_id":1025,"state_code":"18","state_name":"Nordland","country_id":165,"country_code":"NO","country_name":"Norway","latitude":"68.56328000","longitude":"14.90835000","wikiDataId":"Q484043"},{"id":79202,"Name":"Hamarøy","state_id":1025,"state_code":"18","state_name":"Nordland","country_id":165,"country_code":"NO","country_name":"Norway","latitude":"68.08381000","longitude":"15.61671000","wikiDataId":"Q487538"},{"id":79210,"Name":"Hattfjelldal","state_id":1025,"state_code":"18","state_name":"Nordland","country_id":165,"country_code":"NO","country_name":"Norway","latitude":"65.59765000","longitude":"13.98948000","wikiDataId":"Q488384"},{"id":79213,"Name":"Hauknes","state_id":1025,"state_code":"18","state_name":"Nordland","country_id":165,"country_code":"NO","country_name":"Norway","latitude":"66.28333000","longitude":"14.06667000","wikiDataId":"Q2364788"},{"id":79215,"Name":"Hemnes","state_id":1025,"state_code":"18","state_name":"Nordland","country_id":165,"country_code":"NO","country_name":"Norway","latitude":"66.07712000","longitude":"13.81350000","wikiDataId":"Q488776"},{"id":79216,"Name":"Hemnesberget","state_id":1025,"state_code":"18","state_name":"Nordland","country_id":165,"country_code":"NO","country_name":"Norway","latitude":"66.22489000","longitude":"13.61643000","wikiDataId":"Q2205396"},{"id":79220,"Name":"Herøy","state_id":1025,"state_code":"18","state_name":"Nordland","country_id":165,"country_code":"NO","country_name":"Norway","latitude":"65.98427000","longitude":"12.28916000","wikiDataId":"Q493932"},{"id":79255,"Name":"Inndyr","state_id":1025,"state_code":"18","state_name":"Nordland","country_id":165,"country_code":"NO","country_name":"Norway","latitude":"67.03353000","longitude":"14.02663000","wikiDataId":"Q2977929"},{"id":79263,"Name":"Kabelvåg","state_id":1025,"state_code":"18","state_name":"Nordland","country_id":165,"country_code":"NO","country_name":"Norway","latitude":"68.21066000","longitude":"14.47554000","wikiDataId":"Q1719658"},{"id":79273,"Name":"Kjøpsvik","state_id":1025,"state_code":"18","state_name":"Nordland","country_id":165,"country_code":"NO","country_name":"Norway","latitude":"68.09696000","longitude":"16.37416000","wikiDataId":"Q1813882"},{"id":79285,"Name":"Korgen","state_id":1025,"state_code":"18","state_name":"Nordland","country_id":165,"country_code":"NO","country_name":"Norway","latitude":"66.07662000","longitude":"13.82160000","wikiDataId":"Q2300008"},{"id":79309,"Name":"Leirfjord","state_id":1025,"state_code":"18","state_name":"Nordland","country_id":165,"country_code":"NO","country_name":"Norway","latitude":"66.06348000","longitude":"12.93667000","wikiDataId":"Q48870"},{"id":79313,"Name":"Leknes","state_id":1025,"state_code":"18","state_name":"Nordland","country_id":165,"country_code":"NO","country_name":"Norway","latitude":"68.14746000","longitude":"13.61151000","wikiDataId":"Q1993766"},{"id":79314,"Name":"Leland","state_id":1025,"state_code":"18","state_name":"Nordland","country_id":165,"country_code":"NO","country_name":"Norway","latitude":"66.06406000","longitude":"12.94325000","wikiDataId":"Q2800865"},{"id":79343,"Name":"Løding","state_id":1025,"state_code":"18","state_name":"Nordland","country_id":165,"country_code":"NO","country_name":"Norway","latitude":"67.30055000","longitude":"14.73852000","wikiDataId":"Q2199444"},{"id":79344,"Name":"Lødingen","state_id":1025,"state_code":"18","state_name":"Nordland","country_id":165,"country_code":"NO","country_name":"Norway","latitude":"68.40998000","longitude":"15.99012000","wikiDataId":"Q484252"},{"id":79345,"Name":"Løpsmarka","state_id":1025,"state_code":"18","state_name":"Nordland","country_id":165,"country_code":"NO","country_name":"Norway","latitude":"67.31343000","longitude":"14.44934000","wikiDataId":"Q2674878"},{"id":79334,"Name":"Lurøy","state_id":1025,"state_code":"18","state_name":"Nordland","country_id":165,"country_code":"NO","country_name":"Norway","latitude":"66.41887000","longitude":"12.84248000","wikiDataId":"Q48341"},{"id":79358,"Name":"Melbu","state_id":1025,"state_code":"18","state_name":"Nordland","country_id":165,"country_code":"NO","country_name":"Norway","latitude":"68.50246000","longitude":"14.79962000","wikiDataId":"Q577137"},{"id":79362,"Name":"Meløy","state_id":1025,"state_code":"18","state_name":"Nordland","country_id":165,"country_code":"NO","country_name":"Norway","latitude":"66.87204000","longitude":"13.70763000","wikiDataId":"Q48323"},{"id":79366,"Name":"Mo i Rana","state_id":1025,"state_code":"18","state_name":"Nordland","country_id":165,"country_code":"NO","country_name":"Norway","latitude":"66.31278000","longitude":"14.14278000","wikiDataId":"Q59169"},{"id":79373,"Name":"Mosjøen","state_id":1025,"state_code":"18","state_name":"Nordland","country_id":165,"country_code":"NO","country_name":"Norway","latitude":"65.83599000","longitude":"13.19076000","wikiDataId":"Q851998"},{"id":79374,"Name":"Moskenes","state_id":1025,"state_code":"18","state_name":"Nordland","country_id":165,"country_code":"NO","country_name":"Norway","latitude":"67.93467000","longitude":"13.09109000","wikiDataId":"Q487636"},{"id":79377,"Name":"Myre","state_id":1025,"state_code":"18","state_name":"Nordland","country_id":165,"country_code":"NO","country_name":"Norway","latitude":"68.91400000","longitude":"15.07843000","wikiDataId":"Q1897127"},{"id":79386,"Name":"Narvik","state_id":1025,"state_code":"18","state_name":"Nordland","country_id":165,"country_code":"NO","country_name":"Norway","latitude":"68.43896000","longitude":"17.42775000","wikiDataId":"Q1215658"},{"id":79393,"Name":"Nesna","state_id":1025,"state_code":"18","state_name":"Nordland","country_id":165,"country_code":"NO","country_name":"Norway","latitude":"66.19796000","longitude":"13.02229000","wikiDataId":"Q494062"},{"id":79692,"Name":"Øksnes","state_id":1025,"state_code":"18","state_name":"Nordland","country_id":165,"country_code":"NO","country_name":"Norway","latitude":"68.91463000","longitude":"15.08703000","wikiDataId":"Q308134"},{"id":79696,"Name":"Ørnes","state_id":1025,"state_code":"18","state_name":"Nordland","country_id":165,"country_code":"NO","country_name":"Norway","latitude":"66.86878000","longitude":"13.70579000","wikiDataId":"Q308223"},{"id":79436,"Name":"Rana","state_id":1025,"state_code":"18","state_name":"Nordland","country_id":165,"country_code":"NO","country_name":"Norway","latitude":"66.31122000","longitude":"14.13996000","wikiDataId":"Q484322"},{"id":79442,"Name":"Reine","state_id":1025,"state_code":"18","state_name":"Nordland","country_id":165,"country_code":"NO","country_name":"Norway","latitude":"67.93249000","longitude":"13.08955000","wikiDataId":"Q593597"},{"id":79455,"Name":"Rognan","state_id":1025,"state_code":"18","state_name":"Nordland","country_id":165,"country_code":"NO","country_name":"Norway","latitude":"67.10021000","longitude":"15.39086000","wikiDataId":"Q2162122"},{"id":79466,"Name":"Rødøy","state_id":1025,"state_code":"18","state_name":"Nordland","country_id":165,"country_code":"NO","country_name":"Norway","latitude":"66.71195000","longitude":"13.28530000","wikiDataId":"Q488046"},{"id":79470,"Name":"Røst","state_id":1025,"state_code":"18","state_name":"Nordland","country_id":165,"country_code":"NO","country_name":"Norway","latitude":"67.51727000","longitude":"12.11564000","wikiDataId":"Q130048"},{"id":79475,"Name":"Saltdal","state_id":1025,"state_code":"18","state_name":"Nordland","country_id":165,"country_code":"NO","country_name":"Norway","latitude":"67.10144000","longitude":"15.39458000","wikiDataId":"Q48880"},{"id":79484,"Name":"Sandnessjøen","state_id":1025,"state_code":"18","state_name":"Nordland","country_id":165,"country_code":"NO","country_name":"Norway","latitude":"66.02166000","longitude":"12.63158000","wikiDataId":"Q1004686"},{"id":79534,"Name":"Sortland","state_id":1025,"state_code":"18","state_name":"Nordland","country_id":165,"country_code":"NO","country_name":"Norway","latitude":"68.69618000","longitude":"15.41174000","wikiDataId":"Q48844"},{"id":79577,"Name":"Sømna","state_id":1025,"state_code":"18","state_name":"Nordland","country_id":165,"country_code":"NO","country_name":"Norway","latitude":"65.31379000","longitude":"12.16729000","wikiDataId":"Q48610"},{"id":79583,"Name":"Sørfold","state_id":1025,"state_code":"18","state_name":"Nordland","country_id":165,"country_code":"NO","country_name":"Norway","latitude":"67.34803000","longitude":"15.59445000","wikiDataId":"Q484097"},{"id":79584,"Name":"Sørland","state_id":1025,"state_code":"18","state_name":"Nordland","country_id":165,"country_code":"NO","country_name":"Norway","latitude":"67.66564000","longitude":"12.69784000","wikiDataId":"Q2335573"},{"id":79540,"Name":"Steigen","state_id":1025,"state_code":"18","state_name":"Nordland","country_id":165,"country_code":"NO","country_name":"Norway","latitude":"67.77625000","longitude":"15.01621000","wikiDataId":"Q494005"},{"id":79546,"Name":"Stokmarknes","state_id":1025,"state_code":"18","state_name":"Nordland","country_id":165,"country_code":"NO","country_name":"Norway","latitude":"68.56462000","longitude":"14.91075000","wikiDataId":"Q288577"},{"id":79557,"Name":"Straume","state_id":1025,"state_code":"18","state_name":"Nordland","country_id":165,"country_code":"NO","country_name":"Norway","latitude":"68.68880000","longitude":"14.47205000","wikiDataId":"Q2172806"},{"id":79560,"Name":"Straumen","state_id":1025,"state_code":"18","state_name":"Nordland","country_id":165,"country_code":"NO","country_name":"Norway","latitude":"67.34769000","longitude":"15.60493000","wikiDataId":"Q2559230"},{"id":79571,"Name":"Svolvær","state_id":1025,"state_code":"18","state_name":"Nordland","country_id":165,"country_code":"NO","country_name":"Norway","latitude":"68.23417000","longitude":"14.56834000","wikiDataId":"Q145948"},{"id":79591,"Name":"Terråk","state_id":1025,"state_code":"18","state_name":"Nordland","country_id":165,"country_code":"NO","country_name":"Norway","latitude":"65.08700000","longitude":"12.37148000","wikiDataId":"Q2254214"},{"id":79595,"Name":"Tjeldsund","state_id":1025,"state_code":"18","state_name":"Nordland","country_id":165,"country_code":"NO","country_name":"Norway","latitude":"68.55557000","longitude":"16.36172000","wikiDataId":"Q48801"},{"id":79611,"Name":"Træna","state_id":1025,"state_code":"18","state_name":"Nordland","country_id":165,"country_code":"NO","country_name":"Norway","latitude":"66.50159000","longitude":"12.09645000","wikiDataId":"Q48620"},{"id":79607,"Name":"Trofors","state_id":1025,"state_code":"18","state_name":"Nordland","country_id":165,"country_code":"NO","country_name":"Norway","latitude":"65.53335000","longitude":"13.40631000","wikiDataId":"Q1907123"},{"id":79616,"Name":"Tysfjord","state_id":1025,"state_code":"18","state_name":"Nordland","country_id":165,"country_code":"NO","country_name":"Norway","latitude":"68.09772000","longitude":"16.37591000","wikiDataId":"Q493851"},{"id":79663,"Name":"Vågan","state_id":1025,"state_code":"18","state_name":"Nordland","country_id":165,"country_code":"NO","country_name":"Norway","latitude":"68.23220000","longitude":"14.56226000","wikiDataId":"Q490246"},{"id":79669,"Name":"Værøy","state_id":1025,"state_code":"18","state_name":"Nordland","country_id":165,"country_code":"NO","country_name":"Norway","latitude":"67.66374000","longitude":"12.69337000","wikiDataId":"Q48629"},{"id":79637,"Name":"Vefsn","state_id":1025,"state_code":"18","state_name":"Nordland","country_id":165,"country_code":"NO","country_name":"Norway","latitude":"65.84109000","longitude":"13.20024000","wikiDataId":"Q503654"},{"id":79638,"Name":"Vega","state_id":1025,"state_code":"18","state_name":"Nordland","country_id":165,"country_code":"NO","country_name":"Norway","latitude":"65.67539000","longitude":"11.96456000","wikiDataId":"Q488375"},{"id":79647,"Name":"Vestvågøy","state_id":1025,"state_code":"18","state_name":"Nordland","country_id":165,"country_code":"NO","country_name":"Norway","latitude":"68.14830000","longitude":"13.61119000","wikiDataId":"Q507201"},{"id":79648,"Name":"Vevelstad","state_id":1025,"state_code":"18","state_name":"Nordland","country_id":165,"country_code":"NO","country_name":"Norway","latitude":"65.70002000","longitude":"12.43921000","wikiDataId":"Q494068"},{"id":79651,"Name":"Vik","state_id":1025,"state_code":"18","state_name":"Nordland","country_id":165,"country_code":"NO","country_name":"Norway","latitude":"65.31254000","longitude":"12.16734000","wikiDataId":"Q2559281"}]