[{"id":109320,"Name":"Andrushivka","state_id":4668,"state_code":"18","state_name":"Zhytomyrska oblast","country_id":230,"country_code":"UA","country_name":"Ukraine","latitude":"50.02288000","longitude":"29.02023000","wikiDataId":"Q148909"},{"id":109321,"Name":"Andrushivs’kyy Rayon","state_id":4668,"state_code":"18","state_name":"Zhytomyrska oblast","country_id":230,"country_code":"UA","country_name":"Ukraine","latitude":"50.01709000","longitude":"29.03215000","wikiDataId":"Q2620681"},{"id":109350,"Name":"Baranivka","state_id":4668,"state_code":"18","state_name":"Zhytomyrska oblast","country_id":230,"country_code":"UA","country_name":"Ukraine","latitude":"50.29691000","longitude":"27.66220000","wikiDataId":"Q737925"},{"id":109370,"Name":"Berdychiv","state_id":4668,"state_code":"18","state_name":"Zhytomyrska oblast","country_id":230,"country_code":"UA","country_name":"Ukraine","latitude":"49.89928000","longitude":"28.60235000","wikiDataId":"Q158799"},{"id":109371,"Name":"Berdychivskyy Rayon","state_id":4668,"state_code":"18","state_name":"Zhytomyrska oblast","country_id":230,"country_code":"UA","country_name":"Ukraine","latitude":"49.91667000","longitude":"28.58333000","wikiDataId":"Q158799"},{"id":109392,"Name":"Bila Krynytsya","state_id":4668,"state_code":"18","state_name":"Zhytomyrska oblast","country_id":230,"country_code":"UA","country_name":"Ukraine","latitude":"50.63982000","longitude":"29.47041000","wikiDataId":"Q2902643"},{"id":109451,"Name":"Brusyliv","state_id":4668,"state_code":"18","state_name":"Zhytomyrska oblast","country_id":230,"country_code":"UA","country_name":"Ukraine","latitude":"50.28449000","longitude":"29.52626000","wikiDataId":"Q946994"},{"id":109452,"Name":"Brusylivs’kyy Rayon","state_id":4668,"state_code":"18","state_name":"Zhytomyrska oblast","country_id":230,"country_code":"UA","country_name":"Ukraine","latitude":"50.25638000","longitude":"29.48742000","wikiDataId":"Q2620734"},{"id":109465,"Name":"Bykivka","state_id":4668,"state_code":"18","state_name":"Zhytomyrska oblast","country_id":230,"country_code":"UA","country_name":"Ukraine","latitude":"50.29285000","longitude":"27.98314000","wikiDataId":"Q2670499"},{"id":109479,"Name":"Cherniakhiv","state_id":4668,"state_code":"18","state_name":"Zhytomyrska oblast","country_id":230,"country_code":"UA","country_name":"Ukraine","latitude":"50.45652000","longitude":"28.67018000","wikiDataId":"Q872377"},{"id":109495,"Name":"Chernyakhivskyy Rayon","state_id":4668,"state_code":"18","state_name":"Zhytomyrska oblast","country_id":230,"country_code":"UA","country_name":"Ukraine","latitude":"50.41667000","longitude":"28.66667000","wikiDataId":"Q4514545"},{"id":109499,"Name":"Chervone","state_id":4668,"state_code":"18","state_name":"Zhytomyrska oblast","country_id":230,"country_code":"UA","country_name":"Ukraine","latitude":"49.94975000","longitude":"28.86874000","wikiDataId":"Q787722"},{"id":109509,"Name":"Chopovychi","state_id":4668,"state_code":"18","state_name":"Zhytomyrska oblast","country_id":230,"country_code":"UA","country_name":"Ukraine","latitude":"50.83325000","longitude":"28.95334000","wikiDataId":"Q2980446"},{"id":109514,"Name":"Chornorudka","state_id":4668,"state_code":"18","state_name":"Zhytomyrska oblast","country_id":230,"country_code":"UA","country_name":"Ukraine","latitude":"49.84640000","longitude":"29.06062000","wikiDataId":"Q4514142"},{"id":109520,"Name":"Chudniv","state_id":4668,"state_code":"18","state_name":"Zhytomyrska oblast","country_id":230,"country_code":"UA","country_name":"Ukraine","latitude":"50.05204000","longitude":"28.11745000","wikiDataId":"Q149271"},{"id":109521,"Name":"Chudniv Raion","state_id":4668,"state_code":"18","state_name":"Zhytomyrska oblast","country_id":230,"country_code":"UA","country_name":"Ukraine","latitude":"50.00000000","longitude":"28.16667000","wikiDataId":"Q149271"},{"id":109536,"Name":"Denyshi","state_id":4668,"state_code":"18","state_name":"Zhytomyrska oblast","country_id":230,"country_code":"UA","country_name":"Ukraine","latitude":"50.21415000","longitude":"28.40395000","wikiDataId":"Q4158075"},{"id":109572,"Name":"Dovbysh","state_id":4668,"state_code":"18","state_name":"Zhytomyrska oblast","country_id":230,"country_code":"UA","country_name":"Ukraine","latitude":"50.37332000","longitude":"27.98742000","wikiDataId":"Q2993483"},{"id":109638,"Name":"Holovyne","state_id":4668,"state_code":"18","state_name":"Zhytomyrska oblast","country_id":230,"country_code":"UA","country_name":"Ukraine","latitude":"50.47118000","longitude":"28.82530000","wikiDataId":"Q2670503"},{"id":109647,"Name":"Horodnytsya","state_id":4668,"state_code":"18","state_name":"Zhytomyrska oblast","country_id":230,"country_code":"UA","country_name":"Ukraine","latitude":"50.80697000","longitude":"27.31676000","wikiDataId":"Q2670476"},{"id":109649,"Name":"Horodok","state_id":4668,"state_code":"18","state_name":"Zhytomyrska oblast","country_id":230,"country_code":"UA","country_name":"Ukraine","latitude":"50.59483000","longitude":"29.46070000","wikiDataId":"Q930449"},{"id":109658,"Name":"Hryshkivtsi","state_id":4668,"state_code":"18","state_name":"Zhytomyrska oblast","country_id":230,"country_code":"UA","country_name":"Ukraine","latitude":"49.93529000","longitude":"28.60383000","wikiDataId":"Q2993492"},{"id":109737,"Name":"Khoroshiv Raion","state_id":4668,"state_code":"18","state_name":"Zhytomyrska oblast","country_id":230,"country_code":"UA","country_name":"Ukraine","latitude":"50.66667000","longitude":"28.50000000","wikiDataId":"Q2494465"},{"id":109798,"Name":"Kornyn","state_id":4668,"state_code":"18","state_name":"Zhytomyrska oblast","country_id":230,"country_code":"UA","country_name":"Ukraine","latitude":"50.09530000","longitude":"29.53581000","wikiDataId":"Q2980432"},{"id":109801,"Name":"Korosten’","state_id":4668,"state_code":"18","state_name":"Zhytomyrska oblast","country_id":230,"country_code":"UA","country_name":"Ukraine","latitude":"50.95937000","longitude":"28.63855000","wikiDataId":"Q158904"},{"id":109802,"Name":"Korostyshiv","state_id":4668,"state_code":"18","state_name":"Zhytomyrska oblast","country_id":230,"country_code":"UA","country_name":"Ukraine","latitude":"50.31723000","longitude":"29.05630000","wikiDataId":"Q149190"},{"id":109803,"Name":"Korostyshiv Raion","state_id":4668,"state_code":"18","state_name":"Zhytomyrska oblast","country_id":230,"country_code":"UA","country_name":"Ukraine","latitude":"50.33333000","longitude":"29.08333000","wikiDataId":"Q149190"},{"id":109923,"Name":"Liubar","state_id":4668,"state_code":"18","state_name":"Zhytomyrska oblast","country_id":230,"country_code":"UA","country_name":"Ukraine","latitude":"49.92045000","longitude":"27.75918000","wikiDataId":"Q2652151"},{"id":109941,"Name":"Luhyny","state_id":4668,"state_code":"18","state_name":"Zhytomyrska oblast","country_id":230,"country_code":"UA","country_name":"Ukraine","latitude":"51.08203000","longitude":"28.40057000","wikiDataId":"Q2652141"},{"id":109942,"Name":"Luhyny Raion","state_id":4668,"state_code":"18","state_name":"Zhytomyrska oblast","country_id":230,"country_code":"UA","country_name":"Ukraine","latitude":"51.08333000","longitude":"28.33333000","wikiDataId":"Q2652141"},{"id":109988,"Name":"Malyn","state_id":4668,"state_code":"18","state_name":"Zhytomyrska oblast","country_id":230,"country_code":"UA","country_name":"Ukraine","latitude":"50.77233000","longitude":"29.23833000","wikiDataId":"Q148997"},{"id":109989,"Name":"Malyn Raion","state_id":4668,"state_code":"18","state_name":"Zhytomyrska oblast","country_id":230,"country_code":"UA","country_name":"Ukraine","latitude":"50.83084000","longitude":"29.19926000","wikiDataId":"Q2620713"},{"id":110081,"Name":"Narodychi","state_id":4668,"state_code":"18","state_name":"Zhytomyrska oblast","country_id":230,"country_code":"UA","country_name":"Ukraine","latitude":"51.20286000","longitude":"29.08228000","wikiDataId":"Q2603008"},{"id":110082,"Name":"Narodychi Raion","state_id":4668,"state_code":"18","state_name":"Zhytomyrska oblast","country_id":230,"country_code":"UA","country_name":"Ukraine","latitude":"51.25000000","longitude":"29.08333000","wikiDataId":"Q2620669"},{"id":110103,"Name":"Nova Borova","state_id":4668,"state_code":"18","state_name":"Zhytomyrska oblast","country_id":230,"country_code":"UA","country_name":"Ukraine","latitude":"50.69296000","longitude":"28.63446000","wikiDataId":"Q2980437"},{"id":110115,"Name":"Novi Bilokorovychi","state_id":4668,"state_code":"18","state_name":"Zhytomyrska oblast","country_id":230,"country_code":"UA","country_name":"Ukraine","latitude":"51.11548000","longitude":"28.05463000","wikiDataId":"Q2629639"},{"id":110128,"Name":"Novohrad-Volynskyi","state_id":4668,"state_code":"18","state_name":"Zhytomyrska oblast","country_id":230,"country_code":"UA","country_name":"Ukraine","latitude":"50.59412000","longitude":"27.61650000","wikiDataId":"Q149024"},{"id":110194,"Name":"Olevs’k","state_id":4668,"state_code":"18","state_name":"Zhytomyrska oblast","country_id":230,"country_code":"UA","country_name":"Ukraine","latitude":"51.22482000","longitude":"27.65228000","wikiDataId":"Q913143"},{"id":110214,"Name":"Ovruch","state_id":4668,"state_code":"18","state_name":"Zhytomyrska oblast","country_id":230,"country_code":"UA","country_name":"Ukraine","latitude":"51.32460000","longitude":"28.80351000","wikiDataId":"Q27039"},{"id":110215,"Name":"Ovruch Raion","state_id":4668,"state_code":"18","state_name":"Zhytomyrska oblast","country_id":230,"country_code":"UA","country_name":"Ukraine","latitude":"51.33333000","longitude":"28.83333000","wikiDataId":"Q676909"},{"id":110217,"Name":"Ozerne","state_id":4668,"state_code":"18","state_name":"Zhytomyrska oblast","country_id":230,"country_code":"UA","country_name":"Ukraine","latitude":"50.17816000","longitude":"28.73384000","wikiDataId":"Q1586535"},{"id":110246,"Name":"Pershotravneve","state_id":4668,"state_code":"18","state_name":"Zhytomyrska oblast","country_id":230,"country_code":"UA","country_name":"Ukraine","latitude":"51.39287000","longitude":"28.86837000","wikiDataId":"Q2670465"},{"id":110296,"Name":"Polyanka","state_id":4668,"state_code":"18","state_name":"Zhytomyrska oblast","country_id":230,"country_code":"UA","country_name":"Ukraine","latitude":"50.25836000","longitude":"27.68809000","wikiDataId":"Q2670222"},{"id":110301,"Name":"Popilnia","state_id":4668,"state_code":"18","state_name":"Zhytomyrska oblast","country_id":230,"country_code":"UA","country_name":"Ukraine","latitude":"49.95320000","longitude":"29.45265000","wikiDataId":"Q2652368"},{"id":110302,"Name":"Popilnia Raion","state_id":4668,"state_code":"18","state_name":"Zhytomyrska oblast","country_id":230,"country_code":"UA","country_name":"Ukraine","latitude":"49.91667000","longitude":"29.50000000","wikiDataId":"Q2620090"},{"id":110328,"Name":"Pulyny Raion","state_id":4668,"state_code":"18","state_name":"Zhytomyrska oblast","country_id":230,"country_code":"UA","country_name":"Ukraine","latitude":"50.50000000","longitude":"28.25000000","wikiDataId":"Q4379454"},{"id":110337,"Name":"Radomyshl","state_id":4668,"state_code":"18","state_name":"Zhytomyrska oblast","country_id":230,"country_code":"UA","country_name":"Ukraine","latitude":"50.49613000","longitude":"29.22911000","wikiDataId":"Q149163"},{"id":110338,"Name":"Radomyshl Raion","state_id":4668,"state_code":"18","state_name":"Zhytomyrska oblast","country_id":230,"country_code":"UA","country_name":"Ukraine","latitude":"50.50000000","longitude":"29.25000000","wikiDataId":"Q951829"},{"id":110366,"Name":"Romaniv","state_id":4668,"state_code":"18","state_name":"Zhytomyrska oblast","country_id":230,"country_code":"UA","country_name":"Ukraine","latitude":"50.14802000","longitude":"27.93124000","wikiDataId":"Q2629338"},{"id":110394,"Name":"Ruzhyn","state_id":4668,"state_code":"18","state_name":"Zhytomyrska oblast","country_id":230,"country_code":"UA","country_name":"Ukraine","latitude":"49.72280000","longitude":"29.20455000","wikiDataId":"Q2641606"},{"id":110544,"Name":"Stavyshche","state_id":4668,"state_code":"18","state_name":"Zhytomyrska oblast","country_id":230,"country_code":"UA","country_name":"Ukraine","latitude":"50.40051000","longitude":"29.52796000","wikiDataId":"Q65270"},{"id":110615,"Name":"Topory","state_id":4668,"state_code":"18","state_name":"Zhytomyrska oblast","country_id":230,"country_code":"UA","country_name":"Ukraine","latitude":"49.65186000","longitude":"29.31741000","wikiDataId":"Q4460882"},{"id":110795,"Name":"Yemil’chyne","state_id":4668,"state_code":"18","state_name":"Zhytomyrska oblast","country_id":230,"country_code":"UA","country_name":"Ukraine","latitude":"50.87349000","longitude":"27.80604000","wikiDataId":"Q2641633"},{"id":110853,"Name":"Zhytomyr","state_id":4668,"state_code":"18","state_name":"Zhytomyrska oblast","country_id":230,"country_code":"UA","country_name":"Ukraine","latitude":"50.26487000","longitude":"28.67669000","wikiDataId":"Q156713"},{"id":110854,"Name":"Zhytomyr Raion","state_id":4668,"state_code":"18","state_name":"Zhytomyrska oblast","country_id":230,"country_code":"UA","country_name":"Ukraine","latitude":"50.25000000","longitude":"28.58333000","wikiDataId":"Q2620750"}]