[{"id":54384,"Name":"Bale","state_id":743,"state_code":"18","state_name":"Istria County","country_id":55,"country_code":"HR","country_name":"Croatia","latitude":"45.04056000","longitude":"13.78361000","wikiDataId":"Q519226"},{"id":54385,"Name":"Bale-Valle","state_id":743,"state_code":"18","state_name":"Istria County","country_id":55,"country_code":"HR","country_name":"Croatia","latitude":"45.04089000","longitude":"13.78565000","wikiDataId":"Q519226"},{"id":54426,"Name":"Brtonigla","state_id":743,"state_code":"18","state_name":"Istria County","country_id":55,"country_code":"HR","country_name":"Croatia","latitude":"45.38139000","longitude":"13.62944000","wikiDataId":"Q991426"},{"id":54427,"Name":"Brtonigla-Verteneglio","state_id":743,"state_code":"18","state_name":"Istria County","country_id":55,"country_code":"HR","country_name":"Croatia","latitude":"45.37918000","longitude":"13.62554000","wikiDataId":"Q991426"},{"id":54432,"Name":"Buje","state_id":743,"state_code":"18","state_name":"Istria County","country_id":55,"country_code":"HR","country_name":"Croatia","latitude":"45.41000000","longitude":"13.66194000","wikiDataId":"Q397724"},{"id":54433,"Name":"Buje-Buie","state_id":743,"state_code":"18","state_name":"Istria County","country_id":55,"country_code":"HR","country_name":"Croatia","latitude":"45.40790000","longitude":"13.65914000","wikiDataId":"Q397724"},{"id":54436,"Name":"Buzet","state_id":743,"state_code":"18","state_name":"Istria County","country_id":55,"country_code":"HR","country_name":"Croatia","latitude":"45.40944000","longitude":"13.96667000","wikiDataId":"Q695767"},{"id":54479,"Name":"Fažana","state_id":743,"state_code":"18","state_name":"Istria County","country_id":55,"country_code":"HR","country_name":"Croatia","latitude":"44.92750000","longitude":"13.80361000","wikiDataId":"Q1024726"},{"id":54480,"Name":"Fažana-Fasana","state_id":743,"state_code":"18","state_name":"Istria County","country_id":55,"country_code":"HR","country_name":"Croatia","latitude":"44.92822000","longitude":"13.80548000","wikiDataId":"Q1024726"},{"id":54483,"Name":"Funtana","state_id":743,"state_code":"18","state_name":"Istria County","country_id":55,"country_code":"HR","country_name":"Croatia","latitude":"45.17472000","longitude":"13.60500000","wikiDataId":"Q1027250"},{"id":54484,"Name":"Funtana-Fontane","state_id":743,"state_code":"18","state_name":"Istria County","country_id":55,"country_code":"HR","country_name":"Croatia","latitude":"45.17483000","longitude":"13.60627000","wikiDataId":"Q1027250"},{"id":54487,"Name":"Galižana","state_id":743,"state_code":"18","state_name":"Istria County","country_id":55,"country_code":"HR","country_name":"Croatia","latitude":"44.93167000","longitude":"13.86861000","wikiDataId":"Q763761"},{"id":54506,"Name":"Grad Buzet","state_id":743,"state_code":"18","state_name":"Istria County","country_id":55,"country_code":"HR","country_name":"Croatia","latitude":"45.41667000","longitude":"13.96667000","wikiDataId":"Q319276"},{"id":54530,"Name":"Grad Labin","state_id":743,"state_code":"18","state_name":"Istria County","country_id":55,"country_code":"HR","country_name":"Croatia","latitude":"45.08333000","longitude":"14.13333000","wikiDataId":"Q5718"},{"id":54542,"Name":"Grad Pazin","state_id":743,"state_code":"18","state_name":"Istria County","country_id":55,"country_code":"HR","country_name":"Croatia","latitude":"45.23333000","longitude":"13.93333000","wikiDataId":"Q1640"},{"id":54585,"Name":"Grožnjan","state_id":743,"state_code":"18","state_name":"Istria County","country_id":55,"country_code":"HR","country_name":"Croatia","latitude":"45.37889000","longitude":"13.72389000","wikiDataId":"Q1013183"},{"id":54586,"Name":"Grožnjan-Grisignana","state_id":743,"state_code":"18","state_name":"Istria County","country_id":55,"country_code":"HR","country_name":"Croatia","latitude":"45.37728000","longitude":"13.72145000","wikiDataId":"Q1013183"},{"id":54629,"Name":"Kanfanar","state_id":743,"state_code":"18","state_name":"Istria County","country_id":55,"country_code":"HR","country_name":"Croatia","latitude":"45.12194000","longitude":"13.83917000","wikiDataId":"Q174235"},{"id":54634,"Name":"Karojba","state_id":743,"state_code":"18","state_name":"Istria County","country_id":55,"country_code":"HR","country_name":"Croatia","latitude":"45.30083000","longitude":"13.82306000","wikiDataId":"Q1269908"},{"id":54644,"Name":"Kaštelir-Labinci","state_id":743,"state_code":"18","state_name":"Istria County","country_id":55,"country_code":"HR","country_name":"Croatia","latitude":"45.30277000","longitude":"13.68841000","wikiDataId":"Q2630250"},{"id":54681,"Name":"Labin","state_id":743,"state_code":"18","state_name":"Istria County","country_id":55,"country_code":"HR","country_name":"Croatia","latitude":"45.09500000","longitude":"14.11972000","wikiDataId":"Q375582"},{"id":54691,"Name":"Ližnjan","state_id":743,"state_code":"18","state_name":"Istria County","country_id":55,"country_code":"HR","country_name":"Croatia","latitude":"44.82833000","longitude":"13.95694000","wikiDataId":"Q1077824"},{"id":54692,"Name":"Ližnjan-Lisignano","state_id":743,"state_code":"18","state_name":"Istria County","country_id":55,"country_code":"HR","country_name":"Croatia","latitude":"44.82765000","longitude":"13.96028000","wikiDataId":"Q1077824"},{"id":54706,"Name":"Lupoglav","state_id":743,"state_code":"18","state_name":"Istria County","country_id":55,"country_code":"HR","country_name":"Croatia","latitude":"45.35204000","longitude":"14.10846000","wikiDataId":"Q1018611"},{"id":54722,"Name":"Marčana","state_id":743,"state_code":"18","state_name":"Istria County","country_id":55,"country_code":"HR","country_name":"Croatia","latitude":"44.95528000","longitude":"13.95389000","wikiDataId":"Q941197"},{"id":54727,"Name":"Medulin","state_id":743,"state_code":"18","state_name":"Istria County","country_id":55,"country_code":"HR","country_name":"Croatia","latitude":"44.82250000","longitude":"13.93500000","wikiDataId":"Q1007517"},{"id":54739,"Name":"Motovun","state_id":743,"state_code":"18","state_name":"Istria County","country_id":55,"country_code":"HR","country_name":"Croatia","latitude":"45.33667000","longitude":"13.82861000","wikiDataId":"Q998826"},{"id":54740,"Name":"Motovun-Montona","state_id":743,"state_code":"18","state_name":"Istria County","country_id":55,"country_code":"HR","country_name":"Croatia","latitude":"45.33633000","longitude":"13.82977000","wikiDataId":"Q998826"},{"id":54761,"Name":"Novigrad","state_id":743,"state_code":"18","state_name":"Istria County","country_id":55,"country_code":"HR","country_name":"Croatia","latitude":"45.31500000","longitude":"13.55806000","wikiDataId":"Q5395"},{"id":54763,"Name":"Novigrad-Cittanova","state_id":743,"state_code":"18","state_name":"Istria County","country_id":55,"country_code":"HR","country_name":"Croatia","latitude":"45.31669000","longitude":"13.56155000","wikiDataId":"Q5395"},{"id":54784,"Name":"Općina Lanišće","state_id":743,"state_code":"18","state_name":"Istria County","country_id":55,"country_code":"HR","country_name":"Croatia","latitude":"45.43520000","longitude":"14.08196000","wikiDataId":"Q396465"},{"id":54779,"Name":"Oprtalj-Portole","state_id":743,"state_code":"18","state_name":"Istria County","country_id":55,"country_code":"HR","country_name":"Croatia","latitude":"45.38226000","longitude":"13.82406000","wikiDataId":"Q738062"},{"id":54800,"Name":"Pazin","state_id":743,"state_code":"18","state_name":"Istria County","country_id":55,"country_code":"HR","country_name":"Croatia","latitude":"45.24028000","longitude":"13.93667000","wikiDataId":"Q211968"},{"id":54826,"Name":"Poreč","state_id":743,"state_code":"18","state_name":"Istria County","country_id":55,"country_code":"HR","country_name":"Croatia","latitude":"45.22567000","longitude":"13.59511000","wikiDataId":"Q5323"},{"id":54827,"Name":"Poreč-Parenzo","state_id":743,"state_code":"18","state_name":"Istria County","country_id":55,"country_code":"HR","country_name":"Croatia","latitude":"45.22717000","longitude":"13.59653000","wikiDataId":"Q5323"},{"id":54844,"Name":"Pula","state_id":743,"state_code":"18","state_name":"Istria County","country_id":55,"country_code":"HR","country_name":"Croatia","latitude":"44.86833000","longitude":"13.84806000","wikiDataId":"Q4656"},{"id":54845,"Name":"Pula-Pola","state_id":743,"state_code":"18","state_name":"Istria County","country_id":55,"country_code":"HR","country_name":"Croatia","latitude":"44.86711000","longitude":"13.84882000","wikiDataId":"Q4656"},{"id":54850,"Name":"Rabac","state_id":743,"state_code":"18","state_name":"Istria County","country_id":55,"country_code":"HR","country_name":"Croatia","latitude":"45.07944000","longitude":"14.15750000","wikiDataId":"Q1018677"},{"id":54855,"Name":"Raša","state_id":743,"state_code":"18","state_name":"Istria County","country_id":55,"country_code":"HR","country_name":"Croatia","latitude":"45.08028000","longitude":"14.07889000","wikiDataId":"Q1111760"},{"id":54867,"Name":"Rovinj","state_id":743,"state_code":"18","state_name":"Istria County","country_id":55,"country_code":"HR","country_name":"Croatia","latitude":"45.08000000","longitude":"13.64000000","wikiDataId":"Q5316"},{"id":54868,"Name":"Rovinj-Rovigno","state_id":743,"state_code":"18","state_name":"Istria County","country_id":55,"country_code":"HR","country_name":"Croatia","latitude":"45.08190000","longitude":"13.63970000","wikiDataId":"Q5316"},{"id":54925,"Name":"Sveta Nedelja","state_id":743,"state_code":"18","state_name":"Istria County","country_id":55,"country_code":"HR","country_name":"Croatia","latitude":"45.14932000","longitude":"14.09889000","wikiDataId":"Q925754"},{"id":54931,"Name":"Sveti Lovreč","state_id":743,"state_code":"18","state_name":"Istria County","country_id":55,"country_code":"HR","country_name":"Croatia","latitude":"45.17770000","longitude":"13.74317000","wikiDataId":"Q1014083"},{"id":54933,"Name":"Tar","state_id":743,"state_code":"18","state_name":"Istria County","country_id":55,"country_code":"HR","country_name":"Croatia","latitude":"45.30083000","longitude":"13.62528000","wikiDataId":"Q1014083"},{"id":54934,"Name":"Tar-Vabriga-Torre Abrega","state_id":743,"state_code":"18","state_name":"Istria County","country_id":55,"country_code":"HR","country_name":"Croatia","latitude":"45.29946000","longitude":"13.62489000","wikiDataId":"Q1014083"},{"id":54949,"Name":"Umag","state_id":743,"state_code":"18","state_name":"Istria County","country_id":55,"country_code":"HR","country_name":"Croatia","latitude":"45.43139000","longitude":"13.52389000","wikiDataId":"Q221184"},{"id":54950,"Name":"Umag-Umago","state_id":743,"state_code":"18","state_name":"Istria County","country_id":55,"country_code":"HR","country_name":"Croatia","latitude":"45.43462000","longitude":"13.52589000","wikiDataId":"Q221184"},{"id":54951,"Name":"Valbandon","state_id":743,"state_code":"18","state_name":"Istria County","country_id":55,"country_code":"HR","country_name":"Croatia","latitude":"44.91879000","longitude":"13.81344000","wikiDataId":"Q221184"},{"id":54967,"Name":"Vinež","state_id":743,"state_code":"18","state_name":"Istria County","country_id":55,"country_code":"HR","country_name":"Croatia","latitude":"45.09806000","longitude":"14.10694000","wikiDataId":"Q2150596"},{"id":54977,"Name":"Višnjan-Visignano","state_id":743,"state_code":"18","state_name":"Istria County","country_id":55,"country_code":"HR","country_name":"Croatia","latitude":"45.27614000","longitude":"13.72128000","wikiDataId":"Q963229"},{"id":54979,"Name":"Vižinada-Visinada","state_id":743,"state_code":"18","state_name":"Istria County","country_id":55,"country_code":"HR","country_name":"Croatia","latitude":"45.33126000","longitude":"13.75943000","wikiDataId":"Q2393687"},{"id":54982,"Name":"Vodnjan","state_id":743,"state_code":"18","state_name":"Istria County","country_id":55,"country_code":"HR","country_name":"Croatia","latitude":"44.95944000","longitude":"13.85167000","wikiDataId":"Q396683"},{"id":54983,"Name":"Vodnjan-Dignano","state_id":743,"state_code":"18","state_name":"Istria County","country_id":55,"country_code":"HR","country_name":"Croatia","latitude":"44.96187000","longitude":"13.85041000","wikiDataId":"Q396683"},{"id":54996,"Name":"Vrsar","state_id":743,"state_code":"18","state_name":"Istria County","country_id":55,"country_code":"HR","country_name":"Croatia","latitude":"45.14917000","longitude":"13.60528000","wikiDataId":"Q838612"},{"id":54997,"Name":"Vrsar-Orsera","state_id":743,"state_code":"18","state_name":"Istria County","country_id":55,"country_code":"HR","country_name":"Croatia","latitude":"45.15074000","longitude":"13.60558000","wikiDataId":"Q838612"},{"id":55039,"Name":"Žminj","state_id":743,"state_code":"18","state_name":"Istria County","country_id":55,"country_code":"HR","country_name":"Croatia","latitude":"45.14278000","longitude":"13.90889000","wikiDataId":"Q394246"}]