[{"id":38732,"Name":"Alastaro","state_id":1507,"state_code":"19","state_name":"Finland Proper","country_id":74,"country_code":"FI","country_name":"Finland","latitude":"60.95000000","longitude":"22.85000000","wikiDataId":"Q206601"},{"id":38738,"Name":"Askainen","state_id":1507,"state_code":"19","state_name":"Finland Proper","country_id":74,"country_code":"FI","country_name":"Finland","latitude":"60.56667000","longitude":"21.86667000","wikiDataId":"Q730954"},{"id":38740,"Name":"Aura","state_id":1507,"state_code":"19","state_name":"Finland Proper","country_id":74,"country_code":"FI","country_name":"Finland","latitude":"60.64710000","longitude":"22.58755000","wikiDataId":"Q730954"},{"id":38742,"Name":"Dragsfjärd","state_id":1507,"state_code":"19","state_name":"Finland Proper","country_id":74,"country_code":"FI","country_name":"Finland","latitude":"60.06667000","longitude":"22.48333000","wikiDataId":"Q1009619"},{"id":38757,"Name":"Halikko","state_id":1507,"state_code":"19","state_name":"Finland Proper","country_id":74,"country_code":"FI","country_name":"Finland","latitude":"60.40000000","longitude":"23.08333000","wikiDataId":"Q1571103"},{"id":38775,"Name":"Houtskär","state_id":1507,"state_code":"19","state_name":"Finland Proper","country_id":74,"country_code":"FI","country_name":"Finland","latitude":"60.22284000","longitude":"21.37218000","wikiDataId":"Q1025722"},{"id":38790,"Name":"Iniö","state_id":1507,"state_code":"19","state_name":"Finland Proper","country_id":74,"country_code":"FI","country_name":"Finland","latitude":"60.40000000","longitude":"21.40000000","wikiDataId":"Q1025692"},{"id":38814,"Name":"Kaarina","state_id":1507,"state_code":"19","state_name":"Finland Proper","country_id":74,"country_code":"FI","country_name":"Finland","latitude":"60.40724000","longitude":"22.36904000","wikiDataId":"Q3068775"},{"id":38827,"Name":"Karinainen","state_id":1507,"state_code":"19","state_name":"Finland Proper","country_id":74,"country_code":"FI","country_name":"Finland","latitude":"60.66667000","longitude":"22.76667000","wikiDataId":"Q910021"},{"id":38851,"Name":"Kiikala","state_id":1507,"state_code":"19","state_name":"Finland Proper","country_id":74,"country_code":"FI","country_name":"Finland","latitude":"60.46667000","longitude":"23.56667000","wikiDataId":"Q1641643"},{"id":38854,"Name":"Kimito","state_id":1507,"state_code":"19","state_name":"Finland Proper","country_id":74,"country_code":"FI","country_name":"Finland","latitude":"60.16047000","longitude":"22.72900000","wikiDataId":"Q425790"},{"id":38857,"Name":"Kisko","state_id":1507,"state_code":"19","state_name":"Finland Proper","country_id":74,"country_code":"FI","country_name":"Finland","latitude":"60.23333000","longitude":"23.48333000","wikiDataId":"Q668748"},{"id":38884,"Name":"Kustavi","state_id":1507,"state_code":"19","state_name":"Finland Proper","country_id":74,"country_code":"FI","country_name":"Finland","latitude":"60.54529000","longitude":"21.35880000","wikiDataId":"Q6012"},{"id":38886,"Name":"Kuusjoki","state_id":1507,"state_code":"19","state_name":"Finland Proper","country_id":74,"country_code":"FI","country_name":"Finland","latitude":"60.51667000","longitude":"23.20000000","wikiDataId":"Q531620"},{"id":38894,"Name":"Laitila","state_id":1507,"state_code":"19","state_name":"Finland Proper","country_id":74,"country_code":"FI","country_name":"Finland","latitude":"60.87575000","longitude":"21.69765000","wikiDataId":"Q1580271"},{"id":38909,"Name":"Lemu","state_id":1507,"state_code":"19","state_name":"Finland Proper","country_id":74,"country_code":"FI","country_name":"Finland","latitude":"60.56667000","longitude":"21.96667000","wikiDataId":"Q1641588"},{"id":38913,"Name":"Lieto","state_id":1507,"state_code":"19","state_name":"Finland Proper","country_id":74,"country_code":"FI","country_name":"Finland","latitude":"60.51032000","longitude":"22.46176000","wikiDataId":"Q608752"},{"id":38928,"Name":"Marttila","state_id":1507,"state_code":"19","state_name":"Finland Proper","country_id":74,"country_code":"FI","country_name":"Finland","latitude":"60.58333000","longitude":"22.90000000","wikiDataId":"Q748064"},{"id":38929,"Name":"Masku","state_id":1507,"state_code":"19","state_name":"Finland Proper","country_id":74,"country_code":"FI","country_name":"Finland","latitude":"60.57082000","longitude":"22.09883000","wikiDataId":"Q1017127"},{"id":38930,"Name":"Mellilä","state_id":1507,"state_code":"19","state_name":"Finland Proper","country_id":74,"country_code":"FI","country_name":"Finland","latitude":"60.76667000","longitude":"22.95000000","wikiDataId":"Q1641630"},{"id":38934,"Name":"Merimasku","state_id":1507,"state_code":"19","state_name":"Finland Proper","country_id":74,"country_code":"FI","country_name":"Finland","latitude":"60.48333000","longitude":"21.86667000","wikiDataId":"Q1025703"},{"id":38936,"Name":"Mietoinen","state_id":1507,"state_code":"19","state_name":"Finland Proper","country_id":74,"country_code":"FI","country_name":"Finland","latitude":"60.63333000","longitude":"21.93333000","wikiDataId":"Q1852283"},{"id":38943,"Name":"Muurla","state_id":1507,"state_code":"19","state_name":"Finland Proper","country_id":74,"country_code":"FI","country_name":"Finland","latitude":"60.35000000","longitude":"23.28333000","wikiDataId":"Q1641664"},{"id":38944,"Name":"Mynämäki","state_id":1507,"state_code":"19","state_name":"Finland Proper","country_id":74,"country_code":"FI","country_name":"Finland","latitude":"60.67915000","longitude":"21.99274000","wikiDataId":"Q1641664"},{"id":38948,"Name":"Naantali","state_id":1507,"state_code":"19","state_name":"Finland Proper","country_id":74,"country_code":"FI","country_name":"Finland","latitude":"60.46744000","longitude":"22.02428000","wikiDataId":"Q1641649"},{"id":38949,"Name":"Nagu","state_id":1507,"state_code":"19","state_name":"Finland Proper","country_id":74,"country_code":"FI","country_name":"Finland","latitude":"60.19375000","longitude":"21.90972000","wikiDataId":"Q203512"},{"id":38955,"Name":"Nousiainen","state_id":1507,"state_code":"19","state_name":"Finland Proper","country_id":74,"country_code":"FI","country_name":"Finland","latitude":"60.60416000","longitude":"22.07926000","wikiDataId":"Q1641623"},{"id":38963,"Name":"Oripää","state_id":1507,"state_code":"19","state_name":"Finland Proper","country_id":74,"country_code":"FI","country_name":"Finland","latitude":"60.85000000","longitude":"22.68333000","wikiDataId":"Q2028417"},{"id":38970,"Name":"Paimio","state_id":1507,"state_code":"19","state_name":"Finland Proper","country_id":74,"country_code":"FI","country_name":"Finland","latitude":"60.45671000","longitude":"22.68694000","wikiDataId":"Q992356"},{"id":38972,"Name":"Pargas","state_id":1507,"state_code":"19","state_name":"Finland Proper","country_id":74,"country_code":"FI","country_name":"Finland","latitude":"60.30672000","longitude":"22.30097000","wikiDataId":"Q13405837"},{"id":38978,"Name":"Perniö","state_id":1507,"state_code":"19","state_name":"Finland Proper","country_id":74,"country_code":"FI","country_name":"Finland","latitude":"60.20000000","longitude":"23.13333000","wikiDataId":"Q1641596"},{"id":38980,"Name":"Pertteli","state_id":1507,"state_code":"19","state_name":"Finland Proper","country_id":74,"country_code":"FI","country_name":"Finland","latitude":"60.43333000","longitude":"23.26667000","wikiDataId":"Q121715"},{"id":38986,"Name":"Piikkiö","state_id":1507,"state_code":"19","state_name":"Finland Proper","country_id":74,"country_code":"FI","country_name":"Finland","latitude":"60.42481000","longitude":"22.51601000","wikiDataId":"Q783205"},{"id":39009,"Name":"Pöytyä","state_id":1507,"state_code":"19","state_name":"Finland Proper","country_id":74,"country_code":"FI","country_name":"Finland","latitude":"60.76667000","longitude":"22.66667000","wikiDataId":"Q200443"},{"id":39006,"Name":"Pyhäranta","state_id":1507,"state_code":"19","state_name":"Finland Proper","country_id":74,"country_code":"FI","country_name":"Finland","latitude":"60.95000000","longitude":"21.45000000","wikiDataId":"Q807902"},{"id":39012,"Name":"Raisio","state_id":1507,"state_code":"19","state_name":"Finland Proper","country_id":74,"country_code":"FI","country_name":"Finland","latitude":"60.48592000","longitude":"22.16895000","wikiDataId":"Q1191746"},{"id":39030,"Name":"Rusko","state_id":1507,"state_code":"19","state_name":"Finland Proper","country_id":74,"country_code":"FI","country_name":"Finland","latitude":"60.53333000","longitude":"22.21667000","wikiDataId":"Q999193"},{"id":39032,"Name":"Rymättylä","state_id":1507,"state_code":"19","state_name":"Finland Proper","country_id":74,"country_code":"FI","country_name":"Finland","latitude":"60.37658000","longitude":"21.94184000","wikiDataId":"Q1641571"},{"id":39037,"Name":"Salo","state_id":1507,"state_code":"19","state_name":"Finland Proper","country_id":74,"country_code":"FI","country_name":"Finland","latitude":"60.38333000","longitude":"23.13333000","wikiDataId":"Q210987"},{"id":39065,"Name":"Särkisalo","state_id":1507,"state_code":"19","state_name":"Finland Proper","country_id":74,"country_code":"FI","country_name":"Finland","latitude":"60.11389000","longitude":"22.95000000","wikiDataId":"Q1852674"},{"id":39039,"Name":"Sauvo","state_id":1507,"state_code":"19","state_name":"Finland Proper","country_id":74,"country_code":"FI","country_name":"Finland","latitude":"60.34306000","longitude":"22.69642000","wikiDataId":"Q1017136"},{"id":39054,"Name":"Somero","state_id":1507,"state_code":"19","state_name":"Finland Proper","country_id":74,"country_code":"FI","country_name":"Finland","latitude":"60.61667000","longitude":"23.53333000","wikiDataId":"Q939727"},{"id":39060,"Name":"Suomusjärvi","state_id":1507,"state_code":"19","state_name":"Finland Proper","country_id":74,"country_code":"FI","country_name":"Finland","latitude":"60.35000000","longitude":"23.65000000","wikiDataId":"Q1641656"},{"id":39069,"Name":"Taivassalo","state_id":1507,"state_code":"19","state_name":"Finland Proper","country_id":74,"country_code":"FI","country_name":"Finland","latitude":"60.56085000","longitude":"21.61639000","wikiDataId":"Q1025700"},{"id":39071,"Name":"Tarvasjoki","state_id":1507,"state_code":"19","state_name":"Finland Proper","country_id":74,"country_code":"FI","country_name":"Finland","latitude":"60.58333000","longitude":"22.73333000","wikiDataId":"Q1025700"},{"id":39081,"Name":"Turku","state_id":1507,"state_code":"19","state_name":"Finland Proper","country_id":74,"country_code":"FI","country_name":"Finland","latitude":"60.45148000","longitude":"22.26869000","wikiDataId":"Q38511"},{"id":39093,"Name":"Uusikaupunki","state_id":1507,"state_code":"19","state_name":"Finland Proper","country_id":74,"country_code":"FI","country_name":"Finland","latitude":"60.80043000","longitude":"21.40841000","wikiDataId":"Q207295"},{"id":39096,"Name":"Vahto","state_id":1507,"state_code":"19","state_name":"Finland Proper","country_id":74,"country_code":"FI","country_name":"Finland","latitude":"60.60000000","longitude":"22.30000000","wikiDataId":"Q386061"},{"id":39119,"Name":"Väståboland","state_id":1507,"state_code":"19","state_name":"Finland Proper","country_id":74,"country_code":"FI","country_name":"Finland","latitude":"60.29972000","longitude":"22.30040000","wikiDataId":"Q1010550"},{"id":39118,"Name":"Västanfjärd","state_id":1507,"state_code":"19","state_name":"Finland Proper","country_id":74,"country_code":"FI","country_name":"Finland","latitude":"60.05000000","longitude":"22.68333000","wikiDataId":"Q1641638"},{"id":39102,"Name":"Vehmaa","state_id":1507,"state_code":"19","state_name":"Finland Proper","country_id":74,"country_code":"FI","country_name":"Finland","latitude":"60.68333000","longitude":"21.66667000","wikiDataId":"Q1641558"},{"id":39104,"Name":"Velkua","state_id":1507,"state_code":"19","state_name":"Finland Proper","country_id":74,"country_code":"FI","country_name":"Finland","latitude":"60.46667000","longitude":"21.66667000","wikiDataId":"Q939276"},{"id":39128,"Name":"Yläne","state_id":1507,"state_code":"19","state_name":"Finland Proper","country_id":74,"country_code":"FI","country_name":"Finland","latitude":"60.88333000","longitude":"22.41667000","wikiDataId":"Q1407166"}]