[{"id":134556,"Name":"Abhar","state_id":3925,"state_code":"19","state_name":"Zanjan","country_id":103,"country_code":"IR","country_name":"Iran","latitude":"36.14680000","longitude":"49.21800000","wikiDataId":"Q643359"},{"id":134566,"Name":"Alvand","state_id":3925,"state_code":"19","state_name":"Zanjan","country_id":103,"country_code":"IR","country_name":"Iran","latitude":"36.31885000","longitude":"49.16773000","wikiDataId":"Q1773455"},{"id":134674,"Name":"Khorramdarreh","state_id":3925,"state_code":"19","state_name":"Zanjan","country_id":103,"country_code":"IR","country_name":"Iran","latitude":"36.23333000","longitude":"49.20000000","wikiDataId":"Q502212"},{"id":135090,"Name":"Shahrestān-e Ījrūd","state_id":3925,"state_code":"19","state_name":"Zanjan","country_id":103,"country_code":"IR","country_name":"Iran","latitude":"36.33333000","longitude":"48.25000000","wikiDataId":"Q1277854"},{"id":134916,"Name":"Shahrestān-e Khodābandeh","state_id":3925,"state_code":"19","state_name":"Zanjan","country_id":103,"country_code":"IR","country_name":"Iran","latitude":"36.00000000","longitude":"48.50000000","wikiDataId":"Q1264551"},{"id":134966,"Name":"Shahrestān-e Māhneshān","state_id":3925,"state_code":"19","state_name":"Zanjan","country_id":103,"country_code":"IR","country_name":"Iran","latitude":"36.66667000","longitude":"47.56667000","wikiDataId":"Q1264551"},{"id":135097,"Name":"Shahrestān-e Ţārom","state_id":3925,"state_code":"19","state_name":"Zanjan","country_id":103,"country_code":"IR","country_name":"Iran","latitude":"36.95000000","longitude":"48.90000000","wikiDataId":"Q1277854"},{"id":135071,"Name":"Shahrestān-e Zanjān","state_id":3925,"state_code":"19","state_name":"Zanjan","country_id":103,"country_code":"IR","country_name":"Iran","latitude":"36.58333000","longitude":"48.25000000","wikiDataId":"Q1286247"},{"id":135119,"Name":"Soltaniyeh","state_id":3925,"state_code":"19","state_name":"Zanjan","country_id":103,"country_code":"IR","country_name":"Iran","latitude":"36.43235000","longitude":"48.79393000","wikiDataId":"Q605224"},{"id":135142,"Name":"Zanjān","state_id":3925,"state_code":"19","state_name":"Zanjan","country_id":103,"country_code":"IR","country_name":"Iran","latitude":"36.67642000","longitude":"48.49628000","wikiDataId":"Q146699"}]