[{"id":79956,"Name":"Aguadulce","state_id":1387,"state_code":"2","state_name":"Coclé Province","country_id":170,"country_code":"PA","country_name":"Panama","latitude":"8.24183000","longitude":"-80.54609000","wikiDataId":"Q1956983"},{"id":79957,"Name":"Aguas Blancas","state_id":1387,"state_code":"2","state_name":"Coclé Province","country_id":170,"country_code":"PA","country_name":"Panama","latitude":"8.50351000","longitude":"-80.31169000","wikiDataId":"Q1956983"},{"id":79965,"Name":"Alto de La Estancia","state_id":1387,"state_code":"2","state_name":"Coclé Province","country_id":170,"country_code":"PA","country_name":"Panama","latitude":"8.58792000","longitude":"-80.18443000","wikiDataId":"Q1956983"},{"id":79969,"Name":"Antón","state_id":1387,"state_code":"2","state_name":"Coclé Province","country_id":170,"country_code":"PA","country_name":"Panama","latitude":"8.39733000","longitude":"-80.26063000","wikiDataId":"Q1956983"},{"id":79984,"Name":"Barranco Colorado","state_id":1387,"state_code":"2","state_name":"Coclé Province","country_id":170,"country_code":"PA","country_name":"Panama","latitude":"8.38937000","longitude":"-80.63546000","wikiDataId":"Q1956983"},{"id":80013,"Name":"Caballero","state_id":1387,"state_code":"2","state_name":"Coclé Province","country_id":170,"country_code":"PA","country_name":"Panama","latitude":"8.54343000","longitude":"-80.19769000","wikiDataId":"Q804144"},{"id":80017,"Name":"Cabuya","state_id":1387,"state_code":"2","state_name":"Coclé Province","country_id":170,"country_code":"PA","country_name":"Panama","latitude":"8.54703000","longitude":"-80.16756000","wikiDataId":"Q804144"},{"id":80019,"Name":"Caimito","state_id":1387,"state_code":"2","state_name":"Coclé Province","country_id":170,"country_code":"PA","country_name":"Panama","latitude":"8.62271000","longitude":"-80.23919000","wikiDataId":"Q804144"},{"id":80039,"Name":"Cañaveral","state_id":1387,"state_code":"2","state_name":"Coclé Province","country_id":170,"country_code":"PA","country_name":"Panama","latitude":"8.51700000","longitude":"-80.42916000","wikiDataId":"Q804144"},{"id":80032,"Name":"Capellanía","state_id":1387,"state_code":"2","state_name":"Coclé Province","country_id":170,"country_code":"PA","country_name":"Panama","latitude":"8.29858000","longitude":"-80.55480000","wikiDataId":"Q804144"},{"id":80058,"Name":"Chigoré","state_id":1387,"state_code":"2","state_name":"Coclé Province","country_id":170,"country_code":"PA","country_name":"Panama","latitude":"8.53035000","longitude":"-80.35117000","wikiDataId":"Q804144"},{"id":80059,"Name":"Chiguirí Arriba","state_id":1387,"state_code":"2","state_name":"Coclé Province","country_id":170,"country_code":"PA","country_name":"Panama","latitude":"8.67187000","longitude":"-80.18975000","wikiDataId":"Q804144"},{"id":80067,"Name":"Churuquita Chiquita","state_id":1387,"state_code":"2","state_name":"Coclé Province","country_id":170,"country_code":"PA","country_name":"Panama","latitude":"8.57555000","longitude":"-80.27161000","wikiDataId":"Q5118336"},{"id":80068,"Name":"Churuquita Grande","state_id":1387,"state_code":"2","state_name":"Coclé Province","country_id":170,"country_code":"PA","country_name":"Panama","latitude":"8.59449000","longitude":"-80.27182000","wikiDataId":"Q5118336"},{"id":80071,"Name":"Coclé","state_id":1387,"state_code":"2","state_name":"Coclé Province","country_id":170,"country_code":"PA","country_name":"Panama","latitude":"8.45601000","longitude":"-80.42899000","wikiDataId":"Q34795886"},{"id":80086,"Name":"Distrito de Aguadulce","state_id":1387,"state_code":"2","state_name":"Coclé Province","country_id":170,"country_code":"PA","country_name":"Panama","latitude":"8.21270000","longitude":"-80.61441000","wikiDataId":"Q2216595"},{"id":80088,"Name":"Distrito de Antón","state_id":1387,"state_code":"2","state_name":"Coclé Province","country_id":170,"country_code":"PA","country_name":"Panama","latitude":"8.45394000","longitude":"-80.18361000","wikiDataId":"Q2216997"},{"id":80114,"Name":"Distrito de La Pintada","state_id":1387,"state_code":"2","state_name":"Coclé Province","country_id":170,"country_code":"PA","country_name":"Panama","latitude":"8.71801000","longitude":"-80.53946000","wikiDataId":"Q2215435"},{"id":80122,"Name":"Distrito de Natá","state_id":1387,"state_code":"2","state_name":"Coclé Province","country_id":170,"country_code":"PA","country_name":"Panama","latitude":"8.34416000","longitude":"-80.60934000","wikiDataId":"Q2215891"},{"id":80124,"Name":"Distrito de Olá","state_id":1387,"state_code":"2","state_name":"Coclé Province","country_id":170,"country_code":"PA","country_name":"Panama","latitude":"8.48053000","longitude":"-80.65324000","wikiDataId":"Q2217017"},{"id":80085,"Name":"Distrito Penonomé","state_id":1387,"state_code":"2","state_name":"Coclé Province","country_id":170,"country_code":"PA","country_name":"Panama","latitude":"8.63000000","longitude":"-80.28333000","wikiDataId":"Q2216569"},{"id":80157,"Name":"El Caño","state_id":1387,"state_code":"2","state_name":"Coclé Province","country_id":170,"country_code":"PA","country_name":"Panama","latitude":"8.40195000","longitude":"-80.51791000","wikiDataId":"Q2216393"},{"id":80159,"Name":"El Chirú","state_id":1387,"state_code":"2","state_name":"Coclé Province","country_id":170,"country_code":"PA","country_name":"Panama","latitude":"8.39876000","longitude":"-80.18721000","wikiDataId":"Q2216393"},{"id":80163,"Name":"El Coco","state_id":1387,"state_code":"2","state_name":"Coclé Province","country_id":170,"country_code":"PA","country_name":"Panama","latitude":"8.39716000","longitude":"-80.35000000","wikiDataId":"Q2216393"},{"id":80165,"Name":"El Copé","state_id":1387,"state_code":"2","state_name":"Coclé Province","country_id":170,"country_code":"PA","country_name":"Panama","latitude":"8.62036000","longitude":"-80.58433000","wikiDataId":"Q2216393"},{"id":80167,"Name":"El Cortezo","state_id":1387,"state_code":"2","state_name":"Coclé Province","country_id":170,"country_code":"PA","country_name":"Panama","latitude":"8.34556000","longitude":"-80.58721000","wikiDataId":"Q2216393"},{"id":80168,"Name":"El Cristo","state_id":1387,"state_code":"2","state_name":"Coclé Province","country_id":170,"country_code":"PA","country_name":"Panama","latitude":"8.25071000","longitude":"-80.62093000","wikiDataId":"Q2216393"},{"id":80194,"Name":"El Potrero","state_id":1387,"state_code":"2","state_name":"Coclé Province","country_id":170,"country_code":"PA","country_name":"Panama","latitude":"8.52146000","longitude":"-80.51681000","wikiDataId":"Q1018577"},{"id":80198,"Name":"El Retiro","state_id":1387,"state_code":"2","state_name":"Coclé Province","country_id":170,"country_code":"PA","country_name":"Panama","latitude":"8.48014000","longitude":"-80.15426000","wikiDataId":"Q1018577"},{"id":80201,"Name":"El Roble","state_id":1387,"state_code":"2","state_name":"Coclé Province","country_id":170,"country_code":"PA","country_name":"Panama","latitude":"8.16850000","longitude":"-80.65897000","wikiDataId":"Q1018577"},{"id":80207,"Name":"Entradero","state_id":1387,"state_code":"2","state_name":"Coclé Province","country_id":170,"country_code":"PA","country_name":"Panama","latitude":"8.56880000","longitude":"-80.20743000","wikiDataId":"Q5352312"},{"id":80209,"Name":"Farallón","state_id":1387,"state_code":"2","state_name":"Coclé Province","country_id":170,"country_code":"PA","country_name":"Panama","latitude":"8.35658000","longitude":"-80.13723000","wikiDataId":"Q5352312"},{"id":80228,"Name":"Guzman","state_id":1387,"state_code":"2","state_name":"Coclé Province","country_id":170,"country_code":"PA","country_name":"Panama","latitude":"8.51969000","longitude":"-80.58405000","wikiDataId":"Q2437057"},{"id":80237,"Name":"Juan Díaz","state_id":1387,"state_code":"2","state_name":"Coclé Province","country_id":170,"country_code":"PA","country_name":"Panama","latitude":"8.46240000","longitude":"-80.28280000","wikiDataId":"Q2437057"},{"id":80261,"Name":"La Loma","state_id":1387,"state_code":"2","state_name":"Coclé Province","country_id":170,"country_code":"PA","country_name":"Panama","latitude":"8.16667000","longitude":"-80.63742000","wikiDataId":"Q6463469"},{"id":80275,"Name":"La Pintada","state_id":1387,"state_code":"2","state_name":"Coclé Province","country_id":170,"country_code":"PA","country_name":"Panama","latitude":"8.59299000","longitude":"-80.44349000","wikiDataId":"Q10315061"},{"id":80293,"Name":"Las Huacas del Quije","state_id":1387,"state_code":"2","state_name":"Coclé Province","country_id":170,"country_code":"PA","country_name":"Panama","latitude":"8.46702000","longitude":"-80.75089000","wikiDataId":"Q3916792"},{"id":80299,"Name":"Las Marias","state_id":1387,"state_code":"2","state_name":"Coclé Province","country_id":170,"country_code":"PA","country_name":"Panama","latitude":"8.88809000","longitude":"-80.21893000","wikiDataId":"Q3916792"},{"id":80301,"Name":"Las Minas","state_id":1387,"state_code":"2","state_name":"Coclé Province","country_id":170,"country_code":"PA","country_name":"Panama","latitude":"8.64118000","longitude":"-80.39432000","wikiDataId":"Q3916792"},{"id":80305,"Name":"Las Sabanas","state_id":1387,"state_code":"2","state_name":"Coclé Province","country_id":170,"country_code":"PA","country_name":"Panama","latitude":"8.58141000","longitude":"-80.67978000","wikiDataId":"Q3916792"},{"id":80317,"Name":"Llano Grande","state_id":1387,"state_code":"2","state_name":"Coclé Province","country_id":170,"country_code":"PA","country_name":"Panama","latitude":"8.63817000","longitude":"-80.43848000","wikiDataId":"Q2712890"},{"id":80320,"Name":"Llano Marín","state_id":1387,"state_code":"2","state_name":"Coclé Province","country_id":170,"country_code":"PA","country_name":"Panama","latitude":"8.47696000","longitude":"-80.32499000","wikiDataId":"Q2712890"},{"id":80340,"Name":"Los Pollos","state_id":1387,"state_code":"2","state_name":"Coclé Province","country_id":170,"country_code":"PA","country_name":"Panama","latitude":"8.39898000","longitude":"-80.15731000","wikiDataId":"Q2712890"},{"id":80366,"Name":"Natá","state_id":1387,"state_code":"2","state_name":"Coclé Province","country_id":170,"country_code":"PA","country_name":"Panama","latitude":"8.33209000","longitude":"-80.51969000","wikiDataId":"Q3544851"},{"id":80370,"Name":"Nuestro Amo","state_id":1387,"state_code":"2","state_name":"Coclé Province","country_id":170,"country_code":"PA","country_name":"Panama","latitude":"8.44485000","longitude":"-80.58934000","wikiDataId":"Q3544851"},{"id":80383,"Name":"Olá","state_id":1387,"state_code":"2","state_name":"Coclé Province","country_id":170,"country_code":"PA","country_name":"Panama","latitude":"8.41807000","longitude":"-80.65123000","wikiDataId":"Q7068690"},{"id":80406,"Name":"Penonomé","state_id":1387,"state_code":"2","state_name":"Coclé Province","country_id":170,"country_code":"PA","country_name":"Panama","latitude":"8.51889000","longitude":"-80.35727000","wikiDataId":"Q654169"},{"id":80411,"Name":"Piedras Gordas","state_id":1387,"state_code":"2","state_name":"Coclé Province","country_id":170,"country_code":"PA","country_name":"Panama","latitude":"8.63777000","longitude":"-80.51024000","wikiDataId":"Q654169"},{"id":80420,"Name":"Pocrí","state_id":1387,"state_code":"2","state_name":"Coclé Province","country_id":170,"country_code":"PA","country_name":"Panama","latitude":"8.25814000","longitude":"-80.55000000","wikiDataId":"Q654169"},{"id":80460,"Name":"Río Grande","state_id":1387,"state_code":"2","state_name":"Coclé Province","country_id":170,"country_code":"PA","country_name":"Panama","latitude":"8.42679000","longitude":"-80.48457000","wikiDataId":"Q6115163"},{"id":80462,"Name":"Río Hato","state_id":1387,"state_code":"2","state_name":"Coclé Province","country_id":170,"country_code":"PA","country_name":"Panama","latitude":"8.37940000","longitude":"-80.16621000","wikiDataId":"Q6115163"},{"id":80486,"Name":"San Juan de Dios","state_id":1387,"state_code":"2","state_name":"Coclé Province","country_id":170,"country_code":"PA","country_name":"Panama","latitude":"8.55119000","longitude":"-80.22623000","wikiDataId":"Q7386411"},{"id":80522,"Name":"Toabré","state_id":1387,"state_code":"2","state_name":"Coclé Province","country_id":170,"country_code":"PA","country_name":"Panama","latitude":"8.65131000","longitude":"-80.32017000","wikiDataId":"Q685509"},{"id":80528,"Name":"Toza","state_id":1387,"state_code":"2","state_name":"Coclé Province","country_id":170,"country_code":"PA","country_name":"Panama","latitude":"8.34542000","longitude":"-80.64012000","wikiDataId":"Q186116"},{"id":80548,"Name":"Vista Hermosa","state_id":1387,"state_code":"2","state_name":"Coclé Province","country_id":170,"country_code":"PA","country_name":"Panama","latitude":"8.52687000","longitude":"-80.37486000","wikiDataId":"Q33512189"}]