[{"id":48133,"Name":"Franceville","state_id":2726,"state_code":"2","state_name":"Haut-Ogooué Province","country_id":79,"country_code":"GA","country_name":"Gabon","latitude":"-1.63333000","longitude":"13.58357000","wikiDataId":"Q459369"},{"id":48139,"Name":"Lékoni","state_id":2726,"state_code":"2","state_name":"Haut-Ogooué Province","country_id":79,"country_code":"GA","country_name":"Gabon","latitude":"-1.58431000","longitude":"14.25905000","wikiDataId":"Q6350743"},{"id":48145,"Name":"Moanda","state_id":2726,"state_code":"2","state_name":"Haut-Ogooué Province","country_id":79,"country_code":"GA","country_name":"Gabon","latitude":"-1.56652000","longitude":"13.19870000","wikiDataId":"Q1015100"},{"id":48147,"Name":"Mounana","state_id":2726,"state_code":"2","state_name":"Haut-Ogooué Province","country_id":79,"country_code":"GA","country_name":"Gabon","latitude":"-1.40850000","longitude":"13.15857000","wikiDataId":"Q1200140"},{"id":48151,"Name":"Okondja","state_id":2726,"state_code":"2","state_name":"Haut-Ogooué Province","country_id":79,"country_code":"GA","country_name":"Gabon","latitude":"-0.65487000","longitude":"13.67533000","wikiDataId":"Q4332646"}]