[{"id":89692,"Name":"Água de Pau","state_id":2233,"state_code":"20","state_name":"Açores","country_id":177,"country_code":"PT","country_name":"Portugal","latitude":"37.72142000","longitude":"-25.51170000","wikiDataId":"Q1999047"},{"id":88968,"Name":"Angra do Heroísmo","state_id":2233,"state_code":"20","state_name":"Açores","country_id":177,"country_code":"PT","country_name":"Portugal","latitude":"38.65483000","longitude":"-27.21734000","wikiDataId":"Q193677"},{"id":88969,"Name":"Angústias","state_id":2233,"state_code":"20","state_name":"Açores","country_id":177,"country_code":"PT","country_name":"Portugal","latitude":"38.52547000","longitude":"-28.63132000","wikiDataId":"Q193677"},{"id":88994,"Name":"Arrifes","state_id":2233,"state_code":"20","state_name":"Açores","country_id":177,"country_code":"PT","country_name":"Portugal","latitude":"37.76667000","longitude":"-25.70000000","wikiDataId":"Q31889400"},{"id":89037,"Name":"Biscoitos","state_id":2233,"state_code":"20","state_name":"Açores","country_id":177,"country_code":"PT","country_name":"Portugal","latitude":"38.78333000","longitude":"-27.25000000","wikiDataId":"Q616959"},{"id":89057,"Name":"Cabouco","state_id":2233,"state_code":"20","state_name":"Açores","country_id":177,"country_code":"PT","country_name":"Portugal","latitude":"37.76667000","longitude":"-25.56667000","wikiDataId":"Q1997739"},{"id":89062,"Name":"Cais do Pico","state_id":2233,"state_code":"20","state_name":"Açores","country_id":177,"country_code":"PT","country_name":"Portugal","latitude":"38.52531000","longitude":"-28.32074000","wikiDataId":"Q33661928"},{"id":89069,"Name":"Calheta","state_id":2233,"state_code":"20","state_name":"Açores","country_id":177,"country_code":"PT","country_name":"Portugal","latitude":"38.60186000","longitude":"-28.01792000","wikiDataId":"Q757078"},{"id":89070,"Name":"Calheta de São Jorge","state_id":2233,"state_code":"20","state_name":"Açores","country_id":177,"country_code":"PT","country_name":"Portugal","latitude":"38.59767000","longitude":"-27.91459000","wikiDataId":"Q1019047"},{"id":89105,"Name":"Castelo Branco","state_id":2233,"state_code":"20","state_name":"Açores","country_id":177,"country_code":"PT","country_name":"Portugal","latitude":"38.52198000","longitude":"-28.71365000","wikiDataId":"Q12899232"},{"id":89131,"Name":"Corvo","state_id":2233,"state_code":"20","state_name":"Açores","country_id":177,"country_code":"PT","country_name":"Portugal","latitude":"39.69771000","longitude":"-31.10550000","wikiDataId":"Q1006836"},{"id":89163,"Name":"Fajã de Baixo","state_id":2233,"state_code":"20","state_name":"Açores","country_id":177,"country_code":"PT","country_name":"Portugal","latitude":"37.75000000","longitude":"-25.65000000","wikiDataId":"Q49350011"},{"id":89172,"Name":"Fenais da Ajuda","state_id":2233,"state_code":"20","state_name":"Açores","country_id":177,"country_code":"PT","country_name":"Portugal","latitude":"37.85128000","longitude":"-25.32406000","wikiDataId":"Q936904"},{"id":89173,"Name":"Fenais da Luz","state_id":2233,"state_code":"20","state_name":"Açores","country_id":177,"country_code":"PT","country_name":"Portugal","latitude":"37.82490000","longitude":"-25.64229000","wikiDataId":"Q936904"},{"id":89181,"Name":"Feteira","state_id":2233,"state_code":"20","state_name":"Açores","country_id":177,"country_code":"PT","country_name":"Portugal","latitude":"38.65429000","longitude":"-27.14995000","wikiDataId":"Q49350137"},{"id":89187,"Name":"Fonte Bastardo","state_id":2233,"state_code":"20","state_name":"Açores","country_id":177,"country_code":"PT","country_name":"Portugal","latitude":"38.69201000","longitude":"-27.07942000","wikiDataId":"Q5465145"},{"id":89199,"Name":"Furnas","state_id":2233,"state_code":"20","state_name":"Açores","country_id":177,"country_code":"PT","country_name":"Portugal","latitude":"37.77567000","longitude":"-25.31035000","wikiDataId":"Q49350690"},{"id":89223,"Name":"Horta","state_id":2233,"state_code":"20","state_name":"Açores","country_id":177,"country_code":"PT","country_name":"Portugal","latitude":"38.53737000","longitude":"-28.62615000","wikiDataId":"Q49354018"},{"id":89228,"Name":"Lagoa","state_id":2233,"state_code":"20","state_name":"Açores","country_id":177,"country_code":"PT","country_name":"Portugal","latitude":"37.74486000","longitude":"-25.57184000","wikiDataId":"Q564759"},{"id":89231,"Name":"Lajes","state_id":2233,"state_code":"20","state_name":"Açores","country_id":177,"country_code":"PT","country_name":"Portugal","latitude":"38.76352000","longitude":"-27.10336000","wikiDataId":"Q2652876"},{"id":89232,"Name":"Lajes das Flores","state_id":2233,"state_code":"20","state_name":"Açores","country_id":177,"country_code":"PT","country_name":"Portugal","latitude":"39.41619000","longitude":"-31.21725000","wikiDataId":"Q1021452"},{"id":89233,"Name":"Lajes do Pico","state_id":2233,"state_code":"20","state_name":"Açores","country_id":177,"country_code":"PT","country_name":"Portugal","latitude":"38.42797000","longitude":"-28.17402000","wikiDataId":"Q1019053"},{"id":89267,"Name":"Madalena","state_id":2233,"state_code":"20","state_name":"Açores","country_id":177,"country_code":"PT","country_name":"Portugal","latitude":"38.53642000","longitude":"-28.52660000","wikiDataId":"Q1002565"},{"id":89269,"Name":"Maia","state_id":2233,"state_code":"20","state_name":"Açores","country_id":177,"country_code":"PT","country_name":"Portugal","latitude":"37.83247000","longitude":"-25.38976000","wikiDataId":"Q986419"},{"id":89333,"Name":"Mosteiros","state_id":2233,"state_code":"20","state_name":"Açores","country_id":177,"country_code":"PT","country_name":"Portugal","latitude":"37.89017000","longitude":"-25.81999000","wikiDataId":"Q35734150"},{"id":89350,"Name":"Nordeste","state_id":2233,"state_code":"20","state_name":"Açores","country_id":177,"country_code":"PT","country_name":"Portugal","latitude":"37.82721000","longitude":"-25.22863000","wikiDataId":"Q564762"},{"id":89412,"Name":"Ponta Delgada","state_id":2233,"state_code":"20","state_name":"Açores","country_id":177,"country_code":"PT","country_name":"Portugal","latitude":"37.74230000","longitude":"-25.67093000","wikiDataId":"Q208149"},{"id":89413,"Name":"Ponta Garça","state_id":2233,"state_code":"20","state_name":"Açores","country_id":177,"country_code":"PT","country_name":"Portugal","latitude":"37.71667000","longitude":"-25.36667000","wikiDataId":"Q208149"},{"id":89427,"Name":"Porto Judeu","state_id":2233,"state_code":"20","state_name":"Açores","country_id":177,"country_code":"PT","country_name":"Portugal","latitude":"38.64814000","longitude":"-27.11944000","wikiDataId":"Q1999450"},{"id":89428,"Name":"Porto Martins","state_id":2233,"state_code":"20","state_name":"Açores","country_id":177,"country_code":"PT","country_name":"Portugal","latitude":"38.68146000","longitude":"-27.05835000","wikiDataId":"Q1999450"},{"id":89434,"Name":"Povoação","state_id":2233,"state_code":"20","state_name":"Açores","country_id":177,"country_code":"PT","country_name":"Portugal","latitude":"37.76471000","longitude":"-25.24487000","wikiDataId":"Q565726"},{"id":89437,"Name":"Praia da Vitória","state_id":2233,"state_code":"20","state_name":"Açores","country_id":177,"country_code":"PT","country_name":"Portugal","latitude":"38.73333000","longitude":"-27.06667000","wikiDataId":"Q49362272"},{"id":89451,"Name":"Rabo de Peixe","state_id":2233,"state_code":"20","state_name":"Açores","country_id":177,"country_code":"PT","country_name":"Portugal","latitude":"37.81022000","longitude":"-25.58263000","wikiDataId":"Q2652576"},{"id":89460,"Name":"Relva","state_id":2233,"state_code":"20","state_name":"Açores","country_id":177,"country_code":"PT","country_name":"Portugal","latitude":"37.75271000","longitude":"-25.71848000","wikiDataId":"Q1997694"},{"id":89466,"Name":"Ribeira Grande","state_id":2233,"state_code":"20","state_name":"Açores","country_id":177,"country_code":"PT","country_name":"Portugal","latitude":"38.51667000","longitude":"-28.70000000","wikiDataId":"Q49363712"},{"id":89467,"Name":"Ribeira Seca","state_id":2233,"state_code":"20","state_name":"Açores","country_id":177,"country_code":"PT","country_name":"Portugal","latitude":"37.81667000","longitude":"-25.53333000","wikiDataId":"Q49363712"},{"id":89469,"Name":"Ribeirinha","state_id":2233,"state_code":"20","state_name":"Açores","country_id":177,"country_code":"PT","country_name":"Portugal","latitude":"38.66203000","longitude":"-27.18093000","wikiDataId":"Q1006378"},{"id":89479,"Name":"Rosto de Cão","state_id":2233,"state_code":"20","state_name":"Açores","country_id":177,"country_code":"PT","country_name":"Portugal","latitude":"37.75000000","longitude":"-25.65000000","wikiDataId":"Q49364193"},{"id":89494,"Name":"Santa Bárbara","state_id":2233,"state_code":"20","state_name":"Açores","country_id":177,"country_code":"PT","country_name":"Portugal","latitude":"38.69608000","longitude":"-27.33907000","wikiDataId":"Q2233176"},{"id":89502,"Name":"Santa Cruz da Graciosa","state_id":2233,"state_code":"20","state_name":"Açores","country_id":177,"country_code":"PT","country_name":"Portugal","latitude":"39.04946000","longitude":"-28.00432000","wikiDataId":"Q1010463"},{"id":89501,"Name":"Santa Cruz das Flores","state_id":2233,"state_code":"20","state_name":"Açores","country_id":177,"country_code":"PT","country_name":"Portugal","latitude":"39.46984000","longitude":"-31.18514000","wikiDataId":"Q1003134"},{"id":89558,"Name":"São Bartolomeu","state_id":2233,"state_code":"20","state_name":"Açores","country_id":177,"country_code":"PT","country_name":"Portugal","latitude":"38.67491000","longitude":"-27.29349000","wikiDataId":"Q923784"},{"id":89577,"Name":"São Mateus","state_id":2233,"state_code":"20","state_name":"Açores","country_id":177,"country_code":"PT","country_name":"Portugal","latitude":"38.65630000","longitude":"-27.26935000","wikiDataId":"Q2035277"},{"id":89586,"Name":"São Roque","state_id":2233,"state_code":"20","state_name":"Açores","country_id":177,"country_code":"PT","country_name":"Portugal","latitude":"37.75418000","longitude":"-25.64127000","wikiDataId":"Q2116898"},{"id":89588,"Name":"São Roque do Pico","state_id":2233,"state_code":"20","state_name":"Açores","country_id":177,"country_code":"PT","country_name":"Portugal","latitude":"38.51631000","longitude":"-28.30752000","wikiDataId":"Q33503226"},{"id":89589,"Name":"São Sebastião","state_id":2233,"state_code":"20","state_name":"Açores","country_id":177,"country_code":"PT","country_name":"Portugal","latitude":"38.66584000","longitude":"-27.08976000","wikiDataId":"Q33503226"},{"id":89592,"Name":"São Vicente","state_id":2233,"state_code":"20","state_name":"Açores","country_id":177,"country_code":"PT","country_name":"Portugal","latitude":"37.81829000","longitude":"-25.66583000","wikiDataId":"Q304464"},{"id":89529,"Name":"Senhora do Rosário","state_id":2233,"state_code":"20","state_name":"Açores","country_id":177,"country_code":"PT","country_name":"Portugal","latitude":"37.83333000","longitude":"-25.15000000","wikiDataId":"Q2671865"},{"id":89633,"Name":"Velas","state_id":2233,"state_code":"20","state_name":"Açores","country_id":177,"country_code":"PT","country_name":"Portugal","latitude":"38.67995000","longitude":"-28.15155000","wikiDataId":"Q1010468"},{"id":89673,"Name":"Vila do Porto","state_id":2233,"state_code":"20","state_name":"Açores","country_id":177,"country_code":"PT","country_name":"Portugal","latitude":"36.97454000","longitude":"-25.09967000","wikiDataId":"Q1003164"},{"id":89650,"Name":"Vila Franca do Campo","state_id":2233,"state_code":"20","state_name":"Açores","country_id":177,"country_code":"PT","country_name":"Portugal","latitude":"37.71667000","longitude":"-25.43333000","wikiDataId":"Q565290"}]