[{"id":54392,"Name":"Belica","state_id":726,"state_code":"20","state_name":"Međimurje County","country_id":55,"country_code":"HR","country_name":"Croatia","latitude":"46.40417000","longitude":"16.51833000","wikiDataId":"Q578190"},{"id":55015,"Name":"Čakovec","state_id":726,"state_code":"20","state_name":"Međimurje County","country_id":55,"country_code":"HR","country_name":"Croatia","latitude":"46.38444000","longitude":"16.43389000","wikiDataId":"Q167839"},{"id":54451,"Name":"Dekanovec","state_id":726,"state_code":"20","state_name":"Međimurje County","country_id":55,"country_code":"HR","country_name":"Croatia","latitude":"46.44861000","longitude":"16.58472000","wikiDataId":"Q912794"},{"id":54455,"Name":"Domašinec","state_id":726,"state_code":"20","state_name":"Međimurje County","country_id":55,"country_code":"HR","country_name":"Croatia","latitude":"46.43250000","longitude":"16.60000000","wikiDataId":"Q202586"},{"id":54493,"Name":"Goričan","state_id":726,"state_code":"20","state_name":"Međimurje County","country_id":55,"country_code":"HR","country_name":"Croatia","latitude":"46.38417000","longitude":"16.68083000","wikiDataId":"Q248701"},{"id":54570,"Name":"Grad Čakovec","state_id":726,"state_code":"20","state_name":"Međimurje County","country_id":55,"country_code":"HR","country_name":"Croatia","latitude":"46.38583000","longitude":"16.43333000","wikiDataId":"Q1194688"},{"id":54595,"Name":"Hodošan","state_id":726,"state_code":"20","state_name":"Međimurje County","country_id":55,"country_code":"HR","country_name":"Croatia","latitude":"46.39528000","longitude":"16.64389000","wikiDataId":"Q898858"},{"id":54606,"Name":"Ivanovec","state_id":726,"state_code":"20","state_name":"Međimurje County","country_id":55,"country_code":"HR","country_name":"Croatia","latitude":"46.36833000","longitude":"16.47667000","wikiDataId":"Q908872"},{"id":54663,"Name":"Kotoriba","state_id":726,"state_code":"20","state_name":"Međimurje County","country_id":55,"country_code":"HR","country_name":"Croatia","latitude":"46.35500000","longitude":"16.81806000","wikiDataId":"Q1088573"},{"id":54675,"Name":"Kuršanec","state_id":726,"state_code":"20","state_name":"Međimurje County","country_id":55,"country_code":"HR","country_name":"Croatia","latitude":"46.33028000","longitude":"16.40167000","wikiDataId":"Q226067"},{"id":54697,"Name":"Lopatinec","state_id":726,"state_code":"20","state_name":"Međimurje County","country_id":55,"country_code":"HR","country_name":"Croatia","latitude":"46.43333000","longitude":"16.38333000","wikiDataId":"Q1013185"},{"id":54726,"Name":"Mačkovec","state_id":726,"state_code":"20","state_name":"Međimurje County","country_id":55,"country_code":"HR","country_name":"Croatia","latitude":"46.42417000","longitude":"16.43361000","wikiDataId":"Q843762"},{"id":54711,"Name":"Mala Subotica","state_id":726,"state_code":"20","state_name":"Međimurje County","country_id":55,"country_code":"HR","country_name":"Croatia","latitude":"46.37616000","longitude":"16.52893000","wikiDataId":"Q774000"},{"id":54730,"Name":"Mihovljan","state_id":726,"state_code":"20","state_name":"Međimurje County","country_id":55,"country_code":"HR","country_name":"Croatia","latitude":"46.40861000","longitude":"16.44806000","wikiDataId":"Q390588"},{"id":54744,"Name":"Mursko Središće","state_id":726,"state_code":"20","state_name":"Međimurje County","country_id":55,"country_code":"HR","country_name":"Croatia","latitude":"46.50944000","longitude":"16.44111000","wikiDataId":"Q326952"},{"id":54749,"Name":"Nedelišće","state_id":726,"state_code":"20","state_name":"Međimurje County","country_id":55,"country_code":"HR","country_name":"Croatia","latitude":"46.37583000","longitude":"16.38750000","wikiDataId":"Q386276"},{"id":54764,"Name":"Novo Selo Rok","state_id":726,"state_code":"20","state_name":"Međimurje County","country_id":55,"country_code":"HR","country_name":"Croatia","latitude":"46.42839000","longitude":"16.46215000","wikiDataId":"Q5395"},{"id":54788,"Name":"Orehovica","state_id":726,"state_code":"20","state_name":"Međimurje County","country_id":55,"country_code":"HR","country_name":"Croatia","latitude":"46.33167000","longitude":"16.50694000","wikiDataId":"Q910218"},{"id":54801,"Name":"Peklenica","state_id":726,"state_code":"20","state_name":"Međimurje County","country_id":55,"country_code":"HR","country_name":"Croatia","latitude":"46.49528000","longitude":"16.47611000","wikiDataId":"Q842783"},{"id":54818,"Name":"Podturen","state_id":726,"state_code":"20","state_name":"Međimurje County","country_id":55,"country_code":"HR","country_name":"Croatia","latitude":"46.46472000","longitude":"16.54306000","wikiDataId":"Q786568"},{"id":54834,"Name":"Prelog","state_id":726,"state_code":"20","state_name":"Međimurje County","country_id":55,"country_code":"HR","country_name":"Croatia","latitude":"46.33500000","longitude":"16.61556000","wikiDataId":"Q839783"},{"id":54836,"Name":"Pribislavec","state_id":726,"state_code":"20","state_name":"Međimurje County","country_id":55,"country_code":"HR","country_name":"Croatia","latitude":"46.39250000","longitude":"16.48250000","wikiDataId":"Q1088578"},{"id":55029,"Name":"Šenkovec","state_id":726,"state_code":"20","state_name":"Međimurje County","country_id":55,"country_code":"HR","country_name":"Croatia","latitude":"46.40889000","longitude":"16.42167000","wikiDataId":"Q955681"},{"id":54915,"Name":"Strahoninec","state_id":726,"state_code":"20","state_name":"Međimurje County","country_id":55,"country_code":"HR","country_name":"Croatia","latitude":"46.36889000","longitude":"16.41500000","wikiDataId":"Q910271"},{"id":54929,"Name":"Sveti Juraj na Bregu","state_id":726,"state_code":"20","state_name":"Međimurje County","country_id":55,"country_code":"HR","country_name":"Croatia","latitude":"46.42853000","longitude":"16.38525000","wikiDataId":"Q1014083"},{"id":54988,"Name":"Vratišinec","state_id":726,"state_code":"20","state_name":"Međimurje County","country_id":55,"country_code":"HR","country_name":"Croatia","latitude":"46.47806000","longitude":"16.45778000","wikiDataId":"Q266531"}]