[{"id":66600,"Name":"Gargždai","state_id":1604,"state_code":"21","state_name":"Klaipėda District Municipality","country_id":126,"country_code":"LT","country_name":"Lithuania","latitude":"55.70951000","longitude":"21.39441000","wikiDataId":"Q1390465"},{"id":66620,"Name":"Klaipėda","state_id":1604,"state_code":"21","state_name":"Klaipėda District Municipality","country_id":126,"country_code":"LT","country_name":"Lithuania","latitude":"55.71667000","longitude":"21.11667000","wikiDataId":"Q776965"},{"id":66622,"Name":"Kretinga","state_id":1604,"state_code":"21","state_name":"Klaipėda District Municipality","country_id":126,"country_code":"LT","country_name":"Lithuania","latitude":"55.88880000","longitude":"21.24448000","wikiDataId":"Q1788115"},{"id":66644,"Name":"Neringa","state_id":1604,"state_code":"21","state_name":"Klaipėda District Municipality","country_id":126,"country_code":"LT","country_name":"Lithuania","latitude":"55.36667000","longitude":"21.06667000","wikiDataId":"Q9305847"},{"id":66645,"Name":"Nida","state_id":1604,"state_code":"21","state_name":"Klaipėda District Municipality","country_id":126,"country_code":"LT","country_name":"Lithuania","latitude":"55.30860000","longitude":"20.99651000","wikiDataId":"Q1004306"},{"id":66650,"Name":"Palanga","state_id":1604,"state_code":"21","state_name":"Klaipėda District Municipality","country_id":126,"country_code":"LT","country_name":"Lithuania","latitude":"55.91750000","longitude":"21.06861000","wikiDataId":"Q2047414"},{"id":66660,"Name":"Priekulė","state_id":1604,"state_code":"21","state_name":"Klaipėda District Municipality","country_id":126,"country_code":"LT","country_name":"Lithuania","latitude":"55.55427000","longitude":"21.31903000","wikiDataId":"Q768416"},{"id":66670,"Name":"Rusnė","state_id":1604,"state_code":"21","state_name":"Klaipėda District Municipality","country_id":126,"country_code":"LT","country_name":"Lithuania","latitude":"55.29820000","longitude":"21.37120000","wikiDataId":"Q712011"},{"id":66673,"Name":"Salantai","state_id":1604,"state_code":"21","state_name":"Klaipėda District Municipality","country_id":126,"country_code":"LT","country_name":"Lithuania","latitude":"56.05650000","longitude":"21.56890000","wikiDataId":"Q157516"},{"id":66677,"Name":"Silute","state_id":1604,"state_code":"21","state_name":"Klaipėda District Municipality","country_id":126,"country_code":"LT","country_name":"Lithuania","latitude":"55.34889000","longitude":"21.48306000","wikiDataId":"Q391626"},{"id":66681,"Name":"Skuodas","state_id":1604,"state_code":"21","state_name":"Klaipėda District Municipality","country_id":126,"country_code":"LT","country_name":"Lithuania","latitude":"56.26667000","longitude":"21.53333000","wikiDataId":"Q5247193"},{"id":66718,"Name":"Šventoji","state_id":1604,"state_code":"21","state_name":"Klaipėda District Municipality","country_id":126,"country_code":"LT","country_name":"Lithuania","latitude":"56.02610000","longitude":"21.08411000","wikiDataId":"Q1417346"},{"id":66722,"Name":"Žemaičių Naumiestis","state_id":1604,"state_code":"21","state_name":"Klaipėda District Municipality","country_id":126,"country_code":"LT","country_name":"Lithuania","latitude":"55.35941000","longitude":"21.70364000","wikiDataId":"Q393828"}]