[{"id":105187,"Name":"Amphoe Ban Chang","state_id":3518,"state_code":"21","state_name":"Rayong","country_id":219,"country_code":"TH","country_name":"Thailand","latitude":"12.73230000","longitude":"101.04878000","wikiDataId":"Q475085"},{"id":105195,"Name":"Amphoe Ban Khai","state_id":3518,"state_code":"21","state_name":"Rayong","country_id":219,"country_code":"TH","country_name":"Thailand","latitude":"12.83827000","longitude":"101.34210000","wikiDataId":"Q475109"},{"id":105393,"Name":"Amphoe Khao Chamao","state_id":3518,"state_code":"21","state_name":"Rayong","country_id":219,"country_code":"TH","country_name":"Thailand","latitude":"12.99042000","longitude":"101.67847000","wikiDataId":"Q179704"},{"id":105437,"Name":"Amphoe Klaeng","state_id":3518,"state_code":"21","state_name":"Rayong","country_id":219,"country_code":"TH","country_name":"Thailand","latitude":"12.77179000","longitude":"101.65666000","wikiDataId":"Q475775"},{"id":105580,"Name":"Amphoe Mueang Rayong","state_id":3518,"state_code":"21","state_name":"Rayong","country_id":219,"country_code":"TH","country_name":"Thailand","latitude":"12.71864000","longitude":"101.34491000","wikiDataId":"Q476074"},{"id":105645,"Name":"Amphoe Nikhom Phattana","state_id":3518,"state_code":"21","state_name":"Rayong","country_id":219,"country_code":"TH","country_name":"Thailand","latitude":"12.84489000","longitude":"101.15341000","wikiDataId":"Q476207"},{"id":105790,"Name":"Amphoe Pluak Daeng","state_id":3518,"state_code":"21","state_name":"Rayong","country_id":219,"country_code":"TH","country_name":"Thailand","latitude":"12.98333000","longitude":"101.25000000","wikiDataId":"Q476511"},{"id":106334,"Name":"Amphoe Wang Chan","state_id":3518,"state_code":"21","state_name":"Rayong","country_id":219,"country_code":"TH","country_name":"Thailand","latitude":"12.96245000","longitude":"101.51533000","wikiDataId":"Q476994"},{"id":106387,"Name":"Ban Chang","state_id":3518,"state_code":"21","state_name":"Rayong","country_id":219,"country_code":"TH","country_name":"Thailand","latitude":"12.72543000","longitude":"101.05531000","wikiDataId":"Q13025368"},{"id":106408,"Name":"Ban Phe","state_id":3518,"state_code":"21","state_name":"Rayong","country_id":219,"country_code":"TH","country_name":"Thailand","latitude":"12.62824000","longitude":"101.43757000","wikiDataId":"Q340034"},{"id":106532,"Name":"Klaeng","state_id":3518,"state_code":"21","state_name":"Rayong","country_id":219,"country_code":"TH","country_name":"Thailand","latitude":"12.77972000","longitude":"101.64831000","wikiDataId":"Q15980715"},{"id":106667,"Name":"Rayong","state_id":3518,"state_code":"21","state_name":"Rayong","country_id":219,"country_code":"TH","country_name":"Thailand","latitude":"12.68095000","longitude":"101.25798000","wikiDataId":"Q1015123"}]