[{"id":109357,"Name":"Batiovo","state_id":4670,"state_code":"21","state_name":"Zakarpatska Oblast","country_id":230,"country_code":"UA","country_name":"Ukraine","latitude":"48.36166000","longitude":"22.39970000","wikiDataId":"Q810842"},{"id":109373,"Name":"Berehivs’ka Mis’krada","state_id":4670,"state_code":"21","state_name":"Zakarpatska Oblast","country_id":230,"country_code":"UA","country_name":"Ukraine","latitude":"48.21255000","longitude":"22.65536000","wikiDataId":"Q12082033"},{"id":109375,"Name":"Berehove","state_id":4670,"state_code":"21","state_name":"Zakarpatska Oblast","country_id":230,"country_code":"UA","country_name":"Ukraine","latitude":"48.20555000","longitude":"22.64418000","wikiDataId":"Q146497"},{"id":109376,"Name":"Berehove Raion","state_id":4670,"state_code":"21","state_name":"Zakarpatska Oblast","country_id":230,"country_code":"UA","country_name":"Ukraine","latitude":"48.16667000","longitude":"22.66667000","wikiDataId":"Q277160"},{"id":109383,"Name":"Bereznyky","state_id":4670,"state_code":"21","state_name":"Zakarpatska Oblast","country_id":230,"country_code":"UA","country_name":"Ukraine","latitude":"48.51407000","longitude":"23.21982000","wikiDataId":"Q793404"},{"id":109385,"Name":"Berezovo","state_id":4670,"state_code":"21","state_name":"Zakarpatska Oblast","country_id":230,"country_code":"UA","country_name":"Ukraine","latitude":"48.30943000","longitude":"23.47400000","wikiDataId":"Q793402"},{"id":109398,"Name":"Bilky","state_id":4670,"state_code":"21","state_name":"Zakarpatska Oblast","country_id":230,"country_code":"UA","country_name":"Ukraine","latitude":"48.31503000","longitude":"23.13248000","wikiDataId":"Q795003"},{"id":109414,"Name":"Bobovo","state_id":4670,"state_code":"21","state_name":"Zakarpatska Oblast","country_id":230,"country_code":"UA","country_name":"Ukraine","latitude":"48.07166000","longitude":"22.89585000","wikiDataId":"Q4088167"},{"id":109418,"Name":"Bohdan","state_id":4670,"state_code":"21","state_name":"Zakarpatska Oblast","country_id":230,"country_code":"UA","country_name":"Ukraine","latitude":"48.04122000","longitude":"24.35222000","wikiDataId":"Q579062"},{"id":109464,"Name":"Bushtyno","state_id":4670,"state_code":"21","state_name":"Zakarpatska Oblast","country_id":230,"country_code":"UA","country_name":"Ukraine","latitude":"48.05121000","longitude":"23.48579000","wikiDataId":"Q852312"},{"id":109508,"Name":"Chop","state_id":4670,"state_code":"21","state_name":"Zakarpatska Oblast","country_id":230,"country_code":"UA","country_name":"Ukraine","latitude":"48.43198000","longitude":"22.20555000","wikiDataId":"Q219193"},{"id":109525,"Name":"Chynadiyovo","state_id":4670,"state_code":"21","state_name":"Zakarpatska Oblast","country_id":230,"country_code":"UA","country_name":"Ukraine","latitude":"48.48179000","longitude":"22.82170000","wikiDataId":"Q1093428"},{"id":109573,"Name":"Dovhe","state_id":4670,"state_code":"21","state_name":"Zakarpatska Oblast","country_id":230,"country_code":"UA","country_name":"Ukraine","latitude":"48.36527000","longitude":"23.27904000","wikiDataId":"Q854760"},{"id":109576,"Name":"Drahovo","state_id":4670,"state_code":"21","state_name":"Zakarpatska Oblast","country_id":230,"country_code":"UA","country_name":"Ukraine","latitude":"48.23573000","longitude":"23.54914000","wikiDataId":"Q843560"},{"id":109585,"Name":"Dubove","state_id":4670,"state_code":"21","state_name":"Zakarpatska Oblast","country_id":230,"country_code":"UA","country_name":"Ukraine","latitude":"48.17205000","longitude":"23.88954000","wikiDataId":"Q908208"},{"id":109640,"Name":"Horinchovo","state_id":4670,"state_code":"21","state_name":"Zakarpatska Oblast","country_id":230,"country_code":"UA","country_name":"Ukraine","latitude":"48.27076000","longitude":"23.43475000","wikiDataId":"Q278842"},{"id":109674,"Name":"Irshava","state_id":4670,"state_code":"21","state_name":"Zakarpatska Oblast","country_id":230,"country_code":"UA","country_name":"Ukraine","latitude":"48.31667000","longitude":"23.03846000","wikiDataId":"Q146474"},{"id":109675,"Name":"Irshava Raion","state_id":4670,"state_code":"21","state_name":"Zakarpatska Oblast","country_id":230,"country_code":"UA","country_name":"Ukraine","latitude":"48.33333000","longitude":"23.08333000","wikiDataId":"Q277159"},{"id":109686,"Name":"Iza","state_id":4670,"state_code":"21","state_name":"Zakarpatska Oblast","country_id":230,"country_code":"UA","country_name":"Ukraine","latitude":"48.21525000","longitude":"23.32867000","wikiDataId":"Q714241"},{"id":109706,"Name":"Kalyny","state_id":4670,"state_code":"21","state_name":"Zakarpatska Oblast","country_id":230,"country_code":"UA","country_name":"Ukraine","latitude":"48.14078000","longitude":"23.87380000","wikiDataId":"Q4209942"},{"id":109711,"Name":"Kamianytsia","state_id":4670,"state_code":"21","state_name":"Zakarpatska Oblast","country_id":230,"country_code":"UA","country_name":"Ukraine","latitude":"48.69343000","longitude":"22.39570000","wikiDataId":"Q263907"},{"id":109742,"Name":"Khust","state_id":4670,"state_code":"21","state_name":"Zakarpatska Oblast","country_id":230,"country_code":"UA","country_name":"Ukraine","latitude":"48.17930000","longitude":"23.29909000","wikiDataId":"Q146469"},{"id":109743,"Name":"Khust Raion","state_id":4670,"state_code":"21","state_name":"Zakarpatska Oblast","country_id":230,"country_code":"UA","country_name":"Ukraine","latitude":"48.25000000","longitude":"23.41667000","wikiDataId":"Q277164"},{"id":109744,"Name":"Khusts’ka Mis’krada","state_id":4670,"state_code":"21","state_name":"Zakarpatska Oblast","country_id":230,"country_code":"UA","country_name":"Ukraine","latitude":"48.19058000","longitude":"23.30322000","wikiDataId":"Q12168039"},{"id":109772,"Name":"Kolochava","state_id":4670,"state_code":"21","state_name":"Zakarpatska Oblast","country_id":230,"country_code":"UA","country_name":"Ukraine","latitude":"48.42851000","longitude":"23.69590000","wikiDataId":"Q664774"},{"id":109791,"Name":"Kopashnovo","state_id":4670,"state_code":"21","state_name":"Zakarpatska Oblast","country_id":230,"country_code":"UA","country_name":"Ukraine","latitude":"48.21970000","longitude":"23.48457000","wikiDataId":"Q751646"},{"id":109799,"Name":"Korolevo","state_id":4670,"state_code":"21","state_name":"Zakarpatska Oblast","country_id":230,"country_code":"UA","country_name":"Ukraine","latitude":"48.15247000","longitude":"23.13659000","wikiDataId":"Q368681"},{"id":109810,"Name":"Koson’","state_id":4670,"state_code":"21","state_name":"Zakarpatska Oblast","country_id":230,"country_code":"UA","country_name":"Ukraine","latitude":"48.25505000","longitude":"22.45597000","wikiDataId":"Q593616"},{"id":109873,"Name":"Kryva","state_id":4670,"state_code":"21","state_name":"Zakarpatska Oblast","country_id":230,"country_code":"UA","country_name":"Ukraine","latitude":"48.17234000","longitude":"23.23647000","wikiDataId":"Q4240606"},{"id":109891,"Name":"Kushnytsya","state_id":4670,"state_code":"21","state_name":"Zakarpatska Oblast","country_id":230,"country_code":"UA","country_name":"Ukraine","latitude":"48.43988000","longitude":"23.25816000","wikiDataId":"Q750931"},{"id":109896,"Name":"Kvasy","state_id":4670,"state_code":"21","state_name":"Zakarpatska Oblast","country_id":230,"country_code":"UA","country_name":"Ukraine","latitude":"48.14973000","longitude":"24.27995000","wikiDataId":"Q517568"},{"id":109905,"Name":"Lazeshchyna","state_id":4670,"state_code":"21","state_name":"Zakarpatska Oblast","country_id":230,"country_code":"UA","country_name":"Ukraine","latitude":"48.26852000","longitude":"24.42010000","wikiDataId":"Q776917"},{"id":109906,"Name":"Lazi","state_id":4670,"state_code":"21","state_name":"Zakarpatska Oblast","country_id":230,"country_code":"UA","country_name":"Ukraine","latitude":"48.06667000","longitude":"24.23333000","wikiDataId":"Q3850708"},{"id":109930,"Name":"Lopukhiv","state_id":4670,"state_code":"21","state_name":"Zakarpatska Oblast","country_id":230,"country_code":"UA","country_name":"Ukraine","latitude":"48.36527000","longitude":"23.96382000","wikiDataId":"Q843071"},{"id":109954,"Name":"Lypcha","state_id":4670,"state_code":"21","state_name":"Zakarpatska Oblast","country_id":230,"country_code":"UA","country_name":"Ukraine","latitude":"48.26107000","longitude":"23.38336000","wikiDataId":"Q750456"},{"id":109961,"Name":"Lysychovo","state_id":4670,"state_code":"21","state_name":"Zakarpatska Oblast","country_id":230,"country_code":"UA","country_name":"Ukraine","latitude":"48.49677000","longitude":"23.28992000","wikiDataId":"Q749917"},{"id":110039,"Name":"Mizhhirya","state_id":4670,"state_code":"21","state_name":"Zakarpatska Oblast","country_id":230,"country_code":"UA","country_name":"Ukraine","latitude":"48.52458000","longitude":"23.50563000","wikiDataId":"Q261418"},{"id":110040,"Name":"Mizhhirya Raion","state_id":4670,"state_code":"21","state_name":"Zakarpatska Oblast","country_id":230,"country_code":"UA","country_name":"Ukraine","latitude":"48.58333000","longitude":"23.50000000","wikiDataId":"Q277170"},{"id":110058,"Name":"Mukacheve","state_id":4670,"state_code":"21","state_name":"Zakarpatska Oblast","country_id":230,"country_code":"UA","country_name":"Ukraine","latitude":"48.43919000","longitude":"22.71779000","wikiDataId":"Q146456"},{"id":110059,"Name":"Mukachevo Raion","state_id":4670,"state_code":"21","state_name":"Zakarpatska Oblast","country_id":230,"country_code":"UA","country_name":"Ukraine","latitude":"48.41667000","longitude":"22.66667000","wikiDataId":"Q177141"},{"id":110065,"Name":"Muzhiyevo","state_id":4670,"state_code":"21","state_name":"Zakarpatska Oblast","country_id":230,"country_code":"UA","country_name":"Ukraine","latitude":"48.17959000","longitude":"22.69943000","wikiDataId":"Q1999815"},{"id":110074,"Name":"Mynay","state_id":4670,"state_code":"21","state_name":"Zakarpatska Oblast","country_id":230,"country_code":"UA","country_name":"Ukraine","latitude":"48.58880000","longitude":"22.27502000","wikiDataId":"Q714284"},{"id":110090,"Name":"Nelipyno","state_id":4670,"state_code":"21","state_name":"Zakarpatska Oblast","country_id":230,"country_code":"UA","country_name":"Ukraine","latitude":"48.56101000","longitude":"23.03146000","wikiDataId":"Q2092139"},{"id":110092,"Name":"Neresnytsya","state_id":4670,"state_code":"21","state_name":"Zakarpatska Oblast","country_id":230,"country_code":"UA","country_name":"Ukraine","latitude":"48.11814000","longitude":"23.76588000","wikiDataId":"Q750353"},{"id":110094,"Name":"Nevyts’ke","state_id":4670,"state_code":"21","state_name":"Zakarpatska Oblast","country_id":230,"country_code":"UA","country_name":"Ukraine","latitude":"48.67472000","longitude":"22.38813000","wikiDataId":"Q722984"},{"id":110111,"Name":"Nove Davydkovo","state_id":4670,"state_code":"21","state_name":"Zakarpatska Oblast","country_id":230,"country_code":"UA","country_name":"Ukraine","latitude":"48.44133000","longitude":"22.62164000","wikiDataId":"Q630626"},{"id":110168,"Name":"Nyzhnye Selyshche","state_id":4670,"state_code":"21","state_name":"Zakarpatska Oblast","country_id":230,"country_code":"UA","country_name":"Ukraine","latitude":"48.19911000","longitude":"23.44757000","wikiDataId":"Q679306"},{"id":110192,"Name":"Oleshnyk","state_id":4670,"state_code":"21","state_name":"Zakarpatska Oblast","country_id":230,"country_code":"UA","country_name":"Ukraine","latitude":"48.16406000","longitude":"22.96167000","wikiDataId":"Q840234"},{"id":110197,"Name":"Onokivtsi","state_id":4670,"state_code":"21","state_name":"Zakarpatska Oblast","country_id":230,"country_code":"UA","country_name":"Ukraine","latitude":"48.65763000","longitude":"22.34183000","wikiDataId":"Q723317"},{"id":110236,"Name":"Perechyn","state_id":4670,"state_code":"21","state_name":"Zakarpatska Oblast","country_id":230,"country_code":"UA","country_name":"Ukraine","latitude":"48.73616000","longitude":"22.48200000","wikiDataId":"Q146542"},{"id":110237,"Name":"Perechyn Raion","state_id":4670,"state_code":"21","state_name":"Zakarpatska Oblast","country_id":230,"country_code":"UA","country_name":"Ukraine","latitude":"48.75000000","longitude":"22.66667000","wikiDataId":"Q428984"},{"id":110271,"Name":"Pidvynohradiv","state_id":4670,"state_code":"21","state_name":"Zakarpatska Oblast","country_id":230,"country_code":"UA","country_name":"Ukraine","latitude":"48.13947000","longitude":"22.97194000","wikiDataId":"Q714660"},{"id":110304,"Name":"Poroshkovo","state_id":4670,"state_code":"21","state_name":"Zakarpatska Oblast","country_id":230,"country_code":"UA","country_name":"Ukraine","latitude":"48.66832000","longitude":"22.75328000","wikiDataId":"Q750499"},{"id":110334,"Name":"Pylypets","state_id":4670,"state_code":"21","state_name":"Zakarpatska Oblast","country_id":230,"country_code":"UA","country_name":"Ukraine","latitude":"48.65899000","longitude":"23.28346000","wikiDataId":"Q740648"},{"id":110340,"Name":"Rakhiv","state_id":4670,"state_code":"21","state_name":"Zakarpatska Oblast","country_id":230,"country_code":"UA","country_name":"Ukraine","latitude":"48.05260000","longitude":"24.20089000","wikiDataId":"Q146510"},{"id":110341,"Name":"Rakhiv Raion","state_id":4670,"state_code":"21","state_name":"Zakarpatska Oblast","country_id":230,"country_code":"UA","country_name":"Ukraine","latitude":"48.08333000","longitude":"24.33333000","wikiDataId":"Q428963"},{"id":110343,"Name":"Rakoshyno","state_id":4670,"state_code":"21","state_name":"Zakarpatska Oblast","country_id":230,"country_code":"UA","country_name":"Ukraine","latitude":"48.46713000","longitude":"22.59687000","wikiDataId":"Q428528"},{"id":110362,"Name":"Rokosovo","state_id":4670,"state_code":"21","state_name":"Zakarpatska Oblast","country_id":230,"country_code":"UA","country_name":"Ukraine","latitude":"48.21018000","longitude":"23.17624000","wikiDataId":"Q3850201"},{"id":110422,"Name":"Serednye","state_id":4670,"state_code":"21","state_name":"Zakarpatska Oblast","country_id":230,"country_code":"UA","country_name":"Ukraine","latitude":"48.54043000","longitude":"22.50696000","wikiDataId":"Q373730"},{"id":110423,"Name":"Serednye Vodyane","state_id":4670,"state_code":"21","state_name":"Zakarpatska Oblast","country_id":230,"country_code":"UA","country_name":"Ukraine","latitude":"47.98159000","longitude":"23.91041000","wikiDataId":"Q831752"},{"id":110513,"Name":"Solotvyno","state_id":4670,"state_code":"21","state_name":"Zakarpatska Oblast","country_id":230,"country_code":"UA","country_name":"Ukraine","latitude":"47.94604000","longitude":"23.87035000","wikiDataId":"Q918619"},{"id":110554,"Name":"Storozhnytsya","state_id":4670,"state_code":"21","state_name":"Zakarpatska Oblast","country_id":230,"country_code":"UA","country_name":"Ukraine","latitude":"48.60403000","longitude":"22.23269000","wikiDataId":"Q854431"},{"id":110555,"Name":"Strabychovo","state_id":4670,"state_code":"21","state_name":"Zakarpatska Oblast","country_id":230,"country_code":"UA","country_name":"Ukraine","latitude":"48.39247000","longitude":"22.54308000","wikiDataId":"Q603174"},{"id":110569,"Name":"Svaliava Raion","state_id":4670,"state_code":"21","state_name":"Zakarpatska Oblast","country_id":230,"country_code":"UA","country_name":"Ukraine","latitude":"48.55000000","longitude":"23.00000000","wikiDataId":"Q428608"},{"id":110570,"Name":"Svalyava","state_id":4670,"state_code":"21","state_name":"Zakarpatska Oblast","country_id":230,"country_code":"UA","country_name":"Ukraine","latitude":"48.54853000","longitude":"22.99578000","wikiDataId":"Q146551"},{"id":110584,"Name":"Synevyr","state_id":4670,"state_code":"21","state_name":"Zakarpatska Oblast","country_id":230,"country_code":"UA","country_name":"Ukraine","latitude":"48.48745000","longitude":"23.62575000","wikiDataId":"Q602315"},{"id":110585,"Name":"Synevyrska Poliana","state_id":4670,"state_code":"21","state_name":"Zakarpatska Oblast","country_id":230,"country_code":"UA","country_name":"Ukraine","latitude":"48.58484000","longitude":"23.68910000","wikiDataId":"Q714666"},{"id":110607,"Name":"Tiachiv Raion","state_id":4670,"state_code":"21","state_name":"Zakarpatska Oblast","country_id":230,"country_code":"UA","country_name":"Ukraine","latitude":"48.08333000","longitude":"23.58333000","wikiDataId":"Q428976"},{"id":110640,"Name":"Tyachiv","state_id":4670,"state_code":"21","state_name":"Zakarpatska Oblast","country_id":230,"country_code":"UA","country_name":"Ukraine","latitude":"48.01179000","longitude":"23.57061000","wikiDataId":"Q146516"},{"id":110667,"Name":"Uzhgorod","state_id":4670,"state_code":"21","state_name":"Zakarpatska Oblast","country_id":230,"country_code":"UA","country_name":"Ukraine","latitude":"48.61667000","longitude":"22.30000000","wikiDataId":"Q156711"},{"id":110668,"Name":"Uzhhorod Raion","state_id":4670,"state_code":"21","state_name":"Zakarpatska Oblast","country_id":230,"country_code":"UA","country_name":"Ukraine","latitude":"48.58333000","longitude":"22.33333000","wikiDataId":"Q428958"},{"id":110674,"Name":"Vary","state_id":4670,"state_code":"21","state_name":"Zakarpatska Oblast","country_id":230,"country_code":"UA","country_name":"Ukraine","latitude":"48.12207000","longitude":"22.71281000","wikiDataId":"Q546133"},{"id":110689,"Name":"Velyki Berehy","state_id":4670,"state_code":"21","state_name":"Zakarpatska Oblast","country_id":230,"country_code":"UA","country_name":"Ukraine","latitude":"48.23187000","longitude":"22.74591000","wikiDataId":"Q2000833"},{"id":110694,"Name":"Velykyi Bereznyi","state_id":4670,"state_code":"21","state_name":"Zakarpatska Oblast","country_id":230,"country_code":"UA","country_name":"Ukraine","latitude":"48.88831000","longitude":"22.46052000","wikiDataId":"Q241910"},{"id":110695,"Name":"Velykyi Bereznyi Raion","state_id":4670,"state_code":"21","state_name":"Zakarpatska Oblast","country_id":230,"country_code":"UA","country_name":"Ukraine","latitude":"48.91667000","longitude":"22.58333000","wikiDataId":"Q428923"},{"id":110737,"Name":"Volovets","state_id":4670,"state_code":"21","state_name":"Zakarpatska Oblast","country_id":230,"country_code":"UA","country_name":"Ukraine","latitude":"48.71090000","longitude":"23.18510000","wikiDataId":"Q1076317"},{"id":110738,"Name":"Volovets Raion","state_id":4670,"state_code":"21","state_name":"Zakarpatska Oblast","country_id":230,"country_code":"UA","country_name":"Ukraine","latitude":"48.75000000","longitude":"23.08333000","wikiDataId":"Q502042"},{"id":110756,"Name":"Vylok","state_id":4670,"state_code":"21","state_name":"Zakarpatska Oblast","country_id":230,"country_code":"UA","country_name":"Ukraine","latitude":"48.10915000","longitude":"22.83865000","wikiDataId":"Q744916"},{"id":110757,"Name":"Vynohradiv","state_id":4670,"state_code":"21","state_name":"Zakarpatska Oblast","country_id":230,"country_code":"UA","country_name":"Ukraine","latitude":"48.14135000","longitude":"23.02666000","wikiDataId":"Q752334"},{"id":110758,"Name":"Vynohradiv Raion","state_id":4670,"state_code":"21","state_name":"Zakarpatska Oblast","country_id":230,"country_code":"UA","country_name":"Ukraine","latitude":"48.16667000","longitude":"23.00000000","wikiDataId":"Q631629"},{"id":110764,"Name":"Vyshkovo","state_id":4670,"state_code":"21","state_name":"Zakarpatska Oblast","country_id":230,"country_code":"UA","country_name":"Ukraine","latitude":"48.04911000","longitude":"23.42113000","wikiDataId":"Q1051025"},{"id":110788,"Name":"Yasinya","state_id":4670,"state_code":"21","state_name":"Zakarpatska Oblast","country_id":230,"country_code":"UA","country_name":"Ukraine","latitude":"48.27937000","longitude":"24.36042000","wikiDataId":"Q1093421"}]