[{"id":31026,"Name":"Bajos de Haina","state_id":4091,"state_code":"21","state_name":"San Cristóbal Province","country_id":62,"country_code":"DO","country_name":"Dominican Republic","latitude":"18.41667000","longitude":"-70.03333000","wikiDataId":"Q2438383"},{"id":31039,"Name":"Cambita Garabitos","state_id":4091,"state_code":"21","state_name":"San Cristóbal Province","country_id":62,"country_code":"DO","country_name":"Dominican Republic","latitude":"18.50000000","longitude":"-70.23333000","wikiDataId":"Q3651189"},{"id":31056,"Name":"El Cacao","state_id":4091,"state_code":"21","state_name":"San Cristóbal Province","country_id":62,"country_code":"DO","country_name":"Dominican Republic","latitude":"18.52719000","longitude":"-70.29585000","wikiDataId":"Q23775949"},{"id":31057,"Name":"El Carril","state_id":4091,"state_code":"21","state_name":"San Cristóbal Province","country_id":62,"country_code":"DO","country_name":"Dominican Republic","latitude":"18.44905000","longitude":"-70.02785000","wikiDataId":"Q5350946"},{"id":31172,"Name":"Sabana Grande de Palenque","state_id":4091,"state_code":"21","state_name":"San Cristóbal Province","country_id":62,"country_code":"DO","country_name":"Dominican Republic","latitude":"18.26256000","longitude":"-70.14821000","wikiDataId":"Q3944201"},{"id":31183,"Name":"San Cristóbal","state_id":4091,"state_code":"21","state_name":"San Cristóbal Province","country_id":62,"country_code":"DO","country_name":"Dominican Republic","latitude":"18.41667000","longitude":"-70.13333000","wikiDataId":"Q373759"},{"id":31186,"Name":"San Gregorio de Nigua","state_id":4091,"state_code":"21","state_name":"San Cristóbal Province","country_id":62,"country_code":"DO","country_name":"Dominican Republic","latitude":"18.38333000","longitude":"-70.08333000","wikiDataId":"Q3947356"},{"id":31211,"Name":"Villa Altagracia","state_id":4091,"state_code":"21","state_name":"San Cristóbal Province","country_id":62,"country_code":"DO","country_name":"Dominican Republic","latitude":"18.63333000","longitude":"-70.25000000","wikiDataId":"Q4011765"},{"id":31223,"Name":"Yaguate","state_id":4091,"state_code":"21","state_name":"San Cristóbal Province","country_id":62,"country_code":"DO","country_name":"Dominican Republic","latitude":"18.33333000","longitude":"-70.18333000","wikiDataId":"Q7930938"}]