[{"id":54419,"Name":"Brezovica","state_id":738,"state_code":"21","state_name":"Zagreb","country_id":55,"country_code":"HR","country_name":"Croatia","latitude":"45.72919000","longitude":"15.91069000","wikiDataId":"Q326957"},{"id":54438,"Name":"Centar","state_id":738,"state_code":"21","state_name":"Zagreb","country_id":55,"country_code":"HR","country_name":"Croatia","latitude":"45.81313000","longitude":"15.97753000","wikiDataId":"Q221350"},{"id":54470,"Name":"Dubrava","state_id":738,"state_code":"21","state_name":"Zagreb","country_id":55,"country_code":"HR","country_name":"Croatia","latitude":"45.83361000","longitude":"16.06361000","wikiDataId":"Q987249"},{"id":54579,"Name":"Gradska četvrt Donji grad","state_id":738,"state_code":"21","state_name":"Zagreb","country_id":55,"country_code":"HR","country_name":"Croatia","latitude":"45.80834000","longitude":"15.96949000","wikiDataId":"Q1241602"},{"id":54580,"Name":"Gradska četvrt Gornji Grad - Medvescak","state_id":738,"state_code":"21","state_name":"Zagreb","country_id":55,"country_code":"HR","country_name":"Croatia","latitude":"45.82820000","longitude":"15.97938000","wikiDataId":"Q128957"},{"id":54581,"Name":"Gradska četvrt Podsljeme","state_id":738,"state_code":"21","state_name":"Zagreb","country_id":55,"country_code":"HR","country_name":"Croatia","latitude":"45.86097000","longitude":"15.97996000","wikiDataId":"Q718103"},{"id":54596,"Name":"Horvati","state_id":738,"state_code":"21","state_name":"Zagreb","country_id":55,"country_code":"HR","country_name":"Croatia","latitude":"45.70000000","longitude":"15.81667000","wikiDataId":"Q3442392"},{"id":54615,"Name":"Jankomir","state_id":738,"state_code":"21","state_name":"Zagreb","country_id":55,"country_code":"HR","country_name":"Croatia","latitude":"45.79167000","longitude":"15.90000000","wikiDataId":"Q610221"},{"id":54623,"Name":"Ježdovec","state_id":738,"state_code":"21","state_name":"Zagreb","country_id":55,"country_code":"HR","country_name":"Croatia","latitude":"45.78333000","longitude":"15.85000000","wikiDataId":"Q239903"},{"id":54636,"Name":"Kašina","state_id":738,"state_code":"21","state_name":"Zagreb","country_id":55,"country_code":"HR","country_name":"Croatia","latitude":"45.91134000","longitude":"16.12436000","wikiDataId":"Q399425"},{"id":54707,"Name":"Lučko","state_id":738,"state_code":"21","state_name":"Zagreb","country_id":55,"country_code":"HR","country_name":"Croatia","latitude":"45.76111000","longitude":"15.87028000","wikiDataId":"Q1290060"},{"id":54760,"Name":"Novi Zagreb","state_id":738,"state_code":"21","state_name":"Zagreb","country_id":55,"country_code":"HR","country_name":"Croatia","latitude":"45.78333000","longitude":"15.98333000","wikiDataId":"Q1024104"},{"id":54771,"Name":"Odra","state_id":738,"state_code":"21","state_name":"Zagreb","country_id":55,"country_code":"HR","country_name":"Croatia","latitude":"45.72979000","longitude":"15.99240000","wikiDataId":"Q988388"},{"id":54885,"Name":"Sesvete","state_id":738,"state_code":"21","state_name":"Zagreb","country_id":55,"country_code":"HR","country_name":"Croatia","latitude":"45.83333000","longitude":"16.13333000","wikiDataId":"Q1017892"},{"id":54912,"Name":"Stenjevec","state_id":738,"state_code":"21","state_name":"Zagreb","country_id":55,"country_code":"HR","country_name":"Croatia","latitude":"45.80846000","longitude":"15.88245000","wikiDataId":"Q856390"},{"id":54917,"Name":"Strmec","state_id":738,"state_code":"21","state_name":"Zagreb","country_id":55,"country_code":"HR","country_name":"Croatia","latitude":"45.70843000","longitude":"15.91674000","wikiDataId":"Q1280666"},{"id":55003,"Name":"Zadvorsko","state_id":738,"state_code":"21","state_name":"Zagreb","country_id":55,"country_code":"HR","country_name":"Croatia","latitude":"45.71978000","longitude":"15.90880000","wikiDataId":"Q2236873"},{"id":55004,"Name":"Zagreb","state_id":738,"state_code":"21","state_name":"Zagreb","country_id":55,"country_code":"HR","country_name":"Croatia","latitude":"45.81444000","longitude":"15.97798000","wikiDataId":"Q1435"}]