[{"id":63270,"Name":"Atami","state_id":825,"state_code":"22","state_name":"Shizuoka Prefecture","country_id":109,"country_code":"JP","country_name":"Japan","latitude":"35.08834000","longitude":"139.05325000","wikiDataId":"Q653364"},{"id":63271,"Name":"Atami-shi","state_id":825,"state_code":"22","state_name":"Shizuoka Prefecture","country_id":109,"country_code":"JP","country_name":"Japan","latitude":"35.08957000","longitude":"139.06357000","wikiDataId":"Q653364"},{"id":63340,"Name":"Fuji Shi","state_id":825,"state_code":"22","state_name":"Shizuoka Prefecture","country_id":109,"country_code":"JP","country_name":"Japan","latitude":"35.20106000","longitude":"138.69905000","wikiDataId":"Q328613"},{"id":63342,"Name":"Fujieda Shi","state_id":825,"state_code":"22","state_name":"Shizuoka Prefecture","country_id":109,"country_code":"JP","country_name":"Japan","latitude":"34.91956000","longitude":"138.23379000","wikiDataId":"Q734432"},{"id":63347,"Name":"Fujinomiya","state_id":825,"state_code":"22","state_name":"Shizuoka Prefecture","country_id":109,"country_code":"JP","country_name":"Japan","latitude":"35.21667000","longitude":"138.61667000","wikiDataId":"Q496072"},{"id":63348,"Name":"Fujinomiya Shi","state_id":825,"state_code":"22","state_name":"Shizuoka Prefecture","country_id":109,"country_code":"JP","country_name":"Japan","latitude":"35.31753000","longitude":"138.62375000","wikiDataId":"Q496072"},{"id":63368,"Name":"Fukuroi","state_id":825,"state_code":"22","state_name":"Shizuoka Prefecture","country_id":109,"country_code":"JP","country_name":"Japan","latitude":"34.75000000","longitude":"137.91667000","wikiDataId":"Q821337"},{"id":63369,"Name":"Fukuroi-shi","state_id":825,"state_code":"22","state_name":"Shizuoka Prefecture","country_id":109,"country_code":"JP","country_name":"Japan","latitude":"34.74175000","longitude":"137.92805000","wikiDataId":"Q821337"},{"id":63396,"Name":"Gotenba Shi","state_id":825,"state_code":"22","state_name":"Shizuoka Prefecture","country_id":109,"country_code":"JP","country_name":"Japan","latitude":"35.29893000","longitude":"138.87902000","wikiDataId":"Q735175"},{"id":63425,"Name":"Hamakita","state_id":825,"state_code":"22","state_name":"Shizuoka Prefecture","country_id":109,"country_code":"JP","country_name":"Japan","latitude":"34.80000000","longitude":"137.78333000","wikiDataId":"Q853203"},{"id":63426,"Name":"Hamamatsu","state_id":825,"state_code":"22","state_name":"Shizuoka Prefecture","country_id":109,"country_code":"JP","country_name":"Japan","latitude":"34.70000000","longitude":"137.73333000","wikiDataId":"Q853203"},{"id":63427,"Name":"Hamamatsu-shi","state_id":825,"state_code":"22","state_name":"Shizuoka Prefecture","country_id":109,"country_code":"JP","country_name":"Japan","latitude":"34.95375000","longitude":"137.80733000","wikiDataId":"Q185125"},{"id":63452,"Name":"Heda","state_id":825,"state_code":"22","state_name":"Shizuoka Prefecture","country_id":109,"country_code":"JP","country_name":"Japan","latitude":"34.96277000","longitude":"138.78543000","wikiDataId":"Q5697064"},{"id":63616,"Name":"Itō","state_id":825,"state_code":"22","state_name":"Shizuoka Prefecture","country_id":109,"country_code":"JP","country_name":"Japan","latitude":"34.96667000","longitude":"139.08333000","wikiDataId":"Q721163"},{"id":63617,"Name":"Itō Shi","state_id":825,"state_code":"22","state_name":"Shizuoka Prefecture","country_id":109,"country_code":"JP","country_name":"Japan","latitude":"34.93563000","longitude":"139.08725000","wikiDataId":"Q721163"},{"id":63632,"Name":"Iwata","state_id":825,"state_code":"22","state_name":"Shizuoka Prefecture","country_id":109,"country_code":"JP","country_name":"Japan","latitude":"34.70000000","longitude":"137.85000000","wikiDataId":"Q386651"},{"id":63633,"Name":"Iwata-shi","state_id":825,"state_code":"22","state_name":"Shizuoka Prefecture","country_id":109,"country_code":"JP","country_name":"Japan","latitude":"34.74451000","longitude":"137.85043000","wikiDataId":"Q386651"},{"id":63638,"Name":"Izu","state_id":825,"state_code":"22","state_name":"Shizuoka Prefecture","country_id":109,"country_code":"JP","country_name":"Japan","latitude":"34.97159000","longitude":"138.94643000","wikiDataId":"Q696840"},{"id":63639,"Name":"Izu-shi","state_id":825,"state_code":"22","state_name":"Shizuoka Prefecture","country_id":109,"country_code":"JP","country_name":"Japan","latitude":"34.92201000","longitude":"138.92585000","wikiDataId":"Q696840"},{"id":63650,"Name":"Izunokuni-shi","state_id":825,"state_code":"22","state_name":"Shizuoka Prefecture","country_id":109,"country_code":"JP","country_name":"Japan","latitude":"35.03799000","longitude":"138.97295000","wikiDataId":"Q863758"},{"id":63669,"Name":"Kakegawa","state_id":825,"state_code":"22","state_name":"Shizuoka Prefecture","country_id":109,"country_code":"JP","country_name":"Japan","latitude":"34.76667000","longitude":"138.01667000","wikiDataId":"Q823988"},{"id":63670,"Name":"Kakegawa Shi","state_id":825,"state_code":"22","state_name":"Shizuoka Prefecture","country_id":109,"country_code":"JP","country_name":"Japan","latitude":"34.77993000","longitude":"138.01897000","wikiDataId":"Q823988"},{"id":63705,"Name":"Kanaya","state_id":825,"state_code":"22","state_name":"Shizuoka Prefecture","country_id":109,"country_code":"JP","country_name":"Japan","latitude":"34.82022000","longitude":"138.12775000","wikiDataId":"Q387211"},{"id":63786,"Name":"Kikugawa-shi","state_id":825,"state_code":"22","state_name":"Shizuoka Prefecture","country_id":109,"country_code":"JP","country_name":"Japan","latitude":"34.75000000","longitude":"138.10000000","wikiDataId":"Q726565"},{"id":63845,"Name":"Kosai","state_id":825,"state_code":"22","state_name":"Shizuoka Prefecture","country_id":109,"country_code":"JP","country_name":"Japan","latitude":"34.70053000","longitude":"137.52253000","wikiDataId":"Q850515"},{"id":63846,"Name":"Kosai-shi","state_id":825,"state_code":"22","state_name":"Shizuoka Prefecture","country_id":109,"country_code":"JP","country_name":"Japan","latitude":"34.73092000","longitude":"137.51643000","wikiDataId":"Q850515"},{"id":63916,"Name":"Makinohara Shi","state_id":825,"state_code":"22","state_name":"Shizuoka Prefecture","country_id":109,"country_code":"JP","country_name":"Japan","latitude":"34.73226000","longitude":"138.18567000","wikiDataId":"Q850527"},{"id":63985,"Name":"Mishima","state_id":825,"state_code":"22","state_name":"Shizuoka Prefecture","country_id":109,"country_code":"JP","country_name":"Japan","latitude":"35.11667000","longitude":"138.91667000","wikiDataId":"Q653478"},{"id":63986,"Name":"Mishima Shi","state_id":825,"state_code":"22","state_name":"Shizuoka Prefecture","country_id":109,"country_code":"JP","country_name":"Japan","latitude":"35.13940000","longitude":"138.94882000","wikiDataId":"Q653478"},{"id":64028,"Name":"Mori","state_id":825,"state_code":"22","state_name":"Shizuoka Prefecture","country_id":109,"country_code":"JP","country_name":"Japan","latitude":"34.83333000","longitude":"137.93333000","wikiDataId":"Q1345571"},{"id":64172,"Name":"Numazu-shi","state_id":825,"state_code":"22","state_name":"Shizuoka Prefecture","country_id":109,"country_code":"JP","country_name":"Japan","latitude":"35.09491000","longitude":"138.86667000","wikiDataId":"Q241037"},{"id":64203,"Name":"Omaezaki-shi","state_id":825,"state_code":"22","state_name":"Shizuoka Prefecture","country_id":109,"country_code":"JP","country_name":"Japan","latitude":"34.60000000","longitude":"138.21667000","wikiDataId":"Q850380"},{"id":64768,"Name":"Ōyama","state_id":825,"state_code":"22","state_name":"Shizuoka Prefecture","country_id":109,"country_code":"JP","country_name":"Japan","latitude":"34.60359000","longitude":"138.21719000","wikiDataId":"Q386508"},{"id":64244,"Name":"Sagara","state_id":825,"state_code":"22","state_name":"Shizuoka Prefecture","country_id":109,"country_code":"JP","country_name":"Japan","latitude":"34.68503000","longitude":"138.20461000","wikiDataId":"Q7399037"},{"id":64327,"Name":"Shimada","state_id":825,"state_code":"22","state_name":"Shizuoka Prefecture","country_id":109,"country_code":"JP","country_name":"Japan","latitude":"34.81667000","longitude":"138.18333000","wikiDataId":"Q605256"},{"id":64328,"Name":"Shimada-shi","state_id":825,"state_code":"22","state_name":"Shizuoka Prefecture","country_id":109,"country_code":"JP","country_name":"Japan","latitude":"34.91220000","longitude":"138.12662000","wikiDataId":"Q605256"},{"id":64330,"Name":"Shimoda","state_id":825,"state_code":"22","state_name":"Shizuoka Prefecture","country_id":109,"country_code":"JP","country_name":"Japan","latitude":"34.67652000","longitude":"138.94456000","wikiDataId":"Q653402"},{"id":64331,"Name":"Shimoda-shi","state_id":825,"state_code":"22","state_name":"Shizuoka Prefecture","country_id":109,"country_code":"JP","country_name":"Japan","latitude":"34.70879000","longitude":"138.92148000","wikiDataId":"Q653402"},{"id":64366,"Name":"Shizuoka","state_id":825,"state_code":"22","state_name":"Shizuoka Prefecture","country_id":109,"country_code":"JP","country_name":"Japan","latitude":"34.98333000","longitude":"138.38333000","wikiDataId":"Q1348478"},{"id":64367,"Name":"Shizuoka-shi","state_id":825,"state_code":"22","state_name":"Shizuoka Prefecture","country_id":109,"country_code":"JP","country_name":"Japan","latitude":"35.20164000","longitude":"138.31426000","wikiDataId":"Q174691"},{"id":64388,"Name":"Susono","state_id":825,"state_code":"22","state_name":"Shizuoka Prefecture","country_id":109,"country_code":"JP","country_name":"Japan","latitude":"35.17388000","longitude":"138.90691000","wikiDataId":"Q847577"},{"id":64389,"Name":"Susono Shi","state_id":825,"state_code":"22","state_name":"Shizuoka Prefecture","country_id":109,"country_code":"JP","country_name":"Japan","latitude":"35.22551000","longitude":"138.87734000","wikiDataId":"Q847577"},{"id":64634,"Name":"Yaizu","state_id":825,"state_code":"22","state_name":"Shizuoka Prefecture","country_id":109,"country_code":"JP","country_name":"Japan","latitude":"34.86877000","longitude":"138.31952000","wikiDataId":"Q696783"},{"id":64635,"Name":"Yaizu Shi","state_id":825,"state_code":"22","state_name":"Shizuoka Prefecture","country_id":109,"country_code":"JP","country_name":"Japan","latitude":"34.84008000","longitude":"138.30127000","wikiDataId":"Q696783"}]