[{"id":135416,"Name":"Allein","state_id":1716,"state_code":"23","state_name":"Aosta Valley","country_id":107,"country_code":"IT","country_name":"Italy","latitude":"45.80723000","longitude":"7.27262000","wikiDataId":"Q18454404"},{"id":135511,"Name":"Antagnod","state_id":1716,"state_code":"23","state_name":"Aosta Valley","country_id":107,"country_code":"IT","country_name":"Italy","latitude":"45.81484000","longitude":"7.68931000","wikiDataId":"Q2852539"},{"id":135516,"Name":"Antey-Saint-Andrè","state_id":1716,"state_code":"23","state_name":"Aosta Valley","country_id":107,"country_code":"IT","country_name":"Italy","latitude":"45.80603000","longitude":"7.58666000","wikiDataId":"Q18437157"},{"id":135530,"Name":"Aosta","state_id":1716,"state_code":"23","state_name":"Aosta Valley","country_id":107,"country_code":"IT","country_name":"Italy","latitude":"45.73764000","longitude":"7.31722000","wikiDataId":"Q18445825"},{"id":135618,"Name":"Arnad","state_id":1716,"state_code":"23","state_name":"Aosta Valley","country_id":107,"country_code":"IT","country_name":"Italy","latitude":"45.64726000","longitude":"7.71701000","wikiDataId":"Q18454416"},{"id":135645,"Name":"Arvier","state_id":1716,"state_code":"23","state_name":"Aosta Valley","country_id":107,"country_code":"IT","country_name":"Italy","latitude":"45.70205000","longitude":"7.16267000","wikiDataId":"Q18436874"},{"id":135712,"Name":"Avise","state_id":1716,"state_code":"23","state_name":"Aosta Valley","country_id":107,"country_code":"IT","country_name":"Italy","latitude":"45.70886000","longitude":"7.13990000","wikiDataId":"Q18448272"},{"id":135716,"Name":"Ayas","state_id":1716,"state_code":"23","state_name":"Aosta Valley","country_id":107,"country_code":"IT","country_name":"Italy","latitude":"45.81506000","longitude":"7.68911000","wikiDataId":"Q18448272"},{"id":135717,"Name":"Aymavilles","state_id":1716,"state_code":"23","state_name":"Aosta Valley","country_id":107,"country_code":"IT","country_name":"Italy","latitude":"45.70130000","longitude":"7.24683000","wikiDataId":"Q18448272"},{"id":135838,"Name":"Bard","state_id":1716,"state_code":"23","state_name":"Aosta Valley","country_id":107,"country_code":"IT","country_name":"Italy","latitude":"45.60936000","longitude":"7.74491000","wikiDataId":"Q3634893"},{"id":135997,"Name":"Berriat","state_id":1716,"state_code":"23","state_name":"Aosta Valley","country_id":107,"country_code":"IT","country_name":"Italy","latitude":"45.70729000","longitude":"7.67617000","wikiDataId":"Q18495191"},{"id":136055,"Name":"Bionaz","state_id":1716,"state_code":"23","state_name":"Aosta Valley","country_id":107,"country_code":"IT","country_name":"Italy","latitude":"45.87356000","longitude":"7.42310000","wikiDataId":"Q18503920"},{"id":136378,"Name":"Brusson","state_id":1716,"state_code":"23","state_name":"Aosta Valley","country_id":107,"country_code":"IT","country_name":"Italy","latitude":"45.75926000","longitude":"7.72899000","wikiDataId":"Q3645550"},{"id":137627,"Name":"Challand-Saint-Anselme","state_id":1716,"state_code":"23","state_name":"Aosta Valley","country_id":107,"country_code":"IT","country_name":"Italy","latitude":"45.71456000","longitude":"7.73451000","wikiDataId":"Q18429678"},{"id":137628,"Name":"Challand-Saint-Victor","state_id":1716,"state_code":"23","state_name":"Aosta Valley","country_id":107,"country_code":"IT","country_name":"Italy","latitude":"45.69046000","longitude":"7.70471000","wikiDataId":"Q18429678"},{"id":137629,"Name":"Chambave","state_id":1716,"state_code":"23","state_name":"Aosta Valley","country_id":107,"country_code":"IT","country_name":"Italy","latitude":"45.74426000","longitude":"7.54931000","wikiDataId":"Q18429678"},{"id":137630,"Name":"Chamois","state_id":1716,"state_code":"23","state_name":"Aosta Valley","country_id":107,"country_code":"IT","country_name":"Italy","latitude":"45.83886000","longitude":"7.61871000","wikiDataId":"Q18429678"},{"id":137631,"Name":"Champdepraz","state_id":1716,"state_code":"23","state_name":"Aosta Valley","country_id":107,"country_code":"IT","country_name":"Italy","latitude":"45.68526000","longitude":"7.65681000","wikiDataId":"Q18429678"},{"id":137632,"Name":"Champorcher","state_id":1716,"state_code":"23","state_name":"Aosta Valley","country_id":107,"country_code":"IT","country_name":"Italy","latitude":"45.62376000","longitude":"7.62151000","wikiDataId":"Q18429678"},{"id":137633,"Name":"Charvensod","state_id":1716,"state_code":"23","state_name":"Aosta Valley","country_id":107,"country_code":"IT","country_name":"Italy","latitude":"45.72025000","longitude":"7.32433000","wikiDataId":"Q18429678"},{"id":137634,"Name":"Chatillon","state_id":1716,"state_code":"23","state_name":"Aosta Valley","country_id":107,"country_code":"IT","country_name":"Italy","latitude":"45.74991000","longitude":"7.61668000","wikiDataId":"Q18429678"},{"id":137635,"Name":"Chef-Lieu","state_id":1716,"state_code":"23","state_name":"Aosta Valley","country_id":107,"country_code":"IT","country_name":"Italy","latitude":"45.75091000","longitude":"7.35372000","wikiDataId":"Q18495325"},{"id":137841,"Name":"Cogne","state_id":1716,"state_code":"23","state_name":"Aosta Valley","country_id":107,"country_code":"IT","country_name":"Italy","latitude":"45.60742000","longitude":"7.35803000","wikiDataId":"Q30024888"},{"id":138115,"Name":"Courmayeur","state_id":1716,"state_code":"23","state_name":"Aosta Valley","country_id":107,"country_code":"IT","country_name":"Italy","latitude":"45.79659000","longitude":"6.96893000","wikiDataId":"Q18436923"},{"id":138301,"Name":"Donnas","state_id":1716,"state_code":"23","state_name":"Aosta Valley","country_id":107,"country_code":"IT","country_name":"Italy","latitude":"45.60286000","longitude":"7.77491000","wikiDataId":"Q379107"},{"id":138321,"Name":"Doues","state_id":1716,"state_code":"23","state_name":"Aosta Valley","country_id":107,"country_code":"IT","country_name":"Italy","latitude":"45.81916000","longitude":"7.30600000","wikiDataId":"Q2382234"},{"id":138355,"Name":"Emarese","state_id":1716,"state_code":"23","state_name":"Aosta Valley","country_id":107,"country_code":"IT","country_name":"Italy","latitude":"45.72489000","longitude":"7.68976000","wikiDataId":"Q18503084"},{"id":138388,"Name":"Etroubles","state_id":1716,"state_code":"23","state_name":"Aosta Valley","country_id":107,"country_code":"IT","country_name":"Italy","latitude":"45.82082000","longitude":"7.23137000","wikiDataId":"Q18490379"},{"id":138765,"Name":"Fénis","state_id":1716,"state_code":"23","state_name":"Aosta Valley","country_id":107,"country_code":"IT","country_name":"Italy","latitude":"45.73469000","longitude":"7.49544000","wikiDataId":"Q18496531"},{"id":138591,"Name":"Fontainemore","state_id":1716,"state_code":"23","state_name":"Aosta Valley","country_id":107,"country_code":"IT","country_name":"Italy","latitude":"45.64746000","longitude":"7.85952000","wikiDataId":"Q3747112"},{"id":138771,"Name":"Gaby","state_id":1716,"state_code":"23","state_name":"Aosta Valley","country_id":107,"country_code":"IT","country_name":"Italy","latitude":"45.71300000","longitude":"7.88224000","wikiDataId":"Q18490204"},{"id":138960,"Name":"Gignod","state_id":1716,"state_code":"23","state_name":"Aosta Valley","country_id":107,"country_code":"IT","country_name":"Italy","latitude":"45.77996000","longitude":"7.29640000","wikiDataId":"Q1523719"},{"id":139063,"Name":"Grand Brissogne","state_id":1716,"state_code":"23","state_name":"Aosta Valley","country_id":107,"country_code":"IT","country_name":"Italy","latitude":"45.72566000","longitude":"7.39260000","wikiDataId":"Q2293125"},{"id":139089,"Name":"Gressan","state_id":1716,"state_code":"23","state_name":"Aosta Valley","country_id":107,"country_code":"IT","country_name":"Italy","latitude":"45.72050000","longitude":"7.29311000","wikiDataId":"Q18492879"},{"id":139090,"Name":"Gressoney-La-Trinitè","state_id":1716,"state_code":"23","state_name":"Aosta Valley","country_id":107,"country_code":"IT","country_name":"Italy","latitude":"45.82967000","longitude":"7.82321000","wikiDataId":"Q18492879"},{"id":139091,"Name":"Gressoney-Saint-Jean","state_id":1716,"state_code":"23","state_name":"Aosta Valley","country_id":107,"country_code":"IT","country_name":"Italy","latitude":"45.77272000","longitude":"7.82802000","wikiDataId":"Q1399965"},{"id":139187,"Name":"Hone","state_id":1716,"state_code":"23","state_name":"Aosta Valley","country_id":107,"country_code":"IT","country_name":"Italy","latitude":"45.61356000","longitude":"7.73851000","wikiDataId":"Q3779689"},{"id":139211,"Name":"Introd","state_id":1716,"state_code":"23","state_name":"Aosta Valley","country_id":107,"country_code":"IT","country_name":"Italy","latitude":"45.69306000","longitude":"7.18240000","wikiDataId":"Q18428278"},{"id":139262,"Name":"Issime","state_id":1716,"state_code":"23","state_name":"Aosta Valley","country_id":107,"country_code":"IT","country_name":"Italy","latitude":"45.68546000","longitude":"7.85411000","wikiDataId":"Q18457884"},{"id":139264,"Name":"Issogne","state_id":1716,"state_code":"23","state_name":"Aosta Valley","country_id":107,"country_code":"IT","country_name":"Italy","latitude":"45.65496000","longitude":"7.68571000","wikiDataId":"Q18457884"},{"id":139283,"Name":"Jovencan","state_id":1716,"state_code":"23","state_name":"Aosta Valley","country_id":107,"country_code":"IT","country_name":"Italy","latitude":"45.71486000","longitude":"7.27260000","wikiDataId":"Q1118172"},{"id":139290,"Name":"La Cretaz-Roisan","state_id":1716,"state_code":"23","state_name":"Aosta Valley","country_id":107,"country_code":"IT","country_name":"Italy","latitude":"45.78396000","longitude":"7.31310000","wikiDataId":"Q18495570"},{"id":139294,"Name":"La Magdeleine","state_id":1716,"state_code":"23","state_name":"Aosta Valley","country_id":107,"country_code":"IT","country_name":"Italy","latitude":"45.80996000","longitude":"7.61871000","wikiDataId":"Q18448339"},{"id":139299,"Name":"La Place","state_id":1716,"state_code":"23","state_name":"Aosta Valley","country_id":107,"country_code":"IT","country_name":"Italy","latitude":"45.65414000","longitude":"7.68414000","wikiDataId":"Q18495575"},{"id":139303,"Name":"La Salle","state_id":1716,"state_code":"23","state_name":"Aosta Valley","country_id":107,"country_code":"IT","country_name":"Italy","latitude":"45.74497000","longitude":"7.07295000","wikiDataId":"Q18439398"},{"id":139306,"Name":"La Thuile","state_id":1716,"state_code":"23","state_name":"Aosta Valley","country_id":107,"country_code":"IT","country_name":"Italy","latitude":"45.71366000","longitude":"6.95099000","wikiDataId":"Q18503347"},{"id":139383,"Name":"Lassolaz","state_id":1716,"state_code":"23","state_name":"Aosta Valley","country_id":107,"country_code":"IT","country_name":"Italy","latitude":"45.73851000","longitude":"7.58883000","wikiDataId":"Q18495588"},{"id":139514,"Name":"Lillianes","state_id":1716,"state_code":"23","state_name":"Aosta Valley","country_id":107,"country_code":"IT","country_name":"Italy","latitude":"45.62948000","longitude":"7.84126000","wikiDataId":"Q18439419"},{"id":140288,"Name":"Mongnod","state_id":1716,"state_code":"23","state_name":"Aosta Valley","country_id":107,"country_code":"IT","country_name":"Italy","latitude":"45.80549000","longitude":"7.56806000","wikiDataId":"Q18495679"},{"id":140337,"Name":"Montan-Angelin-Arensod","state_id":1716,"state_code":"23","state_name":"Aosta Valley","country_id":107,"country_code":"IT","country_name":"Italy","latitude":"45.72820000","longitude":"7.27647000","wikiDataId":"Q18495680"},{"id":140576,"Name":"Montjovet","state_id":1716,"state_code":"23","state_name":"Aosta Valley","country_id":107,"country_code":"IT","country_name":"Italy","latitude":"45.70796000","longitude":"7.67411000","wikiDataId":"Q18495968"},{"id":140613,"Name":"Morgex","state_id":1716,"state_code":"23","state_name":"Aosta Valley","country_id":107,"country_code":"IT","country_name":"Italy","latitude":"45.75664000","longitude":"7.04123000","wikiDataId":"Q6906139"},{"id":140860,"Name":"Nus","state_id":1716,"state_code":"23","state_name":"Aosta Valley","country_id":107,"country_code":"IT","country_name":"Italy","latitude":"45.74026000","longitude":"7.46660000","wikiDataId":"Q18449899"},{"id":140907,"Name":"Ollomont","state_id":1716,"state_code":"23","state_name":"Aosta Valley","country_id":107,"country_code":"IT","country_name":"Italy","latitude":"45.84976000","longitude":"7.31060000","wikiDataId":"Q18448462"},{"id":141060,"Name":"Oyace","state_id":1716,"state_code":"23","state_name":"Aosta Valley","country_id":107,"country_code":"IT","country_name":"Italy","latitude":"45.85116000","longitude":"7.38300000","wikiDataId":"Q3887155"},{"id":58293,"Name":"Paquier","state_id":1716,"state_code":"23","state_name":"Aosta Valley","country_id":107,"country_code":"IT","country_name":"Italy","latitude":"45.87879000","longitude":"7.62575000","wikiDataId":"Q18495750"},{"id":58430,"Name":"Perloz","state_id":1716,"state_code":"23","state_name":"Aosta Valley","country_id":107,"country_code":"IT","country_name":"Italy","latitude":"45.61386000","longitude":"7.80811000","wikiDataId":"Q42801"},{"id":58476,"Name":"Petit Fenis","state_id":1716,"state_code":"23","state_name":"Aosta Valley","country_id":107,"country_code":"IT","country_name":"Italy","latitude":"45.75115000","longitude":"7.46391000","wikiDataId":"Q18495770"},{"id":58732,"Name":"Plan d'Introd","state_id":1716,"state_code":"23","state_name":"Aosta Valley","country_id":107,"country_code":"IT","country_name":"Italy","latitude":"45.69203000","longitude":"7.18328000","wikiDataId":"Q18495789"},{"id":58796,"Name":"Pollein","state_id":1716,"state_code":"23","state_name":"Aosta Valley","country_id":107,"country_code":"IT","country_name":"Italy","latitude":"45.72780000","longitude":"7.35146000","wikiDataId":"Q610420"},{"id":58827,"Name":"Pont-Bozet","state_id":1716,"state_code":"23","state_name":"Aosta Valley","country_id":107,"country_code":"IT","country_name":"Italy","latitude":"45.60726000","longitude":"7.68641000","wikiDataId":"Q18487770"},{"id":58829,"Name":"Pont-Saint-Martin","state_id":1716,"state_code":"23","state_name":"Aosta Valley","country_id":107,"country_code":"IT","country_name":"Italy","latitude":"45.59536000","longitude":"7.79451000","wikiDataId":"Q18487770"},{"id":58881,"Name":"Pontey","state_id":1716,"state_code":"23","state_name":"Aosta Valley","country_id":107,"country_code":"IT","country_name":"Italy","latitude":"45.73886000","longitude":"7.58831000","wikiDataId":"Q3908215"},{"id":59193,"Name":"Prè Saint Didier","state_id":1716,"state_code":"23","state_name":"Aosta Valley","country_id":107,"country_code":"IT","country_name":"Italy","latitude":"45.76416000","longitude":"6.98579000","wikiDataId":"Q16318"},{"id":59225,"Name":"Quart","state_id":1716,"state_code":"23","state_name":"Aosta Valley","country_id":107,"country_code":"IT","country_name":"Italy","latitude":"45.74096000","longitude":"7.41520000","wikiDataId":"Q18485920"},{"id":59244,"Name":"Quincod","state_id":1716,"state_code":"23","state_name":"Aosta Valley","country_id":107,"country_code":"IT","country_name":"Italy","latitude":"45.71513000","longitude":"7.73495000","wikiDataId":"Q18495857"},{"id":59350,"Name":"Rhemes-Notre-Dame","state_id":1716,"state_code":"23","state_name":"Aosta Valley","country_id":107,"country_code":"IT","country_name":"Italy","latitude":"45.56965000","longitude":"7.11870000","wikiDataId":"Q2613596"},{"id":59351,"Name":"Rhemes-Saint-Georges","state_id":1716,"state_code":"23","state_name":"Aosta Valley","country_id":107,"country_code":"IT","country_name":"Italy","latitude":"45.65226000","longitude":"7.15440000","wikiDataId":"Q2613596"},{"id":59727,"Name":"Saint Marcel","state_id":1716,"state_code":"23","state_name":"Aosta Valley","country_id":107,"country_code":"IT","country_name":"Italy","latitude":"45.73146000","longitude":"7.44820000","wikiDataId":"Q18496925"},{"id":59728,"Name":"Saint Maurice","state_id":1716,"state_code":"23","state_name":"Aosta Valley","country_id":107,"country_code":"IT","country_name":"Italy","latitude":"45.71771000","longitude":"7.25547000","wikiDataId":"Q18495905"},{"id":59729,"Name":"Saint-Christophe","state_id":1716,"state_code":"23","state_name":"Aosta Valley","country_id":107,"country_code":"IT","country_name":"Italy","latitude":"45.75406000","longitude":"7.34720000","wikiDataId":"Q18495905"},{"id":59730,"Name":"Saint-Denis","state_id":1716,"state_code":"23","state_name":"Aosta Valley","country_id":107,"country_code":"IT","country_name":"Italy","latitude":"45.75256000","longitude":"7.55531000","wikiDataId":"Q18495905"},{"id":59731,"Name":"Saint-Nicolas","state_id":1716,"state_code":"23","state_name":"Aosta Valley","country_id":107,"country_code":"IT","country_name":"Italy","latitude":"45.71656000","longitude":"7.16670000","wikiDataId":"Q30029684"},{"id":59732,"Name":"Saint-Oyen","state_id":1716,"state_code":"23","state_name":"Aosta Valley","country_id":107,"country_code":"IT","country_name":"Italy","latitude":"45.82439000","longitude":"7.21372000","wikiDataId":"Q30029684"},{"id":59733,"Name":"Saint-Pierre","state_id":1716,"state_code":"23","state_name":"Aosta Valley","country_id":107,"country_code":"IT","country_name":"Italy","latitude":"45.71153000","longitude":"7.22683000","wikiDataId":"Q30029684"},{"id":59734,"Name":"Saint-Rhémy","state_id":1716,"state_code":"23","state_name":"Aosta Valley","country_id":107,"country_code":"IT","country_name":"Italy","latitude":"45.83553000","longitude":"7.18393000","wikiDataId":"Q30029684"},{"id":59735,"Name":"Saint-Vincent","state_id":1716,"state_code":"23","state_name":"Aosta Valley","country_id":107,"country_code":"IT","country_name":"Italy","latitude":"45.75082000","longitude":"7.64815000","wikiDataId":"Q30029684"},{"id":60030,"Name":"San Leonardo","state_id":1716,"state_code":"23","state_name":"Aosta Valley","country_id":107,"country_code":"IT","country_name":"Italy","latitude":"45.82366000","longitude":"7.18140000","wikiDataId":"Q18495921"},{"id":61328,"Name":"Torgnon","state_id":1716,"state_code":"23","state_name":"Aosta Valley","country_id":107,"country_code":"IT","country_name":"Italy","latitude":"45.80616000","longitude":"7.56980000","wikiDataId":"Q18435771"},{"id":61677,"Name":"Valgrisenche","state_id":1716,"state_code":"23","state_name":"Aosta Valley","country_id":107,"country_code":"IT","country_name":"Italy","latitude":"45.63036000","longitude":"7.06400000","wikiDataId":"Q18505677"},{"id":61694,"Name":"Valle d'Aosta","state_id":1716,"state_code":"23","state_name":"Aosta Valley","country_id":107,"country_code":"IT","country_name":"Italy","latitude":"45.76667000","longitude":"7.41667000","wikiDataId":"Q18455341"},{"id":61735,"Name":"Valpelline","state_id":1716,"state_code":"23","state_name":"Aosta Valley","country_id":107,"country_code":"IT","country_name":"Italy","latitude":"45.82486000","longitude":"7.32550000","wikiDataId":"Q18502485"},{"id":61738,"Name":"Valsavarenche","state_id":1716,"state_code":"23","state_name":"Aosta Valley","country_id":107,"country_code":"IT","country_name":"Italy","latitude":"45.59186000","longitude":"7.21000000","wikiDataId":"Q18502485"},{"id":61744,"Name":"Valtournenche","state_id":1716,"state_code":"23","state_name":"Aosta Valley","country_id":107,"country_code":"IT","country_name":"Italy","latitude":"45.87607000","longitude":"7.62430000","wikiDataId":"Q18502485"},{"id":61865,"Name":"Verrayes","state_id":1716,"state_code":"23","state_name":"Aosta Valley","country_id":107,"country_code":"IT","country_name":"Italy","latitude":"45.76326000","longitude":"7.53460000","wikiDataId":"Q18504619"},{"id":61866,"Name":"Verres","state_id":1716,"state_code":"23","state_name":"Aosta Valley","country_id":107,"country_code":"IT","country_name":"Italy","latitude":"45.66656000","longitude":"7.68911000","wikiDataId":"Q18504619"},{"id":62045,"Name":"Villa-Nabian","state_id":1716,"state_code":"23","state_name":"Aosta Valley","country_id":107,"country_code":"IT","country_name":"Italy","latitude":"45.68970000","longitude":"7.70470000","wikiDataId":"Q18496037"},{"id":62074,"Name":"Villair-Amerique","state_id":1716,"state_code":"23","state_name":"Aosta Valley","country_id":107,"country_code":"IT","country_name":"Italy","latitude":"45.74793000","longitude":"7.38982000","wikiDataId":"Q18496035"},{"id":62147,"Name":"Ville Sur Sarre","state_id":1716,"state_code":"23","state_name":"Aosta Valley","country_id":107,"country_code":"IT","country_name":"Italy","latitude":"45.73339000","longitude":"7.25857000","wikiDataId":"Q18496041"},{"id":62148,"Name":"Villefranche","state_id":1716,"state_code":"23","state_name":"Aosta Valley","country_id":107,"country_code":"IT","country_name":"Italy","latitude":"45.74064000","longitude":"7.41598000","wikiDataId":"Q18496043"},{"id":62149,"Name":"Villeneuve","state_id":1716,"state_code":"23","state_name":"Aosta Valley","country_id":107,"country_code":"IT","country_name":"Italy","latitude":"45.70201000","longitude":"7.20682000","wikiDataId":"Q18496043"}]