[{"id":105217,"Name":"Amphoe Ban Sang","state_id":3542,"state_code":"25","state_name":"Prachin Buri","country_id":219,"country_code":"TH","country_name":"Thailand","latitude":"13.95005000","longitude":"101.25063000","wikiDataId":"Q475174"},{"id":105362,"Name":"Amphoe Kabin Buri","state_id":3542,"state_code":"25","state_name":"Prachin Buri","country_id":219,"country_code":"TH","country_name":"Thailand","latitude":"13.90000000","longitude":"101.80000000","wikiDataId":"Q475560"},{"id":105576,"Name":"Amphoe Mueang Prachin Buri","state_id":3542,"state_code":"25","state_name":"Prachin Buri","country_id":219,"country_code":"TH","country_name":"Thailand","latitude":"14.09335000","longitude":"101.39776000","wikiDataId":"Q1935384"},{"id":105610,"Name":"Amphoe Na Di","state_id":3542,"state_code":"25","state_name":"Prachin Buri","country_id":219,"country_code":"TH","country_name":"Thailand","latitude":"14.19253000","longitude":"101.84557000","wikiDataId":"Q476123"},{"id":105794,"Name":"Amphoe Prachantakham","state_id":3542,"state_code":"25","state_name":"Prachin Buri","country_id":219,"country_code":"TH","country_name":"Thailand","latitude":"14.22813000","longitude":"101.57440000","wikiDataId":"Q476520"},{"id":106214,"Name":"Amphoe Si Maha Phot","state_id":3542,"state_code":"25","state_name":"Prachin Buri","country_id":219,"country_code":"TH","country_name":"Thailand","latitude":"13.89041000","longitude":"101.54181000","wikiDataId":"Q476693"},{"id":106215,"Name":"Amphoe Si Mahosot","state_id":3542,"state_code":"25","state_name":"Prachin Buri","country_id":219,"country_code":"TH","country_name":"Thailand","latitude":"13.87669000","longitude":"101.42499000","wikiDataId":"Q476694"},{"id":106504,"Name":"Kabin Buri","state_id":3542,"state_code":"25","state_name":"Prachin Buri","country_id":219,"country_code":"TH","country_name":"Thailand","latitude":"13.95114000","longitude":"101.71769000","wikiDataId":"Q15980713"},{"id":106655,"Name":"Prachin Buri","state_id":3542,"state_code":"25","state_name":"Prachin Buri","country_id":219,"country_code":"TH","country_name":"Thailand","latitude":"14.04992000","longitude":"101.36864000","wikiDataId":"Q1365804"}]