[{"id":9308,"Name":"Dimitrovgrad","state_id":4704,"state_code":"26","state_name":"Haskovo Province","country_id":34,"country_code":"BG","country_name":"Bulgaria","latitude":"42.05000000","longitude":"25.60000000","wikiDataId":"Q331048"},{"id":9342,"Name":"Harmanli","state_id":4704,"state_code":"26","state_name":"Haskovo Province","country_id":34,"country_code":"BG","country_name":"Bulgaria","latitude":"41.93333000","longitude":"25.90000000","wikiDataId":"Q406239"},{"id":9343,"Name":"Haskovo","state_id":4704,"state_code":"26","state_name":"Haskovo Province","country_id":34,"country_code":"BG","country_name":"Bulgaria","latitude":"41.93415000","longitude":"25.55557000","wikiDataId":"Q186254"},{"id":9350,"Name":"Ivaylovgrad","state_id":4704,"state_code":"26","state_name":"Haskovo Province","country_id":34,"country_code":"BG","country_name":"Bulgaria","latitude":"41.52672000","longitude":"26.12490000","wikiDataId":"Q407390"},{"id":9392,"Name":"Lyubimets","state_id":4704,"state_code":"26","state_name":"Haskovo Province","country_id":34,"country_code":"BG","country_name":"Bulgaria","latitude":"41.83333000","longitude":"26.08333000","wikiDataId":"Q405367"},{"id":9394,"Name":"Madzharovo","state_id":4704,"state_code":"26","state_name":"Haskovo Province","country_id":34,"country_code":"BG","country_name":"Bulgaria","latitude":"41.63461000","longitude":"25.86439000","wikiDataId":"Q407352"},{"id":9401,"Name":"Mineralni Bani","state_id":4704,"state_code":"26","state_name":"Haskovo Province","country_id":34,"country_code":"BG","country_name":"Bulgaria","latitude":"41.91667000","longitude":"25.35000000","wikiDataId":"Q2350241"},{"id":9455,"Name":"Obshtina Dimitrovgrad","state_id":4704,"state_code":"26","state_name":"Haskovo Province","country_id":34,"country_code":"BG","country_name":"Bulgaria","latitude":"42.05000000","longitude":"25.60000000","wikiDataId":"Q2606948"},{"id":9486,"Name":"Obshtina Harmanli","state_id":4704,"state_code":"26","state_name":"Haskovo Province","country_id":34,"country_code":"BG","country_name":"Bulgaria","latitude":"41.93333000","longitude":"25.98333000","wikiDataId":"Q2400127"},{"id":9487,"Name":"Obshtina Haskovo","state_id":4704,"state_code":"26","state_name":"Haskovo Province","country_id":34,"country_code":"BG","country_name":"Bulgaria","latitude":"41.88333000","longitude":"25.61667000","wikiDataId":"Q2454587"},{"id":9493,"Name":"Obshtina Ivaylovgrad","state_id":4704,"state_code":"26","state_name":"Haskovo Province","country_id":34,"country_code":"BG","country_name":"Bulgaria","latitude":"41.48333000","longitude":"26.00000000","wikiDataId":"Q2608264"},{"id":9527,"Name":"Obshtina Madzharovo","state_id":4704,"state_code":"26","state_name":"Haskovo Province","country_id":34,"country_code":"BG","country_name":"Bulgaria","latitude":"41.68333000","longitude":"25.90000000","wikiDataId":"Q2399931"},{"id":9532,"Name":"Obshtina Mineralni Bani","state_id":4704,"state_code":"26","state_name":"Haskovo Province","country_id":34,"country_code":"BG","country_name":"Bulgaria","latitude":"41.90000000","longitude":"25.33333000","wikiDataId":"Q2400676"},{"id":9598,"Name":"Obshtina Stambolovo","state_id":4704,"state_code":"26","state_name":"Haskovo Province","country_id":34,"country_code":"BG","country_name":"Bulgaria","latitude":"41.73333000","longitude":"25.70000000","wikiDataId":"Q2400143"},{"id":9607,"Name":"Obshtina Svilengrad","state_id":4704,"state_code":"26","state_name":"Haskovo Province","country_id":34,"country_code":"BG","country_name":"Bulgaria","latitude":"41.86667000","longitude":"26.31667000","wikiDataId":"Q2657322"},{"id":9613,"Name":"Obshtina Topolovgrad","state_id":4704,"state_code":"26","state_name":"Haskovo Province","country_id":34,"country_code":"BG","country_name":"Bulgaria","latitude":"42.08333000","longitude":"26.33333000","wikiDataId":"Q2444114"},{"id":9693,"Name":"Simeonovgrad","state_id":4704,"state_code":"26","state_name":"Haskovo Province","country_id":34,"country_code":"BG","country_name":"Bulgaria","latitude":"42.03333000","longitude":"25.83333000","wikiDataId":"Q5474197"},{"id":9716,"Name":"Svilengrad","state_id":4704,"state_code":"26","state_name":"Haskovo Province","country_id":34,"country_code":"BG","country_name":"Bulgaria","latitude":"41.76667000","longitude":"26.20000000","wikiDataId":"Q405789"},{"id":9722,"Name":"Topolovgrad","state_id":4704,"state_code":"26","state_name":"Haskovo Province","country_id":34,"country_code":"BG","country_name":"Bulgaria","latitude":"42.08333000","longitude":"26.33333000","wikiDataId":"Q405440"}]