[{"id":63254,"Name":"Arashiyama","state_id":834,"state_code":"26","state_name":"Kyōto Prefecture","country_id":109,"country_code":"JP","country_name":"Japan","latitude":"35.01481000","longitude":"135.67755000","wikiDataId":"Q2859566"},{"id":63277,"Name":"Ayabe","state_id":834,"state_code":"26","state_name":"Kyōto Prefecture","country_id":109,"country_code":"JP","country_name":"Japan","latitude":"35.30000000","longitude":"135.25000000","wikiDataId":"Q694370"},{"id":63278,"Name":"Ayabe-shi","state_id":834,"state_code":"26","state_name":"Kyōto Prefecture","country_id":109,"country_code":"JP","country_name":"Japan","latitude":"35.35263000","longitude":"135.34465000","wikiDataId":"Q694370"},{"id":63361,"Name":"Fukuchiyama-shi","state_id":834,"state_code":"26","state_name":"Kyōto Prefecture","country_id":109,"country_code":"JP","country_name":"Japan","latitude":"35.32404000","longitude":"135.11332000","wikiDataId":"Q3355306"},{"id":63654,"Name":"Jōyō Shi","state_id":834,"state_code":"26","state_name":"Kyōto Prefecture","country_id":109,"country_code":"JP","country_name":"Japan","latitude":"34.84566000","longitude":"135.79760000","wikiDataId":"Q817276"},{"id":63683,"Name":"Kameoka","state_id":834,"state_code":"26","state_name":"Kyōto Prefecture","country_id":109,"country_code":"JP","country_name":"Japan","latitude":"35.00000000","longitude":"135.58333000","wikiDataId":"Q200267"},{"id":63684,"Name":"Kameoka-shi","state_id":834,"state_code":"26","state_name":"Kyōto Prefecture","country_id":109,"country_code":"JP","country_name":"Japan","latitude":"35.01021000","longitude":"135.53900000","wikiDataId":"Q633996"},{"id":63689,"Name":"Kamigyō-ku","state_id":834,"state_code":"26","state_name":"Kyōto Prefecture","country_id":109,"country_code":"JP","country_name":"Japan","latitude":"35.02954000","longitude":"135.75666000","wikiDataId":"Q1349094"},{"id":63817,"Name":"Kizugawa-shi","state_id":834,"state_code":"26","state_name":"Kyōto Prefecture","country_id":109,"country_code":"JP","country_name":"Japan","latitude":"34.73781000","longitude":"135.82128000","wikiDataId":"Q990352"},{"id":63891,"Name":"Kyōtanabe Shi","state_id":834,"state_code":"26","state_name":"Kyōto Prefecture","country_id":109,"country_code":"JP","country_name":"Japan","latitude":"34.80779000","longitude":"135.76300000","wikiDataId":"Q816728"},{"id":63892,"Name":"Kyōtango-shi","state_id":834,"state_code":"26","state_name":"Kyōto Prefecture","country_id":109,"country_code":"JP","country_name":"Japan","latitude":"35.63089000","longitude":"135.04785000","wikiDataId":"Q816728"},{"id":63890,"Name":"Kyoto","state_id":834,"state_code":"26","state_name":"Kyōto Prefecture","country_id":109,"country_code":"JP","country_name":"Japan","latitude":"35.02107000","longitude":"135.75385000","wikiDataId":"Q34600"},{"id":63912,"Name":"Maizuru","state_id":834,"state_code":"26","state_name":"Kyōto Prefecture","country_id":109,"country_code":"JP","country_name":"Japan","latitude":"35.45000000","longitude":"135.33333000","wikiDataId":"Q824020"},{"id":63913,"Name":"Maizuru-shi","state_id":834,"state_code":"26","state_name":"Kyōto Prefecture","country_id":109,"country_code":"JP","country_name":"Japan","latitude":"35.47009000","longitude":"135.34003000","wikiDataId":"Q750573"},{"id":64011,"Name":"Miyazu","state_id":834,"state_code":"26","state_name":"Kyōto Prefecture","country_id":109,"country_code":"JP","country_name":"Japan","latitude":"35.53333000","longitude":"135.18333000","wikiDataId":"Q846351"},{"id":64012,"Name":"Miyazu-shi","state_id":834,"state_code":"26","state_name":"Kyōto Prefecture","country_id":109,"country_code":"JP","country_name":"Japan","latitude":"35.55596000","longitude":"135.17662000","wikiDataId":"Q846351"},{"id":64043,"Name":"Mukō Shi","state_id":834,"state_code":"26","state_name":"Kyōto Prefecture","country_id":109,"country_code":"JP","country_name":"Japan","latitude":"34.94975000","longitude":"135.70269000","wikiDataId":"Q850640"},{"id":64068,"Name":"Nagaokakyō Shi","state_id":834,"state_code":"26","state_name":"Kyōto Prefecture","country_id":109,"country_code":"JP","country_name":"Japan","latitude":"34.92840000","longitude":"135.67881000","wikiDataId":"Q861246"},{"id":64102,"Name":"Nantan-shi","state_id":834,"state_code":"26","state_name":"Kyōto Prefecture","country_id":109,"country_code":"JP","country_name":"Japan","latitude":"35.22740000","longitude":"135.55939000","wikiDataId":"Q170421"},{"id":64463,"Name":"Tanabe","state_id":834,"state_code":"26","state_name":"Kyōto Prefecture","country_id":109,"country_code":"JP","country_name":"Japan","latitude":"34.82242000","longitude":"135.76604000","wikiDataId":"Q734400"},{"id":64584,"Name":"Uji","state_id":834,"state_code":"26","state_name":"Kyōto Prefecture","country_id":109,"country_code":"JP","country_name":"Japan","latitude":"34.89044000","longitude":"135.80325000","wikiDataId":"Q851030"},{"id":64585,"Name":"Uji Shi","state_id":834,"state_code":"26","state_name":"Kyōto Prefecture","country_id":109,"country_code":"JP","country_name":"Japan","latitude":"34.90296000","longitude":"135.82039000","wikiDataId":"Q326956"},{"id":64665,"Name":"Yawata","state_id":834,"state_code":"26","state_name":"Kyōto Prefecture","country_id":109,"country_code":"JP","country_name":"Japan","latitude":"34.87009000","longitude":"135.70270000","wikiDataId":"Q260923"},{"id":64666,"Name":"Yawata Shi","state_id":834,"state_code":"26","state_name":"Kyōto Prefecture","country_id":109,"country_code":"JP","country_name":"Japan","latitude":"34.86662000","longitude":"135.71470000","wikiDataId":"Q260923"}]