[{"id":65300,"Name":"Daegu","state_id":3846,"state_code":"27","state_name":"Daegu","country_id":116,"country_code":"KR","country_name":"South Korea","latitude":"35.87028000","longitude":"128.59111000","wikiDataId":"Q42148"},{"id":65302,"Name":"Dalseo-gu","state_id":3846,"state_code":"27","state_name":"Daegu","country_id":116,"country_code":"KR","country_name":"South Korea","latitude":"35.82569000","longitude":"128.52403000","wikiDataId":"Q50370"},{"id":65303,"Name":"Dalseong-gun","state_id":3846,"state_code":"27","state_name":"Daegu","country_id":116,"country_code":"KR","country_name":"South Korea","latitude":"35.77467000","longitude":"128.42955000","wikiDataId":"Q50239"},{"id":65307,"Name":"Dong-gu","state_id":3846,"state_code":"27","state_name":"Daegu","country_id":116,"country_code":"KR","country_name":"South Korea","latitude":"35.88566000","longitude":"128.63296000","wikiDataId":"Q50376"},{"id":65394,"Name":"Hwaw≈èn","state_id":3846,"state_code":"27","state_name":"Daegu","country_id":116,"country_code":"KR","country_name":"South Korea","latitude":"35.80167000","longitude":"128.50083000","wikiDataId":"Q42160"},{"id":65422,"Name":"Jung-gu","state_id":3846,"state_code":"27","state_name":"Daegu","country_id":116,"country_code":"KR","country_name":"South Korea","latitude":"35.86678000","longitude":"128.59538000","wikiDataId":"Q50438"},{"id":65485,"Name":"Seo-gu","state_id":3846,"state_code":"27","state_name":"Daegu","country_id":116,"country_code":"KR","country_name":"South Korea","latitude":"35.87465000","longitude":"128.55109000","wikiDataId":"Q50404"},{"id":65511,"Name":"Suseong-gu","state_id":3846,"state_code":"27","state_name":"Daegu","country_id":116,"country_code":"KR","country_name":"South Korea","latitude":"35.85905000","longitude":"128.62625000","wikiDataId":"Q50416"}]