[{"id":63220,"Name":"Aioi","state_id":831,"state_code":"28","state_name":"Hyōgo Prefecture","country_id":109,"country_code":"JP","country_name":"Japan","latitude":"34.80361000","longitude":"134.46806000","wikiDataId":"Q406318"},{"id":63221,"Name":"Aioi Shi","state_id":831,"state_code":"28","state_name":"Hyōgo Prefecture","country_id":109,"country_code":"JP","country_name":"Japan","latitude":"34.82719000","longitude":"134.46699000","wikiDataId":"Q406318"},{"id":63228,"Name":"Akashi","state_id":831,"state_code":"28","state_name":"Hyōgo Prefecture","country_id":109,"country_code":"JP","country_name":"Japan","latitude":"34.65524000","longitude":"135.00687000","wikiDataId":"Q26406"},{"id":63229,"Name":"Akashi Shi","state_id":831,"state_code":"28","state_name":"Hyōgo Prefecture","country_id":109,"country_code":"JP","country_name":"Japan","latitude":"34.68277000","longitude":"134.94029000","wikiDataId":"Q26406"},{"id":63238,"Name":"Amagasaki Shi","state_id":831,"state_code":"28","state_name":"Hyōgo Prefecture","country_id":109,"country_code":"JP","country_name":"Japan","latitude":"34.73544000","longitude":"135.41181000","wikiDataId":"Q213318"},{"id":63256,"Name":"Asago-shi","state_id":831,"state_code":"28","state_name":"Hyōgo Prefecture","country_id":109,"country_code":"JP","country_name":"Japan","latitude":"35.26249000","longitude":"134.82527000","wikiDataId":"Q720402"},{"id":63267,"Name":"Ashiya","state_id":831,"state_code":"28","state_name":"Hyōgo Prefecture","country_id":109,"country_code":"JP","country_name":"Japan","latitude":"34.72807000","longitude":"135.30264000","wikiDataId":"Q725514"},{"id":63268,"Name":"Ashiya Shi","state_id":831,"state_code":"28","state_name":"Hyōgo Prefecture","country_id":109,"country_code":"JP","country_name":"Japan","latitude":"34.74853000","longitude":"135.29759000","wikiDataId":"Q725514"},{"id":63275,"Name":"Awaji Shi","state_id":831,"state_code":"28","state_name":"Hyōgo Prefecture","country_id":109,"country_code":"JP","country_name":"Japan","latitude":"34.49749000","longitude":"134.91331000","wikiDataId":"Q373107"},{"id":63367,"Name":"Fukura","state_id":831,"state_code":"28","state_name":"Hyōgo Prefecture","country_id":109,"country_code":"JP","country_name":"Japan","latitude":"34.25765000","longitude":"134.71535000","wikiDataId":"Q26600"},{"id":63478,"Name":"Himeji","state_id":831,"state_code":"28","state_name":"Hyōgo Prefecture","country_id":109,"country_code":"JP","country_name":"Japan","latitude":"34.81667000","longitude":"134.70000000","wikiDataId":"Q209801"},{"id":63479,"Name":"Himeji Shi","state_id":831,"state_code":"28","state_name":"Hyōgo Prefecture","country_id":109,"country_code":"JP","country_name":"Japan","latitude":"34.90134000","longitude":"134.66316000","wikiDataId":"Q209801"},{"id":63608,"Name":"Itami","state_id":831,"state_code":"28","state_name":"Hyōgo Prefecture","country_id":109,"country_code":"JP","country_name":"Japan","latitude":"34.78427000","longitude":"135.40126000","wikiDataId":"Q840598"},{"id":63609,"Name":"Itami Shi","state_id":831,"state_code":"28","state_name":"Hyōgo Prefecture","country_id":109,"country_code":"JP","country_name":"Japan","latitude":"34.78675000","longitude":"135.40562000","wikiDataId":"Q335444"},{"id":63671,"Name":"Kakogawa Shi","state_id":831,"state_code":"28","state_name":"Hyōgo Prefecture","country_id":109,"country_code":"JP","country_name":"Japan","latitude":"34.78472000","longitude":"134.84897000","wikiDataId":"Q823988"},{"id":63672,"Name":"Kakogawachō-honmachi","state_id":831,"state_code":"28","state_name":"Hyōgo Prefecture","country_id":109,"country_code":"JP","country_name":"Japan","latitude":"34.76943000","longitude":"134.82905000","wikiDataId":"Q750569"},{"id":63724,"Name":"Kariya","state_id":831,"state_code":"28","state_name":"Hyōgo Prefecture","country_id":109,"country_code":"JP","country_name":"Japan","latitude":"34.75136000","longitude":"134.38734000","wikiDataId":"Q424813"},{"id":63726,"Name":"Kasai Shi","state_id":831,"state_code":"28","state_name":"Hyōgo Prefecture","country_id":109,"country_code":"JP","country_name":"Japan","latitude":"34.92476000","longitude":"134.85359000","wikiDataId":"Q851155"},{"id":63765,"Name":"Katō Shi","state_id":831,"state_code":"28","state_name":"Hyōgo Prefecture","country_id":109,"country_code":"JP","country_name":"Japan","latitude":"34.92714000","longitude":"135.02134000","wikiDataId":"Q877164"},{"id":63772,"Name":"Kawanishi","state_id":831,"state_code":"28","state_name":"Hyōgo Prefecture","country_id":109,"country_code":"JP","country_name":"Japan","latitude":"34.81667000","longitude":"135.41667000","wikiDataId":"Q609350"},{"id":63773,"Name":"Kawanishi Shi","state_id":831,"state_code":"28","state_name":"Hyōgo Prefecture","country_id":109,"country_code":"JP","country_name":"Japan","latitude":"34.87955000","longitude":"135.40919000","wikiDataId":"Q609350"},{"id":63820,"Name":"Kobe","state_id":831,"state_code":"28","state_name":"Hyōgo Prefecture","country_id":109,"country_code":"JP","country_name":"Japan","latitude":"34.69130000","longitude":"135.18300000","wikiDataId":"Q48320"},{"id":63953,"Name":"Miki","state_id":831,"state_code":"28","state_name":"Hyōgo Prefecture","country_id":109,"country_code":"JP","country_name":"Japan","latitude":"34.80000000","longitude":"134.98333000","wikiDataId":"Q31238"},{"id":63954,"Name":"Miki Shi","state_id":831,"state_code":"28","state_name":"Hyōgo Prefecture","country_id":109,"country_code":"JP","country_name":"Japan","latitude":"34.83553000","longitude":"135.05822000","wikiDataId":"Q31238"},{"id":63965,"Name":"Minamiawaji Shi","state_id":831,"state_code":"28","state_name":"Hyōgo Prefecture","country_id":109,"country_code":"JP","country_name":"Japan","latitude":"34.27530000","longitude":"134.76465000","wikiDataId":"Q869004"},{"id":64148,"Name":"Nishinomiya Shi","state_id":831,"state_code":"28","state_name":"Hyōgo Prefecture","country_id":109,"country_code":"JP","country_name":"Japan","latitude":"34.78194000","longitude":"135.30247000","wikiDataId":"Q243853"},{"id":64149,"Name":"Nishinomiya-hama","state_id":831,"state_code":"28","state_name":"Hyōgo Prefecture","country_id":109,"country_code":"JP","country_name":"Japan","latitude":"34.71562000","longitude":"135.33199000","wikiDataId":"Q243853"},{"id":64156,"Name":"Nishiwaki","state_id":831,"state_code":"28","state_name":"Hyōgo Prefecture","country_id":109,"country_code":"JP","country_name":"Japan","latitude":"34.98419000","longitude":"134.97407000","wikiDataId":"Q869020"},{"id":64157,"Name":"Nishiwaki-shi","state_id":831,"state_code":"28","state_name":"Hyōgo Prefecture","country_id":109,"country_code":"JP","country_name":"Japan","latitude":"35.01098000","longitude":"134.99650000","wikiDataId":"Q869020"},{"id":64208,"Name":"Ono","state_id":831,"state_code":"28","state_name":"Hyōgo Prefecture","country_id":109,"country_code":"JP","country_name":"Japan","latitude":"34.85000000","longitude":"134.93333000","wikiDataId":"Q911717"},{"id":64210,"Name":"Ono Shi","state_id":831,"state_code":"28","state_name":"Hyōgo Prefecture","country_id":109,"country_code":"JP","country_name":"Japan","latitude":"34.85750000","longitude":"134.95129000","wikiDataId":"Q385684"},{"id":64276,"Name":"Sanda Shi","state_id":831,"state_code":"28","state_name":"Hyōgo Prefecture","country_id":109,"country_code":"JP","country_name":"Japan","latitude":"34.95506000","longitude":"135.21660000","wikiDataId":"Q1153740"},{"id":64277,"Name":"Sandachō","state_id":831,"state_code":"28","state_name":"Hyōgo Prefecture","country_id":109,"country_code":"JP","country_name":"Japan","latitude":"34.88444000","longitude":"135.22694000","wikiDataId":"Q847607"},{"id":64288,"Name":"Sasayama","state_id":831,"state_code":"28","state_name":"Hyōgo Prefecture","country_id":109,"country_code":"JP","country_name":"Japan","latitude":"35.06667000","longitude":"135.21667000","wikiDataId":"Q1206130"},{"id":64289,"Name":"Sasayama-shi","state_id":831,"state_code":"28","state_name":"Hyōgo Prefecture","country_id":109,"country_code":"JP","country_name":"Japan","latitude":"35.07523000","longitude":"135.23087000","wikiDataId":"Q877169"},{"id":64352,"Name":"Shirahamachō-usazakiminami","state_id":831,"state_code":"28","state_name":"Hyōgo Prefecture","country_id":109,"country_code":"JP","country_name":"Japan","latitude":"34.78333000","longitude":"134.71667000","wikiDataId":"Q857272"},{"id":64363,"Name":"Shisō-shi","state_id":831,"state_code":"28","state_name":"Hyōgo Prefecture","country_id":109,"country_code":"JP","country_name":"Japan","latitude":"35.15466000","longitude":"134.54337000","wikiDataId":"Q877216"},{"id":64384,"Name":"Sumoto","state_id":831,"state_code":"28","state_name":"Hyōgo Prefecture","country_id":109,"country_code":"JP","country_name":"Japan","latitude":"34.34322000","longitude":"134.88911000","wikiDataId":"Q369628"},{"id":64385,"Name":"Sumoto Shi","state_id":831,"state_code":"28","state_name":"Hyōgo Prefecture","country_id":109,"country_code":"JP","country_name":"Japan","latitude":"34.34533000","longitude":"134.85858000","wikiDataId":"Q369628"},{"id":64418,"Name":"Taka-gun","state_id":831,"state_code":"28","state_name":"Hyōgo Prefecture","country_id":109,"country_code":"JP","country_name":"Japan","latitude":"35.08473000","longitude":"134.90474000","wikiDataId":"Q1155253"},{"id":64433,"Name":"Takarazuka","state_id":831,"state_code":"28","state_name":"Hyōgo Prefecture","country_id":109,"country_code":"JP","country_name":"Japan","latitude":"34.79936000","longitude":"135.35697000","wikiDataId":"Q823967"},{"id":64434,"Name":"Takarazuka Shi","state_id":831,"state_code":"28","state_name":"Hyōgo Prefecture","country_id":109,"country_code":"JP","country_name":"Japan","latitude":"34.86008000","longitude":"135.33197000","wikiDataId":"Q823967"},{"id":64435,"Name":"Takasago Shi","state_id":831,"state_code":"28","state_name":"Hyōgo Prefecture","country_id":109,"country_code":"JP","country_name":"Japan","latitude":"34.77796000","longitude":"134.78665000","wikiDataId":"Q823967"},{"id":64466,"Name":"Tanba-shi","state_id":831,"state_code":"28","state_name":"Hyōgo Prefecture","country_id":109,"country_code":"JP","country_name":"Japan","latitude":"35.17715000","longitude":"135.04972000","wikiDataId":"Q877196"},{"id":64477,"Name":"Tatsuno-shi","state_id":831,"state_code":"28","state_name":"Hyōgo Prefecture","country_id":109,"country_code":"JP","country_name":"Japan","latitude":"34.88804000","longitude":"134.51910000","wikiDataId":"Q877190"},{"id":64478,"Name":"Tatsunochō-tominaga","state_id":831,"state_code":"28","state_name":"Hyōgo Prefecture","country_id":109,"country_code":"JP","country_name":"Japan","latitude":"34.86437000","longitude":"134.55200000","wikiDataId":"Q877190"},{"id":64531,"Name":"Toyooka","state_id":831,"state_code":"28","state_name":"Hyōgo Prefecture","country_id":109,"country_code":"JP","country_name":"Japan","latitude":"35.54008000","longitude":"134.82038000","wikiDataId":"Q696388"},{"id":64532,"Name":"Toyooka-shi","state_id":831,"state_code":"28","state_name":"Hyōgo Prefecture","country_id":109,"country_code":"JP","country_name":"Japan","latitude":"35.51384000","longitude":"134.82724000","wikiDataId":"Q696388"},{"id":64627,"Name":"Yabu","state_id":831,"state_code":"28","state_name":"Hyōgo Prefecture","country_id":109,"country_code":"JP","country_name":"Japan","latitude":"35.40304000","longitude":"134.77118000","wikiDataId":"Q869014"},{"id":64628,"Name":"Yabu-shi","state_id":831,"state_code":"28","state_name":"Hyōgo Prefecture","country_id":109,"country_code":"JP","country_name":"Japan","latitude":"35.38333000","longitude":"134.81667000","wikiDataId":"Q869014"},{"id":64647,"Name":"Yamazakichō-nakabirose","state_id":831,"state_code":"28","state_name":"Hyōgo Prefecture","country_id":109,"country_code":"JP","country_name":"Japan","latitude":"35.00000000","longitude":"134.55000000","wikiDataId":"Q838669"},{"id":64658,"Name":"Yashiro","state_id":831,"state_code":"28","state_name":"Hyōgo Prefecture","country_id":109,"country_code":"JP","country_name":"Japan","latitude":"34.91667000","longitude":"134.96667000","wikiDataId":"Q869032"},{"id":64678,"Name":"Yonedacho Sendo","state_id":831,"state_code":"28","state_name":"Hyōgo Prefecture","country_id":109,"country_code":"JP","country_name":"Japan","latitude":"34.77560000","longitude":"134.82551000","wikiDataId":"Q320964"}]