[{"id":106930,"Name":"Béja","state_id":2572,"state_code":"31","state_name":"Kassrine","country_id":224,"country_code":"TN","country_name":"Tunisia","latitude":"36.72564000","longitude":"9.18169000","wikiDataId":"Q2737321"},{"id":106940,"Name":"Délégation de Béja Nord","state_id":2572,"state_code":"31","state_name":"Kassrine","country_id":224,"country_code":"TN","country_name":"Tunisia","latitude":"36.80353000","longitude":"9.24984000","wikiDataId":"Q814982"},{"id":106956,"Name":"Goubellat","state_id":2572,"state_code":"31","state_name":"Kassrine","country_id":224,"country_code":"TN","country_name":"Tunisia","latitude":"36.54178000","longitude":"9.66334000","wikiDataId":"Q2370331"},{"id":106986,"Name":"Medjez el Bab","state_id":2572,"state_code":"31","state_name":"Kassrine","country_id":224,"country_code":"TN","country_name":"Tunisia","latitude":"36.64964000","longitude":"9.61231000","wikiDataId":"Q1153895"},{"id":107031,"Name":"Tabursuq","state_id":2572,"state_code":"31","state_name":"Kassrine","country_id":224,"country_code":"TN","country_name":"Tunisia","latitude":"36.45692000","longitude":"9.24751000","wikiDataId":"Q1890362"},{"id":107035,"Name":"Testour","state_id":2572,"state_code":"31","state_name":"Kassrine","country_id":224,"country_code":"TN","country_name":"Tunisia","latitude":"36.55130000","longitude":"9.44307000","wikiDataId":"Q1250999"}]