[{"id":107094,"Name":"Aksu","state_id":2222,"state_code":"32","state_name":"Isparta","country_id":225,"country_code":"TR","country_name":"Turkey","latitude":"37.79889000","longitude":"31.07111000","wikiDataId":"Q182025"},{"id":107159,"Name":"Anamas","state_id":2222,"state_code":"32","state_name":"Isparta","country_id":225,"country_code":"TR","country_name":"Turkey","latitude":"37.76667000","longitude":"30.80000000","wikiDataId":"Q170532"},{"id":107204,"Name":"Atabey","state_id":2222,"state_code":"32","state_name":"Isparta","country_id":225,"country_code":"TR","country_name":"Turkey","latitude":"37.95083000","longitude":"30.63861000","wikiDataId":"Q2534870"},{"id":107627,"Name":"Eğirdir","state_id":2222,"state_code":"32","state_name":"Isparta","country_id":225,"country_code":"TR","country_name":"Turkey","latitude":"37.87462000","longitude":"30.85042000","wikiDataId":"Q1023322"},{"id":107653,"Name":"Gelendost","state_id":2222,"state_code":"32","state_name":"Isparta","country_id":225,"country_code":"TR","country_name":"Turkey","latitude":"38.12083000","longitude":"31.01528000","wikiDataId":"Q206116"},{"id":107707,"Name":"Gönen","state_id":2222,"state_code":"32","state_name":"Isparta","country_id":225,"country_code":"TR","country_name":"Turkey","latitude":"37.95639000","longitude":"30.51140000","wikiDataId":"Q1559368"},{"id":107850,"Name":"Isparta","state_id":2222,"state_code":"32","state_name":"Isparta","country_id":225,"country_code":"TR","country_name":"Turkey","latitude":"37.76444000","longitude":"30.55222000","wikiDataId":"Q171031"},{"id":107989,"Name":"Keçiborlu","state_id":2222,"state_code":"32","state_name":"Isparta","country_id":225,"country_code":"TR","country_name":"Turkey","latitude":"37.94250000","longitude":"30.30222000","wikiDataId":"Q2607431"},{"id":108318,"Name":"Pavlu Cebel","state_id":2222,"state_code":"32","state_name":"Isparta","country_id":225,"country_code":"TR","country_name":"Turkey","latitude":"37.49737000","longitude":"30.97727000","wikiDataId":"Q509324"},{"id":108935,"Name":"Şarkîkaraağaç","state_id":2222,"state_code":"32","state_name":"Isparta","country_id":225,"country_code":"TR","country_name":"Turkey","latitude":"38.07944000","longitude":"31.36639000","wikiDataId":"Q1190403"},{"id":108436,"Name":"Senirkent","state_id":2222,"state_code":"32","state_name":"Isparta","country_id":225,"country_code":"TR","country_name":"Turkey","latitude":"38.10444000","longitude":"30.54861000","wikiDataId":"Q876176"},{"id":108526,"Name":"Sütçüler İlçesi","state_id":2222,"state_code":"32","state_name":"Isparta","country_id":225,"country_code":"TR","country_name":"Turkey","latitude":"37.51120000","longitude":"30.95661000","wikiDataId":"Q1783527"},{"id":108624,"Name":"Uluborlu","state_id":2222,"state_code":"32","state_name":"Isparta","country_id":225,"country_code":"TR","country_name":"Turkey","latitude":"38.07825000","longitude":"30.45019000","wikiDataId":"Q14510650"},{"id":108666,"Name":"Yalvaç","state_id":2222,"state_code":"32","state_name":"Isparta","country_id":225,"country_code":"TR","country_name":"Turkey","latitude":"38.29556000","longitude":"31.17778000","wikiDataId":"Q2577943"},{"id":108712,"Name":"Yenişarbademli","state_id":2222,"state_code":"32","state_name":"Isparta","country_id":225,"country_code":"TR","country_name":"Turkey","latitude":"37.70778000","longitude":"31.38639000","wikiDataId":"Q4817064"}]