[{"id":66587,"Name":"Birzai","state_id":1614,"state_code":"33","state_name":"Panevėžys District Municipality","country_id":126,"country_code":"LT","country_name":"Lithuania","latitude":"56.20000000","longitude":"24.75000000","wikiDataId":"Q804035"},{"id":66608,"Name":"Juodupė","state_id":1614,"state_code":"33","state_name":"Panevėžys District Municipality","country_id":126,"country_code":"LT","country_name":"Lithuania","latitude":"56.08700000","longitude":"25.60700000","wikiDataId":"Q6314474"},{"id":66625,"Name":"Kupiskis","state_id":1614,"state_code":"33","state_name":"Panevėžys District Municipality","country_id":126,"country_code":"LT","country_name":"Lithuania","latitude":"55.84027000","longitude":"24.97976000","wikiDataId":"Q27484028"},{"id":66646,"Name":"Obeliai","state_id":1614,"state_code":"33","state_name":"Panevėžys District Municipality","country_id":126,"country_code":"LT","country_name":"Lithuania","latitude":"55.96895000","longitude":"25.15648000","wikiDataId":"Q1004306"},{"id":66651,"Name":"Panevėžys","state_id":1614,"state_code":"33","state_name":"Panevėžys District Municipality","country_id":126,"country_code":"LT","country_name":"Lithuania","latitude":"55.73333000","longitude":"24.35000000","wikiDataId":"Q1719466"},{"id":66652,"Name":"Panevėžys City","state_id":1614,"state_code":"33","state_name":"Panevėžys District Municipality","country_id":126,"country_code":"LT","country_name":"Lithuania","latitude":"55.73600000","longitude":"24.34347000","wikiDataId":"Q1719466"},{"id":66653,"Name":"Panevėžys District Municipality","state_id":1614,"state_code":"33","state_name":"Panevėžys District Municipality","country_id":126,"country_code":"LT","country_name":"Lithuania","latitude":"55.73301000","longitude":"24.37609000","wikiDataId":"Q1351758"},{"id":66654,"Name":"Pasvalys","state_id":1614,"state_code":"33","state_name":"Panevėžys District Municipality","country_id":126,"country_code":"LT","country_name":"Lithuania","latitude":"56.06667000","longitude":"24.40000000","wikiDataId":"Q1351758"},{"id":66665,"Name":"Ramygala","state_id":1614,"state_code":"33","state_name":"Panevėžys District Municipality","country_id":126,"country_code":"LT","country_name":"Lithuania","latitude":"55.51400000","longitude":"24.30000000","wikiDataId":"Q2089619"},{"id":66669,"Name":"Rokiškis","state_id":1614,"state_code":"33","state_name":"Panevėžys District Municipality","country_id":126,"country_code":"LT","country_name":"Lithuania","latitude":"55.96667000","longitude":"25.58333000","wikiDataId":"Q712011"},{"id":66692,"Name":"Vabalninkas","state_id":1614,"state_code":"33","state_name":"Panevėžys District Municipality","country_id":126,"country_code":"LT","country_name":"Lithuania","latitude":"55.98151000","longitude":"24.74828000","wikiDataId":"Q2000579"}]