[{"id":105265,"Name":"Amphoe Buntharik","state_id":3512,"state_code":"34","state_name":"Ubon Ratchathani","country_id":219,"country_code":"TH","country_name":"Thailand","latitude":"14.70495000","longitude":"105.40444000","wikiDataId":"Q475309"},{"id":105322,"Name":"Amphoe Det Udom","state_id":3512,"state_code":"34","state_name":"Ubon Ratchathani","country_id":219,"country_code":"TH","country_name":"Thailand","latitude":"14.85153000","longitude":"105.07511000","wikiDataId":"Q475453"},{"id":105331,"Name":"Amphoe Don Mot Daeng","state_id":3512,"state_code":"34","state_name":"Ubon Ratchathani","country_id":219,"country_code":"TH","country_name":"Thailand","latitude":"15.37694000","longitude":"105.02107000","wikiDataId":"Q475473"},{"id":105401,"Name":"Amphoe Khemmarat","state_id":3512,"state_code":"34","state_name":"Ubon Ratchathani","country_id":219,"country_code":"TH","country_name":"Thailand","latitude":"15.97114000","longitude":"105.15168000","wikiDataId":"Q475677"},{"id":105424,"Name":"Amphoe Khong Chiam","state_id":3512,"state_code":"34","state_name":"Ubon Ratchathani","country_id":219,"country_code":"TH","country_name":"Thailand","latitude":"15.45432000","longitude":"105.50363000","wikiDataId":"Q475744"},{"id":105430,"Name":"Amphoe Khueang Nai","state_id":3512,"state_code":"34","state_name":"Ubon Ratchathani","country_id":219,"country_code":"TH","country_name":"Thailand","latitude":"15.39097000","longitude":"104.54363000","wikiDataId":"Q475756"},{"id":105466,"Name":"Amphoe Kut Khaopun","state_id":3512,"state_code":"34","state_name":"Ubon Ratchathani","country_id":219,"country_code":"TH","country_name":"Thailand","latitude":"15.81907000","longitude":"105.04066000","wikiDataId":"Q475855"},{"id":105485,"Name":"Amphoe Lao Suea Kok","state_id":3512,"state_code":"34","state_name":"Ubon Ratchathani","country_id":219,"country_code":"TH","country_name":"Thailand","latitude":"15.43952000","longitude":"104.91662000","wikiDataId":"Q475896"},{"id":105530,"Name":"Amphoe Muang Sam Sip","state_id":3512,"state_code":"34","state_name":"Ubon Ratchathani","country_id":219,"country_code":"TH","country_name":"Thailand","latitude":"15.52637000","longitude":"104.71661000","wikiDataId":"Q475997"},{"id":105600,"Name":"Amphoe Mueang Ubon Ratchathani","state_id":3512,"state_code":"34","state_name":"Ubon Ratchathani","country_id":219,"country_code":"TH","country_name":"Thailand","latitude":"15.29662000","longitude":"104.83052000","wikiDataId":"Q476105"},{"id":105608,"Name":"Amphoe Na Chaluai","state_id":3512,"state_code":"34","state_name":"Ubon Ratchathani","country_id":219,"country_code":"TH","country_name":"Thailand","latitude":"14.56695000","longitude":"105.22367000","wikiDataId":"Q476120"},{"id":105622,"Name":"Amphoe Na Tan","state_id":3512,"state_code":"34","state_name":"Ubon Ratchathani","country_id":219,"country_code":"TH","country_name":"Thailand","latitude":"15.93485000","longitude":"105.28454000","wikiDataId":"Q180037"},{"id":105628,"Name":"Amphoe Na Yia","state_id":3512,"state_code":"34","state_name":"Ubon Ratchathani","country_id":219,"country_code":"TH","country_name":"Thailand","latitude":"15.04140000","longitude":"105.05729000","wikiDataId":"Q476160"},{"id":105634,"Name":"Amphoe Nam Khun","state_id":3512,"state_code":"34","state_name":"Ubon Ratchathani","country_id":219,"country_code":"TH","country_name":"Thailand","latitude":"14.55508000","longitude":"104.89872000","wikiDataId":"Q476179"},{"id":105640,"Name":"Amphoe Nam Yuen","state_id":3512,"state_code":"34","state_name":"Ubon Ratchathani","country_id":219,"country_code":"TH","country_name":"Thailand","latitude":"14.48671000","longitude":"105.00269000","wikiDataId":"Q476197"},{"id":105738,"Name":"Amphoe Phibun Mangsahan","state_id":3512,"state_code":"34","state_name":"Ubon Ratchathani","country_id":219,"country_code":"TH","country_name":"Thailand","latitude":"15.14589000","longitude":"105.24094000","wikiDataId":"Q476398"},{"id":105746,"Name":"Amphoe Pho Sai","state_id":3512,"state_code":"34","state_name":"Ubon Ratchathani","country_id":219,"country_code":"TH","country_name":"Thailand","latitude":"15.76739000","longitude":"105.34339000","wikiDataId":"Q476411"},{"id":106180,"Name":"Amphoe Samrong","state_id":3512,"state_code":"34","state_name":"Ubon Ratchathani","country_id":219,"country_code":"TH","country_name":"Thailand","latitude":"14.98532000","longitude":"104.79139000","wikiDataId":"Q476616"},{"id":106202,"Name":"Amphoe Sawang Wirawong","state_id":3512,"state_code":"34","state_name":"Ubon Ratchathani","country_id":219,"country_code":"TH","country_name":"Thailand","latitude":"15.23439000","longitude":"105.07600000","wikiDataId":"Q476668"},{"id":106216,"Name":"Amphoe Si Mueang Mai","state_id":3512,"state_code":"34","state_name":"Ubon Ratchathani","country_id":219,"country_code":"TH","country_name":"Thailand","latitude":"15.56297000","longitude":"105.34830000","wikiDataId":"Q476696"},{"id":106238,"Name":"Amphoe Sirindhorn","state_id":3512,"state_code":"34","state_name":"Ubon Ratchathani","country_id":219,"country_code":"TH","country_name":"Thailand","latitude":"15.11249000","longitude":"105.42837000","wikiDataId":"Q476744"},{"id":106267,"Name":"Amphoe Tan Sum","state_id":3512,"state_code":"34","state_name":"Ubon Ratchathani","country_id":219,"country_code":"TH","country_name":"Thailand","latitude":"15.39035000","longitude":"105.16273000","wikiDataId":"Q476810"},{"id":106316,"Name":"Amphoe Thung Si Udom","state_id":3512,"state_code":"34","state_name":"Ubon Ratchathani","country_id":219,"country_code":"TH","country_name":"Thailand","latitude":"14.73936000","longitude":"104.91731000","wikiDataId":"Q476945"},{"id":106322,"Name":"Amphoe Trakan Phuet Phon","state_id":3512,"state_code":"34","state_name":"Ubon Ratchathani","country_id":219,"country_code":"TH","country_name":"Thailand","latitude":"15.61360000","longitude":"105.06444000","wikiDataId":"Q476964"},{"id":106353,"Name":"Amphoe Warin Chamrap","state_id":3512,"state_code":"34","state_name":"Ubon Ratchathani","country_id":219,"country_code":"TH","country_name":"Thailand","latitude":"15.12394000","longitude":"104.87499000","wikiDataId":"Q477043"},{"id":106488,"Name":"Det Udom","state_id":3512,"state_code":"34","state_name":"Ubon Ratchathani","country_id":219,"country_code":"TH","country_name":"Thailand","latitude":"14.90598000","longitude":"105.07836000","wikiDataId":"Q15310409"},{"id":106633,"Name":"Phibun Mangsahan","state_id":3512,"state_code":"34","state_name":"Ubon Ratchathani","country_id":219,"country_code":"TH","country_name":"Thailand","latitude":"15.24467000","longitude":"105.22908000","wikiDataId":"Q13025382"},{"id":106694,"Name":"Sawang Wirawong","state_id":3512,"state_code":"34","state_name":"Ubon Ratchathani","country_id":219,"country_code":"TH","country_name":"Thailand","latitude":"15.24158000","longitude":"105.09220000","wikiDataId":"Q28732194"},{"id":106737,"Name":"Ubon Ratchathani","state_id":3512,"state_code":"34","state_name":"Ubon Ratchathani","country_id":219,"country_code":"TH","country_name":"Thailand","latitude":"15.23844000","longitude":"104.84866000","wikiDataId":"Q132179"},{"id":106750,"Name":"Warin Chamrap","state_id":3512,"state_code":"34","state_name":"Ubon Ratchathani","country_id":219,"country_code":"TH","country_name":"Thailand","latitude":"15.19319000","longitude":"104.86280000","wikiDataId":"Q13025393"}]