[{"id":79706,"Name":"Bhadrapur","state_id":2069,"state_code":"4","state_name":"Eastern Development Region","country_id":154,"country_code":"NP","country_name":"Nepal","latitude":"26.54404000","longitude":"88.09436000","wikiDataId":"Q1751446"},{"id":79709,"Name":"Bhojpur","state_id":2069,"state_code":"4","state_name":"Eastern Development Region","country_id":154,"country_code":"NP","country_name":"Nepal","latitude":"27.17150000","longitude":"87.04607000","wikiDataId":"Q2900702"},{"id":79711,"Name":"Biratnagar","state_id":2069,"state_code":"4","state_name":"Eastern Development Region","country_id":154,"country_code":"NP","country_name":"Nepal","latitude":"26.45505000","longitude":"87.27007000","wikiDataId":"Q8247"},{"id":79720,"Name":"Dhankutā","state_id":2069,"state_code":"4","state_name":"Eastern Development Region","country_id":154,"country_code":"NP","country_name":"Nepal","latitude":"26.98333000","longitude":"87.33333000","wikiDataId":"Q1530717"},{"id":79721,"Name":"Dharān","state_id":2069,"state_code":"4","state_name":"Eastern Development Region","country_id":154,"country_code":"NP","country_name":"Nepal","latitude":"26.81436000","longitude":"87.27972000","wikiDataId":"Q8254"},{"id":79730,"Name":"Ilām","state_id":2069,"state_code":"4","state_name":"Eastern Development Region","country_id":154,"country_code":"NP","country_name":"Nepal","latitude":"26.90943000","longitude":"87.92824000","wikiDataId":"Q950072"},{"id":79731,"Name":"Inaruwa","state_id":2069,"state_code":"4","state_name":"Eastern Development Region","country_id":154,"country_code":"NP","country_name":"Nepal","latitude":"26.60675000","longitude":"87.14780000","wikiDataId":"Q2465447"},{"id":79736,"Name":"Khanbari","state_id":2069,"state_code":"4","state_name":"Eastern Development Region","country_id":154,"country_code":"NP","country_name":"Nepal","latitude":"27.37604000","longitude":"87.20767000","wikiDataId":"Q1740554"},{"id":79738,"Name":"Lahān","state_id":2069,"state_code":"4","state_name":"Eastern Development Region","country_id":154,"country_code":"NP","country_name":"Nepal","latitude":"26.72022000","longitude":"86.48258000","wikiDataId":"Q1748922"},{"id":79739,"Name":"Lobujya","state_id":2069,"state_code":"4","state_name":"Eastern Development Region","country_id":154,"country_code":"NP","country_name":"Nepal","latitude":"27.95000000","longitude":"86.81667000","wikiDataId":"Q3294611"},{"id":79744,"Name":"Namche Bazar","state_id":2069,"state_code":"4","state_name":"Eastern Development Region","country_id":154,"country_code":"NP","country_name":"Nepal","latitude":"27.80528000","longitude":"86.71058000","wikiDataId":"Q376123"},{"id":79750,"Name":"Rājbirāj","state_id":2069,"state_code":"4","state_name":"Eastern Development Region","country_id":154,"country_code":"NP","country_name":"Nepal","latitude":"26.53968000","longitude":"86.74796000","wikiDataId":"Q2463109"},{"id":79753,"Name":"Siraha","state_id":2069,"state_code":"4","state_name":"Eastern Development Region","country_id":154,"country_code":"NP","country_name":"Nepal","latitude":"26.65422000","longitude":"86.20795000","wikiDataId":"Q1930452"},{"id":79754,"Name":"Titahari","state_id":2069,"state_code":"4","state_name":"Eastern Development Region","country_id":154,"country_code":"NP","country_name":"Nepal","latitude":"26.66371000","longitude":"87.27403000","wikiDataId":"Q1675026"},{"id":79755,"Name":"Triyuga","state_id":2069,"state_code":"4","state_name":"Eastern Development Region","country_id":154,"country_code":"NP","country_name":"Nepal","latitude":"26.79190000","longitude":"86.69900000","wikiDataId":"Q1675026"}]