[{"id":65262,"Name":"Ansan-si","state_id":3847,"state_code":"41","state_name":"Gyeonggi Province","country_id":116,"country_code":"KR","country_name":"South Korea","latitude":"37.32361000","longitude":"126.82194000","wikiDataId":"Q42117"},{"id":65263,"Name":"Anseong","state_id":3847,"state_code":"41","state_name":"Gyeonggi Province","country_id":116,"country_code":"KR","country_name":"South Korea","latitude":"37.01083000","longitude":"127.27028000","wikiDataId":"Q42119"},{"id":65264,"Name":"Anyang-si","state_id":3847,"state_code":"41","state_name":"Gyeonggi Province","country_id":116,"country_code":"KR","country_name":"South Korea","latitude":"37.39250000","longitude":"126.92694000","wikiDataId":"Q42119"},{"id":65274,"Name":"Bucheon-si","state_id":3847,"state_code":"41","state_name":"Gyeonggi Province","country_id":116,"country_code":"KR","country_name":"South Korea","latitude":"37.50440000","longitude":"126.76625000","wikiDataId":"Q42099"},{"id":65310,"Name":"Dongducheon","state_id":3847,"state_code":"41","state_name":"Gyeonggi Province","country_id":116,"country_code":"KR","country_name":"South Korea","latitude":"37.91889000","longitude":"127.06897000","wikiDataId":"Q50382"},{"id":65326,"Name":"Gapyeong","state_id":3847,"state_code":"41","state_name":"Gyeonggi Province","country_id":116,"country_code":"KR","country_name":"South Korea","latitude":"37.83101000","longitude":"127.51059000","wikiDataId":"Q50191"},{"id":65327,"Name":"Gapyeong-gun","state_id":3847,"state_code":"41","state_name":"Gyeonggi Province","country_id":116,"country_code":"KR","country_name":"South Korea","latitude":"37.83080000","longitude":"127.51522000","wikiDataId":"Q50203"},{"id":65339,"Name":"Gimpo-si","state_id":3847,"state_code":"41","state_name":"Gyeonggi Province","country_id":116,"country_code":"KR","country_name":"South Korea","latitude":"37.63637000","longitude":"126.69270000","wikiDataId":"Q42080"},{"id":65350,"Name":"Goyang-si","state_id":3847,"state_code":"41","state_name":"Gyeonggi Province","country_id":116,"country_code":"KR","country_name":"South Korea","latitude":"37.65639000","longitude":"126.83500000","wikiDataId":"Q42061"},{"id":65352,"Name":"Gunpo-si","state_id":3847,"state_code":"41","state_name":"Gyeonggi Province","country_id":116,"country_code":"KR","country_name":"South Korea","latitude":"37.34261000","longitude":"126.92149000","wikiDataId":"Q42073"},{"id":65356,"Name":"Guri-si","state_id":3847,"state_code":"41","state_name":"Gyeonggi Province","country_id":116,"country_code":"KR","country_name":"South Korea","latitude":"37.59860000","longitude":"127.13940000","wikiDataId":"Q42071"},{"id":65359,"Name":"Gwacheon-si","state_id":3847,"state_code":"41","state_name":"Gyeonggi Province","country_id":116,"country_code":"KR","country_name":"South Korea","latitude":"37.43407000","longitude":"126.99989000","wikiDataId":"Q50214"},{"id":65363,"Name":"Gwangju","state_id":3847,"state_code":"41","state_name":"Gyeonggi Province","country_id":116,"country_code":"KR","country_name":"South Korea","latitude":"37.41000000","longitude":"127.25722000","wikiDataId":"Q42069"},{"id":65364,"Name":"Gwangju-si","state_id":3847,"state_code":"41","state_name":"Gyeonggi Province","country_id":116,"country_code":"KR","country_name":"South Korea","latitude":"37.40329000","longitude":"127.29855000","wikiDataId":"Q42069"},{"id":65365,"Name":"Gwangmyeong-si","state_id":3847,"state_code":"41","state_name":"Gyeonggi Province","country_id":116,"country_code":"KR","country_name":"South Korea","latitude":"37.44435000","longitude":"126.86499000","wikiDataId":"Q42066"},{"id":65378,"Name":"Hanam","state_id":3847,"state_code":"41","state_name":"Gyeonggi Province","country_id":116,"country_code":"KR","country_name":"South Korea","latitude":"37.54000000","longitude":"127.20556000","wikiDataId":"Q42159"},{"id":65379,"Name":"Hanam-si","state_id":3847,"state_code":"41","state_name":"Gyeonggi Province","country_id":116,"country_code":"KR","country_name":"South Korea","latitude":"37.53895000","longitude":"127.21250000","wikiDataId":"Q42159"},{"id":65390,"Name":"Hwado","state_id":3847,"state_code":"41","state_name":"Gyeonggi Province","country_id":116,"country_code":"KR","country_name":"South Korea","latitude":"37.65250000","longitude":"127.30750000","wikiDataId":"Q50346"},{"id":65391,"Name":"Hwaseong-si","state_id":3847,"state_code":"41","state_name":"Gyeonggi Province","country_id":116,"country_code":"KR","country_name":"South Korea","latitude":"37.20682000","longitude":"126.81690000","wikiDataId":"Q42160"},{"id":65395,"Name":"Icheon-si","state_id":3847,"state_code":"41","state_name":"Gyeonggi Province","country_id":116,"country_code":"KR","country_name":"South Korea","latitude":"37.27642000","longitude":"127.43692000","wikiDataId":"Q42136"},{"id":65433,"Name":"Kwangmyŏng","state_id":3847,"state_code":"41","state_name":"Gyeonggi Province","country_id":116,"country_code":"KR","country_name":"South Korea","latitude":"37.47722000","longitude":"126.86639000","wikiDataId":"Q42077"},{"id":65448,"Name":"Munsan","state_id":3847,"state_code":"41","state_name":"Gyeonggi Province","country_id":116,"country_code":"KR","country_name":"South Korea","latitude":"37.85944000","longitude":"126.78500000","wikiDataId":"Q42095"},{"id":65456,"Name":"Namyangju","state_id":3847,"state_code":"41","state_name":"Gyeonggi Province","country_id":116,"country_code":"KR","country_name":"South Korea","latitude":"37.63667000","longitude":"127.21417000","wikiDataId":"Q50364"},{"id":65457,"Name":"Namyangju-si","state_id":3847,"state_code":"41","state_name":"Gyeonggi Province","country_id":116,"country_code":"KR","country_name":"South Korea","latitude":"37.65217000","longitude":"127.24010000","wikiDataId":"Q42084"},{"id":65465,"Name":"Osan","state_id":3847,"state_code":"41","state_name":"Gyeonggi Province","country_id":116,"country_code":"KR","country_name":"South Korea","latitude":"37.15222000","longitude":"127.07056000","wikiDataId":"Q42129"},{"id":65466,"Name":"Osan-si","state_id":3847,"state_code":"41","state_name":"Gyeonggi Province","country_id":116,"country_code":"KR","country_name":"South Korea","latitude":"37.16230000","longitude":"127.05246000","wikiDataId":"Q42129"},{"id":65467,"Name":"Paju-si","state_id":3847,"state_code":"41","state_name":"Gyeonggi Province","country_id":116,"country_code":"KR","country_name":"South Korea","latitude":"37.75952000","longitude":"126.77772000","wikiDataId":"Q42153"},{"id":65468,"Name":"Pocheon-si","state_id":3847,"state_code":"41","state_name":"Gyeonggi Province","country_id":116,"country_code":"KR","country_name":"South Korea","latitude":"37.89370000","longitude":"127.20028000","wikiDataId":"Q42155"},{"id":65472,"Name":"Pubal","state_id":3847,"state_code":"41","state_name":"Gyeonggi Province","country_id":116,"country_code":"KR","country_name":"South Korea","latitude":"37.29167000","longitude":"127.50778000","wikiDataId":"Q42157"},{"id":65475,"Name":"Pyeongtaek","state_id":3847,"state_code":"41","state_name":"Gyeonggi Province","country_id":116,"country_code":"KR","country_name":"South Korea","latitude":"37.01372000","longitude":"126.98748000","wikiDataId":"Q42154"},{"id":65495,"Name":"Seongnam-si","state_id":3847,"state_code":"41","state_name":"Gyeonggi Province","country_id":116,"country_code":"KR","country_name":"South Korea","latitude":"37.41875000","longitude":"127.12877000","wikiDataId":"Q42108"},{"id":65499,"Name":"Siheung","state_id":3847,"state_code":"41","state_name":"Gyeonggi Province","country_id":116,"country_code":"KR","country_name":"South Korea","latitude":"37.39067000","longitude":"126.78880000","wikiDataId":"Q42113"},{"id":65512,"Name":"Suwon","state_id":3847,"state_code":"41","state_name":"Gyeonggi Province","country_id":116,"country_code":"KR","country_name":"South Korea","latitude":"37.29111000","longitude":"127.00889000","wikiDataId":"Q20714"},{"id":65520,"Name":"Uijeongbu-si","state_id":3847,"state_code":"41","state_name":"Gyeonggi Province","country_id":116,"country_code":"KR","country_name":"South Korea","latitude":"37.73865000","longitude":"127.04770000","wikiDataId":"Q42135"},{"id":65523,"Name":"Uiwang-si","state_id":3847,"state_code":"41","state_name":"Gyeonggi Province","country_id":116,"country_code":"KR","country_name":"South Korea","latitude":"37.34500000","longitude":"126.97575000","wikiDataId":"Q42134"},{"id":65529,"Name":"Wabu","state_id":3847,"state_code":"41","state_name":"Gyeonggi Province","country_id":116,"country_code":"KR","country_name":"South Korea","latitude":"37.58972000","longitude":"127.22028000","wikiDataId":"Q485570"},{"id":65538,"Name":"Yangju","state_id":3847,"state_code":"41","state_name":"Gyeonggi Province","country_id":116,"country_code":"KR","country_name":"South Korea","latitude":"37.83311000","longitude":"127.06169000","wikiDataId":"Q42124"},{"id":65539,"Name":"Yangju-si","state_id":3847,"state_code":"41","state_name":"Gyeonggi Province","country_id":116,"country_code":"KR","country_name":"South Korea","latitude":"37.81732000","longitude":"127.04600000","wikiDataId":"Q42124"},{"id":65540,"Name":"Yangp'yŏng","state_id":3847,"state_code":"41","state_name":"Gyeonggi Province","country_id":116,"country_code":"KR","country_name":"South Korea","latitude":"37.48972000","longitude":"127.49056000","wikiDataId":"Q42124"},{"id":65541,"Name":"Yangpyeong-gun","state_id":3847,"state_code":"41","state_name":"Gyeonggi Province","country_id":116,"country_code":"KR","country_name":"South Korea","latitude":"37.48880000","longitude":"127.49222000","wikiDataId":"Q50255"},{"id":65545,"Name":"Yeoju-si","state_id":3847,"state_code":"41","state_name":"Gyeonggi Province","country_id":116,"country_code":"KR","country_name":"South Korea","latitude":"37.29562000","longitude":"127.63668000","wikiDataId":"Q50257"},{"id":65546,"Name":"Yeoncheon-gun","state_id":3847,"state_code":"41","state_name":"Gyeonggi Province","country_id":116,"country_code":"KR","country_name":"South Korea","latitude":"38.09404000","longitude":"127.07577000","wikiDataId":"Q50258"},{"id":65564,"Name":"Yongin-si","state_id":3847,"state_code":"41","state_name":"Gyeonggi Province","country_id":116,"country_code":"KR","country_name":"South Korea","latitude":"37.23825000","longitude":"127.17795000","wikiDataId":"Q18459"}]