[{"id":22106,"Name":"Abertamy","state_id":4581,"state_code":"41","state_name":"Karlovarský kraj","country_id":58,"country_code":"CZ","country_name":"Czech Republic","latitude":"50.36874000","longitude":"12.81826000","wikiDataId":"Q319731"},{"id":22110,"Name":"Aš","state_id":4581,"state_code":"41","state_name":"Karlovarský kraj","country_id":58,"country_code":"CZ","country_name":"Czech Republic","latitude":"50.22387000","longitude":"12.19499000","wikiDataId":"Q583910"},{"id":22137,"Name":"Bochov","state_id":4581,"state_code":"41","state_name":"Karlovarský kraj","country_id":58,"country_code":"CZ","country_name":"Czech Republic","latitude":"50.14872000","longitude":"13.05227000","wikiDataId":"Q512631"},{"id":22209,"Name":"Březová","state_id":4581,"state_code":"41","state_name":"Karlovarský kraj","country_id":58,"country_code":"CZ","country_name":"Czech Republic","latitude":"50.14557000","longitude":"12.64996000","wikiDataId":"Q647921"},{"id":22178,"Name":"Bukovany","state_id":4581,"state_code":"41","state_name":"Karlovarský kraj","country_id":58,"country_code":"CZ","country_name":"Czech Republic","latitude":"50.16632000","longitude":"12.57265000","wikiDataId":"Q1003333"},{"id":22217,"Name":"Cheb","state_id":4581,"state_code":"41","state_name":"Karlovarský kraj","country_id":58,"country_code":"CZ","country_name":"Czech Republic","latitude":"50.07963000","longitude":"12.37392000","wikiDataId":"Q193719"},{"id":22224,"Name":"Chodov","state_id":4581,"state_code":"41","state_name":"Karlovarský kraj","country_id":58,"country_code":"CZ","country_name":"Czech Republic","latitude":"50.24018000","longitude":"12.74551000","wikiDataId":"Q999937"},{"id":22248,"Name":"Dalovice","state_id":4581,"state_code":"41","state_name":"Karlovarský kraj","country_id":58,"country_code":"CZ","country_name":"Czech Republic","latitude":"50.24779000","longitude":"12.89581000","wikiDataId":"Q1158072"},{"id":22292,"Name":"Dolní Rychnov","state_id":4581,"state_code":"41","state_name":"Karlovarský kraj","country_id":58,"country_code":"CZ","country_name":"Czech Republic","latitude":"50.16462000","longitude":"12.64507000","wikiDataId":"Q1236215"},{"id":22299,"Name":"Dolní Žandov","state_id":4581,"state_code":"41","state_name":"Karlovarský kraj","country_id":58,"country_code":"CZ","country_name":"Czech Republic","latitude":"50.01794000","longitude":"12.55101000","wikiDataId":"Q907946"},{"id":22326,"Name":"Františkovy Lázně","state_id":4581,"state_code":"41","state_name":"Karlovarský kraj","country_id":58,"country_code":"CZ","country_name":"Czech Republic","latitude":"50.12033000","longitude":"12.35174000","wikiDataId":"Q756581"},{"id":22337,"Name":"Habartov","state_id":4581,"state_code":"41","state_name":"Karlovarský kraj","country_id":58,"country_code":"CZ","country_name":"Czech Republic","latitude":"50.18297000","longitude":"12.55054000","wikiDataId":"Q1018003"},{"id":22346,"Name":"Hazlov","state_id":4581,"state_code":"41","state_name":"Karlovarský kraj","country_id":58,"country_code":"CZ","country_name":"Czech Republic","latitude":"50.15634000","longitude":"12.27238000","wikiDataId":"Q972759"},{"id":22388,"Name":"Horní Slavkov","state_id":4581,"state_code":"41","state_name":"Karlovarský kraj","country_id":58,"country_code":"CZ","country_name":"Czech Republic","latitude":"50.13863000","longitude":"12.80758000","wikiDataId":"Q924085"},{"id":22416,"Name":"Hranice","state_id":4581,"state_code":"41","state_name":"Karlovarský kraj","country_id":58,"country_code":"CZ","country_name":"Czech Republic","latitude":"50.30459000","longitude":"12.17577000","wikiDataId":"Q933400"},{"id":22425,"Name":"Hroznětín","state_id":4581,"state_code":"41","state_name":"Karlovarský kraj","country_id":58,"country_code":"CZ","country_name":"Czech Republic","latitude":"50.30940000","longitude":"12.87180000","wikiDataId":"Q786762"},{"id":22484,"Name":"Jáchymov","state_id":4581,"state_code":"41","state_name":"Karlovarský kraj","country_id":58,"country_code":"CZ","country_name":"Czech Republic","latitude":"50.35846000","longitude":"12.93465000","wikiDataId":"Q830418"},{"id":22498,"Name":"Karlovy Vary","state_id":4581,"state_code":"41","state_name":"Karlovarský kraj","country_id":58,"country_code":"CZ","country_name":"Czech Republic","latitude":"50.23271000","longitude":"12.87117000","wikiDataId":"Q384544"},{"id":22518,"Name":"Klášter","state_id":4581,"state_code":"41","state_name":"Karlovarský kraj","country_id":58,"country_code":"CZ","country_name":"Czech Republic","latitude":"49.96762000","longitude":"12.87623000","wikiDataId":"Q630542"},{"id":22556,"Name":"Kraslice","state_id":4581,"state_code":"41","state_name":"Karlovarský kraj","country_id":58,"country_code":"CZ","country_name":"Czech Republic","latitude":"50.32372000","longitude":"12.51747000","wikiDataId":"Q1000029"},{"id":22581,"Name":"Kynšperk nad Ohří","state_id":4581,"state_code":"41","state_name":"Karlovarský kraj","country_id":58,"country_code":"CZ","country_name":"Czech Republic","latitude":"50.11893000","longitude":"12.53027000","wikiDataId":"Q188062"},{"id":22664,"Name":"Lázně Kynžvart","state_id":4581,"state_code":"41","state_name":"Karlovarský kraj","country_id":58,"country_code":"CZ","country_name":"Czech Republic","latitude":"50.01058000","longitude":"12.62474000","wikiDataId":"Q1000097"},{"id":22630,"Name":"Loket","state_id":4581,"state_code":"41","state_name":"Karlovarský kraj","country_id":58,"country_code":"CZ","country_name":"Czech Republic","latitude":"50.18600000","longitude":"12.75405000","wikiDataId":"Q936145"},{"id":22633,"Name":"Lomnice","state_id":4581,"state_code":"41","state_name":"Karlovarský kraj","country_id":58,"country_code":"CZ","country_name":"Czech Republic","latitude":"50.21174000","longitude":"12.63267000","wikiDataId":"Q1450615"},{"id":22644,"Name":"Luby","state_id":4581,"state_code":"41","state_name":"Karlovarský kraj","country_id":58,"country_code":"CZ","country_name":"Czech Republic","latitude":"50.25248000","longitude":"12.40595000","wikiDataId":"Q946789"},{"id":22676,"Name":"Mariánské Lázně","state_id":4581,"state_code":"41","state_name":"Karlovarský kraj","country_id":58,"country_code":"CZ","country_name":"Czech Republic","latitude":"49.96459000","longitude":"12.70118000","wikiDataId":"Q523469"},{"id":22681,"Name":"Merklín","state_id":4581,"state_code":"41","state_name":"Karlovarský kraj","country_id":58,"country_code":"CZ","country_name":"Czech Republic","latitude":"50.32808000","longitude":"12.86350000","wikiDataId":"Q1894595"},{"id":22740,"Name":"Město","state_id":4581,"state_code":"41","state_name":"Karlovarský kraj","country_id":58,"country_code":"CZ","country_name":"Czech Republic","latitude":"49.97997000","longitude":"12.86432000","wikiDataId":"Q1001600"},{"id":22757,"Name":"Nejdek","state_id":4581,"state_code":"41","state_name":"Karlovarský kraj","country_id":58,"country_code":"CZ","country_name":"Czech Republic","latitude":"50.32242000","longitude":"12.72936000","wikiDataId":"Q431111"},{"id":22775,"Name":"Nová Role","state_id":4581,"state_code":"41","state_name":"Karlovarský kraj","country_id":58,"country_code":"CZ","country_name":"Czech Republic","latitude":"50.27092000","longitude":"12.78422000","wikiDataId":"Q1009009"},{"id":22781,"Name":"Nové Sedlo","state_id":4581,"state_code":"41","state_name":"Karlovarský kraj","country_id":58,"country_code":"CZ","country_name":"Czech Republic","latitude":"50.20647000","longitude":"12.73800000","wikiDataId":"Q1017806"},{"id":22812,"Name":"Okres Cheb","state_id":4581,"state_code":"41","state_name":"Karlovarský kraj","country_id":58,"country_code":"CZ","country_name":"Czech Republic","latitude":"50.08333000","longitude":"12.50000000","wikiDataId":"Q628280"},{"id":22826,"Name":"Okres Karlovy Vary","state_id":4581,"state_code":"41","state_name":"Karlovarský kraj","country_id":58,"country_code":"CZ","country_name":"Czech Republic","latitude":"50.16667000","longitude":"13.00000000","wikiDataId":"Q757240"},{"id":22861,"Name":"Okres Sokolov","state_id":4581,"state_code":"41","state_name":"Karlovarský kraj","country_id":58,"country_code":"CZ","country_name":"Czech Republic","latitude":"50.21667000","longitude":"12.63333000","wikiDataId":"Q833856"},{"id":22887,"Name":"Oloví","state_id":4581,"state_code":"41","state_name":"Karlovarský kraj","country_id":58,"country_code":"CZ","country_name":"Czech Republic","latitude":"50.25113000","longitude":"12.55877000","wikiDataId":"Q1017054"},{"id":22907,"Name":"Ostrov","state_id":4581,"state_code":"41","state_name":"Karlovarský kraj","country_id":58,"country_code":"CZ","country_name":"Czech Republic","latitude":"50.30592000","longitude":"12.93907000","wikiDataId":"Q987487"},{"id":22940,"Name":"Plesná","state_id":4581,"state_code":"41","state_name":"Karlovarský kraj","country_id":58,"country_code":"CZ","country_name":"Czech Republic","latitude":"50.22070000","longitude":"12.34669000","wikiDataId":"Q775651"},{"id":23036,"Name":"Rotava","state_id":4581,"state_code":"41","state_name":"Karlovarský kraj","country_id":58,"country_code":"CZ","country_name":"Czech Republic","latitude":"50.29627000","longitude":"12.57341000","wikiDataId":"Q1017261"},{"id":23058,"Name":"Sadov","state_id":4581,"state_code":"41","state_name":"Karlovarský kraj","country_id":58,"country_code":"CZ","country_name":"Czech Republic","latitude":"50.26711000","longitude":"12.89708000","wikiDataId":"Q547358"},{"id":23073,"Name":"Skalná","state_id":4581,"state_code":"41","state_name":"Karlovarský kraj","country_id":58,"country_code":"CZ","country_name":"Czech Republic","latitude":"50.17030000","longitude":"12.36144000","wikiDataId":"Q946743"},{"id":23094,"Name":"Sokolov","state_id":4581,"state_code":"41","state_name":"Karlovarský kraj","country_id":58,"country_code":"CZ","country_name":"Czech Republic","latitude":"50.18130000","longitude":"12.64010000","wikiDataId":"Q727383"},{"id":23147,"Name":"Svatava","state_id":4581,"state_code":"41","state_name":"Karlovarský kraj","country_id":58,"country_code":"CZ","country_name":"Czech Republic","latitude":"50.19223000","longitude":"12.62524000","wikiDataId":"Q1234231"},{"id":23170,"Name":"Toužim","state_id":4581,"state_code":"41","state_name":"Karlovarský kraj","country_id":58,"country_code":"CZ","country_name":"Czech Republic","latitude":"50.06049000","longitude":"12.98506000","wikiDataId":"Q1013898"},{"id":23233,"Name":"Velká Hleďsebe","state_id":4581,"state_code":"41","state_name":"Karlovarský kraj","country_id":58,"country_code":"CZ","country_name":"Czech Republic","latitude":"49.96151000","longitude":"12.66763000","wikiDataId":"Q1411253"},{"id":23274,"Name":"Vintířov","state_id":4581,"state_code":"41","state_name":"Karlovarský kraj","country_id":58,"country_code":"CZ","country_name":"Czech Republic","latitude":"50.23382000","longitude":"12.71748000","wikiDataId":"Q338705"},{"id":23456,"Name":"Žlutice","state_id":4581,"state_code":"41","state_name":"Karlovarský kraj","country_id":58,"country_code":"CZ","country_name":"Czech Republic","latitude":"50.09192000","longitude":"13.16297000","wikiDataId":"Q394241"}]