[{"id":65293,"Name":"Cheorwon-gun","state_id":3862,"state_code":"42","state_name":"Gangwon Province","country_id":116,"country_code":"KR","country_name":"South Korea","latitude":"38.24391000","longitude":"127.44522000","wikiDataId":"Q50329"},{"id":65297,"Name":"Chuncheon","state_id":3862,"state_code":"42","state_name":"Gangwon Province","country_id":116,"country_code":"KR","country_name":"South Korea","latitude":"37.87472000","longitude":"127.73417000","wikiDataId":"Q42148"},{"id":65298,"Name":"Chuncheon-si","state_id":3862,"state_code":"42","state_name":"Gangwon Province","country_id":116,"country_code":"KR","country_name":"South Korea","latitude":"37.88048000","longitude":"127.72776000","wikiDataId":"Q42148"},{"id":65311,"Name":"Donghae-si","state_id":3862,"state_code":"42","state_name":"Gangwon Province","country_id":116,"country_code":"KR","country_name":"South Korea","latitude":"37.52345000","longitude":"129.11357000","wikiDataId":"Q42093"},{"id":65322,"Name":"Gangneung","state_id":3862,"state_code":"42","state_name":"Gangwon Province","country_id":116,"country_code":"KR","country_name":"South Korea","latitude":"37.75266000","longitude":"128.87239000","wikiDataId":"Q42056"},{"id":65323,"Name":"Gangneung-si","state_id":3862,"state_code":"42","state_name":"Gangwon Province","country_id":116,"country_code":"KR","country_name":"South Korea","latitude":"37.75190000","longitude":"128.87825000","wikiDataId":"Q42056"},{"id":65349,"Name":"Goseong-gun","state_id":3862,"state_code":"42","state_name":"Gangwon Province","country_id":116,"country_code":"KR","country_name":"South Korea","latitude":"38.37945000","longitude":"128.46755000","wikiDataId":"Q50209"},{"id":65383,"Name":"Hoengseong-gun","state_id":3862,"state_code":"42","state_name":"Gangwon Province","country_id":116,"country_code":"KR","country_name":"South Korea","latitude":"37.48817000","longitude":"127.98570000","wikiDataId":"Q50347"},{"id":65385,"Name":"Hongch’ŏn","state_id":3862,"state_code":"42","state_name":"Gangwon Province","country_id":116,"country_code":"KR","country_name":"South Korea","latitude":"37.69180000","longitude":"127.88570000","wikiDataId":"Q50344"},{"id":65384,"Name":"Hongcheon-gun","state_id":3862,"state_code":"42","state_name":"Gangwon Province","country_id":116,"country_code":"KR","country_name":"South Korea","latitude":"37.76058000","longitude":"128.02823000","wikiDataId":"Q50344"},{"id":65388,"Name":"Hwacheon","state_id":3862,"state_code":"42","state_name":"Gangwon Province","country_id":116,"country_code":"KR","country_name":"South Korea","latitude":"38.10705000","longitude":"127.70632000","wikiDataId":"Q50344"},{"id":65389,"Name":"Hwacheon-gun","state_id":3862,"state_code":"42","state_name":"Gangwon Province","country_id":116,"country_code":"KR","country_name":"South Korea","latitude":"38.14212000","longitude":"127.67615000","wikiDataId":"Q50346"},{"id":65401,"Name":"Inje-gun","state_id":3862,"state_code":"42","state_name":"Gangwon Province","country_id":116,"country_code":"KR","country_name":"South Korea","latitude":"38.04416000","longitude":"128.27876000","wikiDataId":"Q50318"},{"id":65411,"Name":"Jeongseon-gun","state_id":3862,"state_code":"42","state_name":"Gangwon Province","country_id":116,"country_code":"KR","country_name":"South Korea","latitude":"37.38911000","longitude":"128.72995000","wikiDataId":"Q50323"},{"id":65430,"Name":"Kosong","state_id":3862,"state_code":"42","state_name":"Gangwon Province","country_id":116,"country_code":"KR","country_name":"South Korea","latitude":"38.37881000","longitude":"128.46760000","wikiDataId":"Q42077"},{"id":65459,"Name":"Neietsu","state_id":3862,"state_code":"42","state_name":"Gangwon Province","country_id":116,"country_code":"KR","country_name":"South Korea","latitude":"37.18447000","longitude":"128.46821000","wikiDataId":"Q42087"},{"id":65473,"Name":"Pyeongchang","state_id":3862,"state_code":"42","state_name":"Gangwon Province","country_id":116,"country_code":"KR","country_name":"South Korea","latitude":"37.37028000","longitude":"128.39306000","wikiDataId":"Q42157"},{"id":65474,"Name":"Pyeongchang-gun","state_id":3862,"state_code":"42","state_name":"Gangwon Province","country_id":116,"country_code":"KR","country_name":"South Korea","latitude":"37.36820000","longitude":"128.39550000","wikiDataId":"Q42157"},{"id":65478,"Name":"Samcheok-si","state_id":3862,"state_code":"42","state_name":"Gangwon Province","country_id":116,"country_code":"KR","country_name":"South Korea","latitude":"37.45013000","longitude":"129.16626000","wikiDataId":"Q42102"},{"id":65481,"Name":"Santyoku","state_id":3862,"state_code":"42","state_name":"Gangwon Province","country_id":116,"country_code":"KR","country_name":"South Korea","latitude":"37.44056000","longitude":"129.17083000","wikiDataId":"Q42163"},{"id":65504,"Name":"Sokcho","state_id":3862,"state_code":"42","state_name":"Gangwon Province","country_id":116,"country_code":"KR","country_name":"South Korea","latitude":"38.20701000","longitude":"128.59181000","wikiDataId":"Q42109"},{"id":65505,"Name":"Sokcho-si","state_id":3862,"state_code":"42","state_name":"Gangwon Province","country_id":116,"country_code":"KR","country_name":"South Korea","latitude":"38.20725000","longitude":"128.59275000","wikiDataId":"Q42109"},{"id":65519,"Name":"T’aebaek","state_id":3862,"state_code":"42","state_name":"Gangwon Province","country_id":116,"country_code":"KR","country_name":"South Korea","latitude":"37.17590000","longitude":"128.98890000","wikiDataId":"Q42150"},{"id":65515,"Name":"Taebaek-si","state_id":3862,"state_code":"42","state_name":"Gangwon Province","country_id":116,"country_code":"KR","country_name":"South Korea","latitude":"37.16520000","longitude":"128.98570000","wikiDataId":"Q50417"},{"id":65518,"Name":"Tonghae","state_id":3862,"state_code":"42","state_name":"Gangwon Province","country_id":116,"country_code":"KR","country_name":"South Korea","latitude":"37.54389000","longitude":"129.10694000","wikiDataId":"Q42089"},{"id":65534,"Name":"Wŏnju","state_id":3862,"state_code":"42","state_name":"Gangwon Province","country_id":116,"country_code":"KR","country_name":"South Korea","latitude":"37.35139000","longitude":"127.94528000","wikiDataId":"Q42131"},{"id":65533,"Name":"Wonju-si","state_id":3862,"state_code":"42","state_name":"Gangwon Province","country_id":116,"country_code":"KR","country_name":"South Korea","latitude":"37.32104000","longitude":"127.92132000","wikiDataId":"Q50312"},{"id":65536,"Name":"Yanggu","state_id":3862,"state_code":"42","state_name":"Gangwon Province","country_id":116,"country_code":"KR","country_name":"South Korea","latitude":"38.10583000","longitude":"127.98944000","wikiDataId":"Q50420"},{"id":65537,"Name":"Yanggu-gun","state_id":3862,"state_code":"42","state_name":"Gangwon Province","country_id":116,"country_code":"KR","country_name":"South Korea","latitude":"38.10160000","longitude":"127.98555000","wikiDataId":"Q50420"},{"id":65543,"Name":"Yangyang-gun","state_id":3862,"state_code":"42","state_name":"Gangwon Province","country_id":116,"country_code":"KR","country_name":"South Korea","latitude":"38.06215000","longitude":"128.61471000","wikiDataId":"Q50254"}]