[{"id":63362,"Name":"Fukuechō","state_id":849,"state_code":"42","state_name":"Nagasaki Prefecture","country_id":109,"country_code":"JP","country_name":"Japan","latitude":"32.69732000","longitude":"128.84561000","wikiDataId":"Q3355306"},{"id":63397,"Name":"Gotō Shi","state_id":849,"state_code":"42","state_name":"Nagasaki Prefecture","country_id":109,"country_code":"JP","country_name":"Japan","latitude":"32.69892000","longitude":"128.76871000","wikiDataId":"Q201659"},{"id":63487,"Name":"Hirado","state_id":849,"state_code":"42","state_name":"Nagasaki Prefecture","country_id":109,"country_code":"JP","country_name":"Japan","latitude":"33.36853000","longitude":"129.55247000","wikiDataId":"Q328601"},{"id":63488,"Name":"Hirado Shi","state_id":849,"state_code":"42","state_name":"Nagasaki Prefecture","country_id":109,"country_code":"JP","country_name":"Japan","latitude":"33.31596000","longitude":"129.48688000","wikiDataId":"Q328601"},{"id":63557,"Name":"Iki Shi","state_id":849,"state_code":"42","state_name":"Nagasaki Prefecture","country_id":109,"country_code":"JP","country_name":"Japan","latitude":"33.78554000","longitude":"129.71670000","wikiDataId":"Q861519"},{"id":63581,"Name":"Isahaya","state_id":849,"state_code":"42","state_name":"Nagasaki Prefecture","country_id":109,"country_code":"JP","country_name":"Japan","latitude":"32.84111000","longitude":"130.04306000","wikiDataId":"Q596469"},{"id":63582,"Name":"Isahaya-shi","state_id":849,"state_code":"42","state_name":"Nagasaki Prefecture","country_id":109,"country_code":"JP","country_name":"Japan","latitude":"32.86912000","longitude":"130.06369000","wikiDataId":"Q596469"},{"id":63939,"Name":"Matsuura","state_id":849,"state_code":"42","state_name":"Nagasaki Prefecture","country_id":109,"country_code":"JP","country_name":"Japan","latitude":"33.34058000","longitude":"129.69504000","wikiDataId":"Q850465"},{"id":63940,"Name":"Matsuura Shi","state_id":849,"state_code":"42","state_name":"Nagasaki Prefecture","country_id":109,"country_code":"JP","country_name":"Japan","latitude":"33.35334000","longitude":"129.73504000","wikiDataId":"Q850465"},{"id":63970,"Name":"Minamishimabara-shi","state_id":849,"state_code":"42","state_name":"Nagasaki Prefecture","country_id":109,"country_code":"JP","country_name":"Japan","latitude":"32.67565000","longitude":"130.25695000","wikiDataId":"Q990376"},{"id":64071,"Name":"Nagasaki","state_id":849,"state_code":"42","state_name":"Nagasaki Prefecture","country_id":109,"country_code":"JP","country_name":"Japan","latitude":"32.75000000","longitude":"129.88333000","wikiDataId":"Q328625"},{"id":64072,"Name":"Nagasaki-shi","state_id":849,"state_code":"42","state_name":"Nagasaki Prefecture","country_id":109,"country_code":"JP","country_name":"Japan","latitude":"32.78206000","longitude":"129.82715000","wikiDataId":"Q38234"},{"id":64182,"Name":"Obita","state_id":849,"state_code":"42","state_name":"Nagasaki Prefecture","country_id":109,"country_code":"JP","country_name":"Japan","latitude":"32.81667000","longitude":"129.88333000","wikiDataId":"Q683858"},{"id":64743,"Name":"Ōmura","state_id":849,"state_code":"42","state_name":"Nagasaki Prefecture","country_id":109,"country_code":"JP","country_name":"Japan","latitude":"32.92139000","longitude":"129.95389000","wikiDataId":"Q385461"},{"id":64744,"Name":"Ōmura-shi","state_id":849,"state_code":"42","state_name":"Nagasaki Prefecture","country_id":109,"country_code":"JP","country_name":"Japan","latitude":"32.93978000","longitude":"129.99297000","wikiDataId":"Q385591"},{"id":64247,"Name":"Saikai-shi","state_id":849,"state_code":"42","state_name":"Nagasaki Prefecture","country_id":109,"country_code":"JP","country_name":"Japan","latitude":"32.99259000","longitude":"129.68200000","wikiDataId":"Q520267"},{"id":64290,"Name":"Sasebo Shi","state_id":849,"state_code":"42","state_name":"Nagasaki Prefecture","country_id":109,"country_code":"JP","country_name":"Japan","latitude":"33.18992000","longitude":"129.68960000","wikiDataId":"Q328000"},{"id":64325,"Name":"Shimabara","state_id":849,"state_code":"42","state_name":"Nagasaki Prefecture","country_id":109,"country_code":"JP","country_name":"Japan","latitude":"32.78333000","longitude":"130.36667000","wikiDataId":"Q847594"},{"id":64326,"Name":"Shimabara-shi","state_id":849,"state_code":"42","state_name":"Nagasaki Prefecture","country_id":109,"country_code":"JP","country_name":"Japan","latitude":"32.79429000","longitude":"130.32925000","wikiDataId":"Q847594"},{"id":64490,"Name":"Togitsu","state_id":849,"state_code":"42","state_name":"Nagasaki Prefecture","country_id":109,"country_code":"JP","country_name":"Japan","latitude":"32.83333000","longitude":"129.85000000","wikiDataId":"Q1205851"},{"id":64561,"Name":"Tsushima Shi","state_id":849,"state_code":"42","state_name":"Nagasaki Prefecture","country_id":109,"country_code":"JP","country_name":"Japan","latitude":"34.40845000","longitude":"129.32599000","wikiDataId":"Q734416"},{"id":64591,"Name":"Unzen-shi","state_id":849,"state_code":"42","state_name":"Nagasaki Prefecture","country_id":109,"country_code":"JP","country_name":"Japan","latitude":"32.78390000","longitude":"130.22828000","wikiDataId":"Q999453"}]