[{"id":107105,"Name":"Akçadağ","state_id":2158,"state_code":"44","state_name":"Malatya","country_id":225,"country_code":"TR","country_name":"Turkey","latitude":"38.33899000","longitude":"37.97021000","wikiDataId":"Q424435"},{"id":107175,"Name":"Arapgir","state_id":2158,"state_code":"44","state_name":"Malatya","country_id":225,"country_code":"TR","country_name":"Turkey","latitude":"39.04117000","longitude":"38.49516000","wikiDataId":"Q764830"},{"id":107183,"Name":"Arguvan","state_id":2158,"state_code":"44","state_name":"Malatya","country_id":225,"country_code":"TR","country_name":"Turkey","latitude":"38.78172000","longitude":"38.26349000","wikiDataId":"Q638539"},{"id":107292,"Name":"Battalgazi","state_id":2158,"state_code":"44","state_name":"Malatya","country_id":225,"country_code":"TR","country_name":"Turkey","latitude":"38.43932000","longitude":"38.45764000","wikiDataId":"Q810916"},{"id":107447,"Name":"Darende","state_id":2158,"state_code":"44","state_name":"Malatya","country_id":225,"country_code":"TR","country_name":"Turkey","latitude":"38.54583000","longitude":"37.50583000","wikiDataId":"Q585145"},{"id":107525,"Name":"Doğanşehir","state_id":2158,"state_code":"44","state_name":"Malatya","country_id":225,"country_code":"TR","country_name":"Turkey","latitude":"38.08574000","longitude":"37.87116000","wikiDataId":"Q1253700"},{"id":107520,"Name":"Doğanyol","state_id":2158,"state_code":"44","state_name":"Malatya","country_id":225,"country_code":"TR","country_name":"Turkey","latitude":"38.30746000","longitude":"39.03431000","wikiDataId":"Q1027183"},{"id":107819,"Name":"Hekimhan","state_id":2158,"state_code":"44","state_name":"Malatya","country_id":225,"country_code":"TR","country_name":"Turkey","latitude":"38.81622000","longitude":"37.92882000","wikiDataId":"Q1025104"},{"id":107870,"Name":"Kale","state_id":2158,"state_code":"44","state_name":"Malatya","country_id":225,"country_code":"TR","country_name":"Turkey","latitude":"39.03333000","longitude":"38.00000000","wikiDataId":"Q134703"},{"id":108044,"Name":"Kuluncak","state_id":2158,"state_code":"44","state_name":"Malatya","country_id":225,"country_code":"TR","country_name":"Turkey","latitude":"38.87656000","longitude":"37.66279000","wikiDataId":"Q1948486"},{"id":108141,"Name":"Malatya","state_id":2158,"state_code":"44","state_name":"Malatya","country_id":225,"country_code":"TR","country_name":"Turkey","latitude":"38.35018000","longitude":"38.31667000","wikiDataId":"Q165995"},{"id":108354,"Name":"Pütürge","state_id":2158,"state_code":"44","state_name":"Malatya","country_id":225,"country_code":"TR","country_name":"Turkey","latitude":"38.19630000","longitude":"38.87418000","wikiDataId":"Q1023268"},{"id":108684,"Name":"Yazıhan","state_id":2158,"state_code":"44","state_name":"Malatya","country_id":225,"country_code":"TR","country_name":"Turkey","latitude":"38.59292000","longitude":"38.17327000","wikiDataId":"Q472878"},{"id":108728,"Name":"Yeşilyurt","state_id":2158,"state_code":"44","state_name":"Malatya","country_id":225,"country_code":"TR","country_name":"Turkey","latitude":"38.29602000","longitude":"38.24526000","wikiDataId":"Q1582858"}]