[{"id":63283,"Name":"Beppu","state_id":822,"state_code":"44","state_name":"Ōita Prefecture","country_id":109,"country_code":"JP","country_name":"Japan","latitude":"33.27945000","longitude":"131.49751000","wikiDataId":"Q273880"},{"id":63284,"Name":"Beppu Shi","state_id":822,"state_code":"44","state_name":"Ōita Prefecture","country_id":109,"country_code":"JP","country_name":"Japan","latitude":"33.28573000","longitude":"131.45280000","wikiDataId":"Q273880"},{"id":63288,"Name":"Bungo-ōno Shi","state_id":822,"state_code":"44","state_name":"Ōita Prefecture","country_id":109,"country_code":"JP","country_name":"Japan","latitude":"32.97249000","longitude":"131.51210000","wikiDataId":"Q850366"},{"id":63287,"Name":"Bungo-Takada-shi","state_id":822,"state_code":"44","state_name":"Ōita Prefecture","country_id":109,"country_code":"JP","country_name":"Japan","latitude":"33.55670000","longitude":"131.44506000","wikiDataId":"Q857281"},{"id":63472,"Name":"Hiji","state_id":822,"state_code":"44","state_name":"Ōita Prefecture","country_id":109,"country_code":"JP","country_name":"Japan","latitude":"33.37081000","longitude":"131.53025000","wikiDataId":"Q243863"},{"id":63502,"Name":"Hita","state_id":822,"state_code":"44","state_name":"Ōita Prefecture","country_id":109,"country_code":"JP","country_name":"Japan","latitude":"33.32130000","longitude":"130.94098000","wikiDataId":"Q386968"},{"id":63503,"Name":"Hita Shi","state_id":822,"state_code":"44","state_name":"Ōita Prefecture","country_id":109,"country_code":"JP","country_name":"Japan","latitude":"33.24452000","longitude":"130.95063000","wikiDataId":"Q386968"},{"id":63813,"Name":"Kitsuki","state_id":822,"state_code":"44","state_name":"Ōita Prefecture","country_id":109,"country_code":"JP","country_name":"Japan","latitude":"33.41998000","longitude":"131.61837000","wikiDataId":"Q597594"},{"id":63814,"Name":"Kitsuki Shi","state_id":822,"state_code":"44","state_name":"Ōita Prefecture","country_id":109,"country_code":"JP","country_name":"Japan","latitude":"33.44729000","longitude":"131.53670000","wikiDataId":"Q850359"},{"id":63863,"Name":"Kunisaki-shi","state_id":822,"state_code":"44","state_name":"Ōita Prefecture","country_id":109,"country_code":"JP","country_name":"Japan","latitude":"33.56543000","longitude":"131.73157000","wikiDataId":"Q819672"},{"id":64089,"Name":"Nakatsu","state_id":822,"state_code":"44","state_name":"Ōita Prefecture","country_id":109,"country_code":"JP","country_name":"Japan","latitude":"33.59811000","longitude":"131.18830000","wikiDataId":"Q861221"},{"id":64090,"Name":"Nakatsu Shi","state_id":822,"state_code":"44","state_name":"Ōita Prefecture","country_id":109,"country_code":"JP","country_name":"Japan","latitude":"33.46458000","longitude":"131.12642000","wikiDataId":"Q861221"},{"id":64728,"Name":"Ōita","state_id":822,"state_code":"44","state_name":"Ōita Prefecture","country_id":109,"country_code":"JP","country_name":"Japan","latitude":"33.23333000","longitude":"131.60000000","wikiDataId":"Q199609"},{"id":64729,"Name":"Ōita-shi","state_id":822,"state_code":"44","state_name":"Ōita Prefecture","country_id":109,"country_code":"JP","country_name":"Japan","latitude":"33.17980000","longitude":"131.64085000","wikiDataId":"Q199609"},{"id":64248,"Name":"Saiki","state_id":822,"state_code":"44","state_name":"Ōita Prefecture","country_id":109,"country_code":"JP","country_name":"Japan","latitude":"32.95000000","longitude":"131.90000000","wikiDataId":"Q847546"},{"id":64249,"Name":"Saiki-shi","state_id":822,"state_code":"44","state_name":"Ōita Prefecture","country_id":109,"country_code":"JP","country_name":"Japan","latitude":"32.88598000","longitude":"131.77600000","wikiDataId":"Q847546"},{"id":64443,"Name":"Takedamachi","state_id":822,"state_code":"44","state_name":"Ōita Prefecture","country_id":109,"country_code":"JP","country_name":"Japan","latitude":"32.96667000","longitude":"131.40000000","wikiDataId":"Q850508"},{"id":64449,"Name":"Taketa-shi","state_id":822,"state_code":"44","state_name":"Ōita Prefecture","country_id":109,"country_code":"JP","country_name":"Japan","latitude":"32.99774000","longitude":"131.32724000","wikiDataId":"Q877220"},{"id":64544,"Name":"Tsukawaki","state_id":822,"state_code":"44","state_name":"Ōita Prefecture","country_id":109,"country_code":"JP","country_name":"Japan","latitude":"33.27668000","longitude":"131.15628000","wikiDataId":"Q372517"},{"id":64549,"Name":"Tsukumi-shi","state_id":822,"state_code":"44","state_name":"Ōita Prefecture","country_id":109,"country_code":"JP","country_name":"Japan","latitude":"33.06667000","longitude":"131.86667000","wikiDataId":"Q877254"},{"id":64550,"Name":"Tsukumiura","state_id":822,"state_code":"44","state_name":"Ōita Prefecture","country_id":109,"country_code":"JP","country_name":"Japan","latitude":"33.07539000","longitude":"131.86907000","wikiDataId":"Q840580"},{"id":64559,"Name":"Tsurusaki","state_id":822,"state_code":"44","state_name":"Ōita Prefecture","country_id":109,"country_code":"JP","country_name":"Japan","latitude":"33.24528000","longitude":"131.69165000","wikiDataId":"Q734416"},{"id":64601,"Name":"Usa Shi","state_id":822,"state_code":"44","state_name":"Ōita Prefecture","country_id":109,"country_code":"JP","country_name":"Japan","latitude":"33.44996000","longitude":"131.33662000","wikiDataId":"Q114147"},{"id":64605,"Name":"Usuki","state_id":822,"state_code":"44","state_name":"Ōita Prefecture","country_id":109,"country_code":"JP","country_name":"Japan","latitude":"33.12342000","longitude":"131.80401000","wikiDataId":"Q844133"},{"id":64606,"Name":"Usuki Shi","state_id":822,"state_code":"44","state_name":"Ōita Prefecture","country_id":109,"country_code":"JP","country_name":"Japan","latitude":"33.07223000","longitude":"131.74457000","wikiDataId":"Q845792"},{"id":64694,"Name":"Yufu-shi","state_id":822,"state_code":"44","state_name":"Ōita Prefecture","country_id":109,"country_code":"JP","country_name":"Japan","latitude":"33.17923000","longitude":"131.43219000","wikiDataId":"Q990455"}]