[{"id":107069,"Name":"Afşin","state_id":2227,"state_code":"46","state_name":"Kahramanmaraş","country_id":225,"country_code":"TR","country_name":"Turkey","latitude":"38.24769000","longitude":"36.91399000","wikiDataId":"Q166824"},{"id":107164,"Name":"Andırın","state_id":2227,"state_code":"46","state_name":"Kahramanmaraş","country_id":225,"country_code":"TR","country_name":"Turkey","latitude":"37.57757000","longitude":"36.35492000","wikiDataId":"Q485575"},{"id":108808,"Name":"Çağlayancerit","state_id":2227,"state_code":"46","state_name":"Kahramanmaraş","country_id":225,"country_code":"TR","country_name":"Turkey","latitude":"37.74523000","longitude":"37.28618000","wikiDataId":"Q2671609"},{"id":107424,"Name":"Celeyke","state_id":2227,"state_code":"46","state_name":"Kahramanmaraş","country_id":225,"country_code":"TR","country_name":"Turkey","latitude":"38.05974000","longitude":"37.18786000","wikiDataId":"Q2634212"},{"id":107529,"Name":"Dulkadiroğlu","state_id":2227,"state_code":"46","state_name":"Kahramanmaraş","country_id":225,"country_code":"TR","country_name":"Turkey","latitude":"37.58254000","longitude":"36.91973000","wikiDataId":"Q16836177"},{"id":107556,"Name":"Ekinözü İlçesi","state_id":2227,"state_code":"46","state_name":"Kahramanmaraş","country_id":225,"country_code":"TR","country_name":"Turkey","latitude":"38.07007000","longitude":"37.19414000","wikiDataId":"Q1018536"},{"id":107562,"Name":"Elbistan","state_id":2227,"state_code":"46","state_name":"Kahramanmaraş","country_id":225,"country_code":"TR","country_name":"Turkey","latitude":"38.20591000","longitude":"37.19830000","wikiDataId":"Q1018515"},{"id":107681,"Name":"Göksun","state_id":2227,"state_code":"46","state_name":"Kahramanmaraş","country_id":225,"country_code":"TR","country_name":"Turkey","latitude":"38.02096000","longitude":"36.49730000","wikiDataId":"Q2218396"},{"id":107869,"Name":"Kahramanmaraş","state_id":2227,"state_code":"46","state_name":"Kahramanmaraş","country_id":225,"country_code":"TR","country_name":"Turkey","latitude":"37.58470000","longitude":"36.92641000","wikiDataId":"Q134703"},{"id":108255,"Name":"Nurhak","state_id":2227,"state_code":"46","state_name":"Kahramanmaraş","country_id":225,"country_code":"TR","country_name":"Turkey","latitude":"37.96366000","longitude":"37.44047000","wikiDataId":"Q1004573"},{"id":108270,"Name":"Onikişubat","state_id":2227,"state_code":"46","state_name":"Kahramanmaraş","country_id":225,"country_code":"TR","country_name":"Turkey","latitude":"37.59002000","longitude":"36.90548000","wikiDataId":"Q16960466"},{"id":108325,"Name":"Pazarcık","state_id":2227,"state_code":"46","state_name":"Kahramanmaraş","country_id":225,"country_code":"TR","country_name":"Turkey","latitude":"37.48685000","longitude":"37.29961000","wikiDataId":"Q2670995"},{"id":108521,"Name":"Süleymanlı","state_id":2227,"state_code":"46","state_name":"Kahramanmaraş","country_id":225,"country_code":"TR","country_name":"Turkey","latitude":"37.87264000","longitude":"36.81714000","wikiDataId":"Q2664842"},{"id":108615,"Name":"Türkoğlu İlçesi","state_id":2227,"state_code":"46","state_name":"Kahramanmaraş","country_id":225,"country_code":"TR","country_name":"Turkey","latitude":"37.38417000","longitude":"36.84626000","wikiDataId":"Q993676"}]