[{"id":130266,"Name":"Huyện Cái Bè","state_id":3781,"state_code":"46","state_name":"Tiền Giang","country_id":240,"country_code":"VN","country_name":"Vietnam","latitude":"10.38824000","longitude":"105.94620000","wikiDataId":"Q800052"},{"id":130241,"Name":"Huyện Cai Lậy","state_id":3781,"state_code":"46","state_name":"Tiền Giang","country_id":240,"country_code":"VN","country_name":"Vietnam","latitude":"10.38943000","longitude":"106.06774000","wikiDataId":"Q4838559"},{"id":130252,"Name":"Huyện Châu Thành","state_id":3781,"state_code":"46","state_name":"Tiền Giang","country_id":240,"country_code":"VN","country_name":"Vietnam","latitude":"10.38600000","longitude":"106.27311000","wikiDataId":"Q3710806"},{"id":130260,"Name":"Huyện Chợ Gạo","state_id":3781,"state_code":"46","state_name":"Tiền Giang","country_id":240,"country_code":"VN","country_name":"Vietnam","latitude":"10.37373000","longitude":"106.44341000","wikiDataId":"Q1319826"},{"id":130293,"Name":"Huyện Gò Công Đông","state_id":3781,"state_code":"46","state_name":"Tiền Giang","country_id":240,"country_code":"VN","country_name":"Vietnam","latitude":"10.36784000","longitude":"106.74592000","wikiDataId":"Q3710927"},{"id":130292,"Name":"Huyện Gò Công Tây","state_id":3781,"state_code":"46","state_name":"Tiền Giang","country_id":240,"country_code":"VN","country_name":"Vietnam","latitude":"10.34527000","longitude":"106.59851000","wikiDataId":"Q3710927"},{"id":130486,"Name":"Huyện Tân Phước","state_id":3781,"state_code":"46","state_name":"Tiền Giang","country_id":240,"country_code":"VN","country_name":"Vietnam","latitude":"10.51489000","longitude":"106.23312000","wikiDataId":"Q3711512"},{"id":130574,"Name":"Mỹ Tho","state_id":3781,"state_code":"46","state_name":"Tiền Giang","country_id":240,"country_code":"VN","country_name":"Vietnam","latitude":"10.36004000","longitude":"106.35996000","wikiDataId":"Q33425"},{"id":130599,"Name":"Thành Phố Mỹ Tho","state_id":3781,"state_code":"46","state_name":"Tiền Giang","country_id":240,"country_code":"VN","country_name":"Vietnam","latitude":"10.36221000","longitude":"106.36824000","wikiDataId":"Q36175"},{"id":130610,"Name":"Thị Xã Gò Công","state_id":3781,"state_code":"46","state_name":"Tiền Giang","country_id":240,"country_code":"VN","country_name":"Vietnam","latitude":"10.40005000","longitude":"106.65847000","wikiDataId":"Q3031171"}]