[{"id":107059,"Name":"Acırlı","state_id":2224,"state_code":"47","state_name":"Mardin","country_id":225,"country_code":"TR","country_name":"Turkey","latitude":"37.45549000","longitude":"41.29499000","wikiDataId":"Q2006400"},{"id":107076,"Name":"Akarsu","state_id":2224,"state_code":"47","state_name":"Mardin","country_id":225,"country_code":"TR","country_name":"Turkey","latitude":"37.22616000","longitude":"41.05138000","wikiDataId":"Q389815"},{"id":107121,"Name":"Alakamış","state_id":2224,"state_code":"47","state_name":"Mardin","country_id":225,"country_code":"TR","country_name":"Turkey","latitude":"37.15898000","longitude":"41.78915000","wikiDataId":"Q911286"},{"id":107174,"Name":"Aran","state_id":2224,"state_code":"47","state_name":"Mardin","country_id":225,"country_code":"TR","country_name":"Turkey","latitude":"37.44768000","longitude":"40.74755000","wikiDataId":"Q764830"},{"id":107195,"Name":"Artuklu","state_id":2224,"state_code":"47","state_name":"Mardin","country_id":225,"country_code":"TR","country_name":"Turkey","latitude":"37.31714000","longitude":"40.72473000","wikiDataId":"Q16251875"},{"id":107214,"Name":"Avine","state_id":2224,"state_code":"47","state_name":"Mardin","country_id":225,"country_code":"TR","country_name":"Turkey","latitude":"37.57373000","longitude":"40.73252000","wikiDataId":"Q340148"},{"id":107311,"Name":"Bağlıca","state_id":2224,"state_code":"47","state_name":"Mardin","country_id":225,"country_code":"TR","country_name":"Turkey","latitude":"37.52705000","longitude":"40.68618000","wikiDataId":"Q4875058"},{"id":107287,"Name":"Barıştepe","state_id":2224,"state_code":"47","state_name":"Mardin","country_id":225,"country_code":"TR","country_name":"Turkey","latitude":"37.48320000","longitude":"41.40251000","wikiDataId":"Q211805"},{"id":107317,"Name":"Başkavak","state_id":2224,"state_code":"47","state_name":"Mardin","country_id":225,"country_code":"TR","country_name":"Turkey","latitude":"37.56468000","longitude":"40.88757000","wikiDataId":"Q812759"},{"id":108762,"Name":"Çalpınar","state_id":2224,"state_code":"47","state_name":"Mardin","country_id":225,"country_code":"TR","country_name":"Turkey","latitude":"37.36542000","longitude":"41.18576000","wikiDataId":"Q272362"},{"id":108794,"Name":"Çavuşlu","state_id":2224,"state_code":"47","state_name":"Mardin","country_id":225,"country_code":"TR","country_name":"Turkey","latitude":"37.50179000","longitude":"41.24877000","wikiDataId":"Q272692"},{"id":107434,"Name":"Cinatamiho","state_id":2224,"state_code":"47","state_name":"Mardin","country_id":225,"country_code":"TR","country_name":"Turkey","latitude":"37.27304000","longitude":"41.03364000","wikiDataId":"Q2670870"},{"id":108855,"Name":"Çınaraltı","state_id":2224,"state_code":"47","state_name":"Mardin","country_id":225,"country_code":"TR","country_name":"Turkey","latitude":"37.38490000","longitude":"40.85938000","wikiDataId":"Q272992"},{"id":108858,"Name":"Çıplak","state_id":2224,"state_code":"47","state_name":"Mardin","country_id":225,"country_code":"TR","country_name":"Turkey","latitude":"36.94472000","longitude":"40.23750000","wikiDataId":"Q272992"},{"id":107446,"Name":"Dara","state_id":2224,"state_code":"47","state_name":"Mardin","country_id":225,"country_code":"TR","country_name":"Turkey","latitude":"37.17902000","longitude":"40.95455000","wikiDataId":"Q585145"},{"id":107449,"Name":"Dargeçit","state_id":2224,"state_code":"47","state_name":"Mardin","country_id":225,"country_code":"TR","country_name":"Turkey","latitude":"37.54616000","longitude":"41.71652000","wikiDataId":"Q1003964"},{"id":107477,"Name":"Dereyanı","state_id":2224,"state_code":"47","state_name":"Mardin","country_id":225,"country_code":"TR","country_name":"Turkey","latitude":"37.42746000","longitude":"40.86096000","wikiDataId":"Q2670684"},{"id":107478,"Name":"Derik İlçesi","state_id":2224,"state_code":"47","state_name":"Mardin","country_id":225,"country_code":"TR","country_name":"Turkey","latitude":"37.36431000","longitude":"40.26883000","wikiDataId":"Q176086"},{"id":107535,"Name":"Duruca","state_id":2224,"state_code":"47","state_name":"Mardin","country_id":225,"country_code":"TR","country_name":"Turkey","latitude":"37.09309000","longitude":"41.30986000","wikiDataId":"Q1014114"},{"id":107547,"Name":"Ebish","state_id":2224,"state_code":"47","state_name":"Mardin","country_id":225,"country_code":"TR","country_name":"Turkey","latitude":"37.46347000","longitude":"41.18863000","wikiDataId":"Q1012858"},{"id":107630,"Name":"Eşme","state_id":2224,"state_code":"47","state_name":"Mardin","country_id":225,"country_code":"TR","country_name":"Turkey","latitude":"37.15569000","longitude":"40.64142000","wikiDataId":"Q586434"},{"id":107618,"Name":"Eymirli","state_id":2224,"state_code":"47","state_name":"Mardin","country_id":225,"country_code":"TR","country_name":"Turkey","latitude":"37.17030000","longitude":"40.68684000","wikiDataId":"Q1027593"},{"id":107657,"Name":"Gelinkaya","state_id":2224,"state_code":"47","state_name":"Mardin","country_id":225,"country_code":"TR","country_name":"Turkey","latitude":"37.41683000","longitude":"41.26994000","wikiDataId":"Q984701"},{"id":107732,"Name":"Gülveren","state_id":2224,"state_code":"47","state_name":"Mardin","country_id":225,"country_code":"TR","country_name":"Turkey","latitude":"37.48711000","longitude":"41.49446000","wikiDataId":"Q1958579"},{"id":107678,"Name":"Gyundyukoru","state_id":2224,"state_code":"47","state_name":"Mardin","country_id":225,"country_code":"TR","country_name":"Turkey","latitude":"37.14207000","longitude":"40.50149000","wikiDataId":"Q214303"},{"id":107764,"Name":"Haberli","state_id":2224,"state_code":"47","state_name":"Mardin","country_id":225,"country_code":"TR","country_name":"Turkey","latitude":"37.30510000","longitude":"41.61758000","wikiDataId":"Q1027277"},{"id":107857,"Name":"Kabala","state_id":2224,"state_code":"47","state_name":"Mardin","country_id":225,"country_code":"TR","country_name":"Turkey","latitude":"37.34585000","longitude":"40.80059000","wikiDataId":"Q2220128"},{"id":107904,"Name":"Karalar","state_id":2224,"state_code":"47","state_name":"Mardin","country_id":225,"country_code":"TR","country_name":"Turkey","latitude":"37.30073000","longitude":"41.67582000","wikiDataId":"Q6635526"},{"id":107944,"Name":"Kavsan","state_id":2224,"state_code":"47","state_name":"Mardin","country_id":225,"country_code":"TR","country_name":"Turkey","latitude":"37.65653000","longitude":"40.65806000","wikiDataId":"Q1737217"},{"id":107946,"Name":"Kayalıpınar","state_id":2224,"state_code":"47","state_name":"Mardin","country_id":225,"country_code":"TR","country_name":"Turkey","latitude":"37.32983000","longitude":"41.22760000","wikiDataId":"Q1737217"},{"id":107950,"Name":"Kaynakkaya","state_id":2224,"state_code":"47","state_name":"Mardin","country_id":225,"country_code":"TR","country_name":"Turkey","latitude":"37.33968000","longitude":"40.93274000","wikiDataId":"Q6380633"},{"id":107998,"Name":"Kindirip","state_id":2224,"state_code":"47","state_name":"Mardin","country_id":225,"country_code":"TR","country_name":"Turkey","latitude":"37.44706000","longitude":"41.21976000","wikiDataId":"Q206881"},{"id":108098,"Name":"Kılavuz","state_id":2224,"state_code":"47","state_name":"Mardin","country_id":225,"country_code":"TR","country_name":"Turkey","latitude":"37.47960000","longitude":"41.78374000","wikiDataId":"Q639240"},{"id":108118,"Name":"Kızıltepe","state_id":2224,"state_code":"47","state_name":"Mardin","country_id":225,"country_code":"TR","country_name":"Turkey","latitude":"37.18836000","longitude":"40.57723000","wikiDataId":"Q693929"},{"id":108049,"Name":"Kumlu","state_id":2224,"state_code":"47","state_name":"Mardin","country_id":225,"country_code":"TR","country_name":"Turkey","latitude":"37.17222000","longitude":"40.73536000","wikiDataId":"Q1948486"},{"id":108062,"Name":"Kutlubey","state_id":2224,"state_code":"47","state_name":"Mardin","country_id":225,"country_code":"TR","country_name":"Turkey","latitude":"37.30719000","longitude":"41.17720000","wikiDataId":"Q1482869"},{"id":108153,"Name":"Mardin","state_id":2224,"state_code":"47","state_name":"Mardin","country_id":225,"country_code":"TR","country_name":"Turkey","latitude":"37.31309000","longitude":"40.74357000","wikiDataId":"Q188022"},{"id":108154,"Name":"Mardin Merkez","state_id":2224,"state_code":"47","state_name":"Mardin","country_id":225,"country_code":"TR","country_name":"Turkey","latitude":"37.31256000","longitude":"40.73439000","wikiDataId":"Q188022"},{"id":108163,"Name":"Mazıdağı","state_id":2224,"state_code":"47","state_name":"Mardin","country_id":225,"country_code":"TR","country_name":"Turkey","latitude":"37.47801000","longitude":"40.48152000","wikiDataId":"Q1023313"},{"id":108206,"Name":"Midyat","state_id":2224,"state_code":"47","state_name":"Mardin","country_id":225,"country_code":"TR","country_name":"Turkey","latitude":"37.41908000","longitude":"41.33909000","wikiDataId":"Q1367930"},{"id":108258,"Name":"Nusaybin","state_id":2224,"state_code":"47","state_name":"Mardin","country_id":225,"country_code":"TR","country_name":"Turkey","latitude":"37.07028000","longitude":"41.21465000","wikiDataId":"Q1553052"},{"id":108863,"Name":"Ömerli","state_id":2224,"state_code":"47","state_name":"Mardin","country_id":225,"country_code":"TR","country_name":"Turkey","latitude":"37.39903000","longitude":"40.95442000","wikiDataId":"Q1344290"},{"id":108280,"Name":"Ortaca","state_id":2224,"state_code":"47","state_name":"Mardin","country_id":225,"country_code":"TR","country_name":"Turkey","latitude":"37.47394000","longitude":"41.55598000","wikiDataId":"Q1948420"},{"id":108285,"Name":"Ortaköy","state_id":2224,"state_code":"47","state_name":"Mardin","country_id":225,"country_code":"TR","country_name":"Turkey","latitude":"37.22089000","longitude":"40.78476000","wikiDataId":"Q4812037"},{"id":108301,"Name":"Oyalı","state_id":2224,"state_code":"47","state_name":"Mardin","country_id":225,"country_code":"TR","country_name":"Turkey","latitude":"37.22126000","longitude":"41.73862000","wikiDataId":"Q963947"},{"id":108868,"Name":"Özbek","state_id":2224,"state_code":"47","state_name":"Mardin","country_id":225,"country_code":"TR","country_name":"Turkey","latitude":"37.17704000","longitude":"41.69322000","wikiDataId":"Q307726"},{"id":108361,"Name":"Pınardere","state_id":2224,"state_code":"47","state_name":"Mardin","country_id":225,"country_code":"TR","country_name":"Turkey","latitude":"37.47231000","longitude":"40.83402000","wikiDataId":"Q3056024"},{"id":108367,"Name":"Reshidi","state_id":2224,"state_code":"47","state_name":"Mardin","country_id":225,"country_code":"TR","country_name":"Turkey","latitude":"37.49471000","longitude":"40.96806000","wikiDataId":"Q1023298"},{"id":108419,"Name":"Savur","state_id":2224,"state_code":"47","state_name":"Mardin","country_id":225,"country_code":"TR","country_name":"Turkey","latitude":"37.53544000","longitude":"40.87876000","wikiDataId":"Q2384358"},{"id":108426,"Name":"Selah","state_id":2224,"state_code":"47","state_name":"Mardin","country_id":225,"country_code":"TR","country_name":"Turkey","latitude":"37.20541000","longitude":"40.69748000","wikiDataId":"Q250504"},{"id":108953,"Name":"Şenocak","state_id":2224,"state_code":"47","state_name":"Mardin","country_id":225,"country_code":"TR","country_name":"Turkey","latitude":"37.65035000","longitude":"40.69441000","wikiDataId":"Q388842"},{"id":108955,"Name":"Şenyurt","state_id":2224,"state_code":"47","state_name":"Mardin","country_id":225,"country_code":"TR","country_name":"Turkey","latitude":"37.07932000","longitude":"40.64246000","wikiDataId":"Q388899"},{"id":108440,"Name":"Seri","state_id":2224,"state_code":"47","state_name":"Mardin","country_id":225,"country_code":"TR","country_name":"Turkey","latitude":"37.36001000","longitude":"41.30055000","wikiDataId":"Q1937212"},{"id":108445,"Name":"Serkan","state_id":2224,"state_code":"47","state_name":"Mardin","country_id":225,"country_code":"TR","country_name":"Turkey","latitude":"37.15878000","longitude":"41.74132000","wikiDataId":"Q3233881"},{"id":108478,"Name":"Sivrice","state_id":2224,"state_code":"47","state_name":"Mardin","country_id":225,"country_code":"TR","country_name":"Turkey","latitude":"37.27675000","longitude":"41.33569000","wikiDataId":"Q1022144"},{"id":108558,"Name":"Teffi","state_id":2224,"state_code":"47","state_name":"Mardin","country_id":225,"country_code":"TR","country_name":"Turkey","latitude":"37.55781000","longitude":"41.09551000","wikiDataId":"Q1023307"},{"id":108564,"Name":"Telminar","state_id":2224,"state_code":"47","state_name":"Mardin","country_id":225,"country_code":"TR","country_name":"Turkey","latitude":"37.11129000","longitude":"41.38359000","wikiDataId":"Q2530261"},{"id":108565,"Name":"Tepealtı","state_id":2224,"state_code":"47","state_name":"Mardin","country_id":225,"country_code":"TR","country_name":"Turkey","latitude":"37.09595000","longitude":"41.36834000","wikiDataId":"Q2530261"},{"id":108586,"Name":"Toptepe","state_id":2224,"state_code":"47","state_name":"Mardin","country_id":225,"country_code":"TR","country_name":"Turkey","latitude":"37.26113000","longitude":"41.24948000","wikiDataId":"Q609713"},{"id":108682,"Name":"Yaylı","state_id":2224,"state_code":"47","state_name":"Mardin","country_id":225,"country_code":"TR","country_name":"Turkey","latitude":"37.20293000","longitude":"40.75375000","wikiDataId":"Q472878"},{"id":108683,"Name":"Yayvantepe","state_id":2224,"state_code":"47","state_name":"Mardin","country_id":225,"country_code":"TR","country_name":"Turkey","latitude":"37.30131000","longitude":"41.52061000","wikiDataId":"Q472878"},{"id":108721,"Name":"Yeşilalan","state_id":2224,"state_code":"47","state_name":"Mardin","country_id":225,"country_code":"TR","country_name":"Turkey","latitude":"37.46066000","longitude":"40.78441000","wikiDataId":"Q1012911"},{"id":108724,"Name":"Yeşilli","state_id":2224,"state_code":"47","state_name":"Mardin","country_id":225,"country_code":"TR","country_name":"Turkey","latitude":"37.33813000","longitude":"40.81739000","wikiDataId":"Q1012911"},{"id":108732,"Name":"Yolbaşı","state_id":2224,"state_code":"47","state_name":"Mardin","country_id":225,"country_code":"TR","country_name":"Turkey","latitude":"37.38717000","longitude":"41.31778000","wikiDataId":"Q1582858"}]