[{"id":105180,"Name":"Amphoe Akat Amnuai","state_id":3501,"state_code":"47","state_name":"Sakon Nakhon","country_id":219,"country_code":"TH","country_name":"Thailand","latitude":"17.63589000","longitude":"103.97590000","wikiDataId":"Q475058"},{"id":105205,"Name":"Amphoe Ban Muang","state_id":3501,"state_code":"47","state_name":"Sakon Nakhon","country_id":219,"country_code":"TH","country_name":"Thailand","latitude":"17.89569000","longitude":"103.52793000","wikiDataId":"Q475134"},{"id":105287,"Name":"Amphoe Charoen Sin","state_id":3501,"state_code":"47","state_name":"Sakon Nakhon","country_id":219,"country_code":"TH","country_name":"Thailand","latitude":"17.63327000","longitude":"103.52218000","wikiDataId":"Q475368"},{"id":105386,"Name":"Amphoe Kham Ta Kla","state_id":3501,"state_code":"47","state_name":"Sakon Nakhon","country_id":219,"country_code":"TH","country_name":"Thailand","latitude":"17.82547000","longitude":"103.78598000","wikiDataId":"Q475637"},{"id":105419,"Name":"Amphoe Khok Si Suphan","state_id":3501,"state_code":"47","state_name":"Sakon Nakhon","country_id":219,"country_code":"TH","country_name":"Thailand","latitude":"17.02297000","longitude":"104.30346000","wikiDataId":"Q475732"},{"id":105462,"Name":"Amphoe Kusuman","state_id":3501,"state_code":"47","state_name":"Sakon Nakhon","country_id":219,"country_code":"TH","country_name":"Thailand","latitude":"17.35402000","longitude":"104.26677000","wikiDataId":"Q475847"},{"id":105463,"Name":"Amphoe Kut Bak","state_id":3501,"state_code":"47","state_name":"Sakon Nakhon","country_id":219,"country_code":"TH","country_name":"Thailand","latitude":"17.08205000","longitude":"103.81469000","wikiDataId":"Q475849"},{"id":105583,"Name":"Amphoe Mueang Sakon Nakhon","state_id":3501,"state_code":"47","state_name":"Sakon Nakhon","country_id":219,"country_code":"TH","country_name":"Thailand","latitude":"17.16163000","longitude":"104.10519000","wikiDataId":"Q476077"},{"id":105644,"Name":"Amphoe Nikhom Nam Un","state_id":3501,"state_code":"47","state_name":"Sakon Nakhon","country_id":219,"country_code":"TH","country_name":"Thailand","latitude":"17.17349000","longitude":"103.73511000","wikiDataId":"Q476206"},{"id":105724,"Name":"Amphoe Phang Khon","state_id":3501,"state_code":"47","state_name":"Sakon Nakhon","country_id":219,"country_code":"TH","country_name":"Thailand","latitude":"17.38267000","longitude":"103.75146000","wikiDataId":"Q476371"},{"id":105725,"Name":"Amphoe Phanna Nikhom","state_id":3501,"state_code":"47","state_name":"Sakon Nakhon","country_id":219,"country_code":"TH","country_name":"Thailand","latitude":"17.31369000","longitude":"103.89791000","wikiDataId":"Q476372"},{"id":105753,"Name":"Amphoe Phon Na Kaeo","state_id":3501,"state_code":"47","state_name":"Sakon Nakhon","country_id":219,"country_code":"TH","country_name":"Thailand","latitude":"17.21248000","longitude":"104.30700000","wikiDataId":"Q476422"},{"id":105778,"Name":"Amphoe Phu Phan","state_id":3501,"state_code":"47","state_name":"Sakon Nakhon","country_id":219,"country_code":"TH","country_name":"Thailand","latitude":"16.92862000","longitude":"103.92400000","wikiDataId":"Q476481"},{"id":106201,"Name":"Amphoe Sawang Daen Din","state_id":3501,"state_code":"47","state_name":"Sakon Nakhon","country_id":219,"country_code":"TH","country_name":"Thailand","latitude":"17.45590000","longitude":"103.44950000","wikiDataId":"Q476665"},{"id":106245,"Name":"Amphoe Song Dao","state_id":3501,"state_code":"47","state_name":"Sakon Nakhon","country_id":219,"country_code":"TH","country_name":"Thailand","latitude":"17.30883000","longitude":"103.44987000","wikiDataId":"Q283632"},{"id":106268,"Name":"Amphoe Tao Ngoi","state_id":3501,"state_code":"47","state_name":"Sakon Nakhon","country_id":219,"country_code":"TH","country_name":"Thailand","latitude":"16.94022000","longitude":"104.15863000","wikiDataId":"Q476812"},{"id":106351,"Name":"Amphoe Wanon Niwat","state_id":3501,"state_code":"47","state_name":"Sakon Nakhon","country_id":219,"country_code":"TH","country_name":"Thailand","latitude":"17.61516000","longitude":"103.76536000","wikiDataId":"Q477036"},{"id":106354,"Name":"Amphoe Waritchaphum","state_id":3501,"state_code":"47","state_name":"Sakon Nakhon","country_id":219,"country_code":"TH","country_name":"Thailand","latitude":"17.25692000","longitude":"103.62283000","wikiDataId":"Q477045"},{"id":106675,"Name":"Sakon Nakhon","state_id":3501,"state_code":"47","state_name":"Sakon Nakhon","country_id":219,"country_code":"TH","country_name":"Thailand","latitude":"17.16116000","longitude":"104.14725000","wikiDataId":"Q1012639"},{"id":106693,"Name":"Sawang Daen Din","state_id":3501,"state_code":"47","state_name":"Sakon Nakhon","country_id":219,"country_code":"TH","country_name":"Thailand","latitude":"17.47531000","longitude":"103.45753000","wikiDataId":"Q28726658"}]