[{"id":65281,"Name":"Changnyeong","state_id":3857,"state_code":"48","state_name":"South Gyeongsang Province","country_id":116,"country_code":"KR","country_name":"South Korea","latitude":"35.54145000","longitude":"128.49506000","wikiDataId":"Q50247"},{"id":65282,"Name":"Changnyeong-gun","state_id":3857,"state_code":"48","state_name":"South Gyeongsang Province","country_id":116,"country_code":"KR","country_name":"South Korea","latitude":"35.50822000","longitude":"128.49020000","wikiDataId":"Q50247"},{"id":65284,"Name":"Changwon","state_id":3857,"state_code":"48","state_name":"South Gyeongsang Province","country_id":116,"country_code":"KR","country_name":"South Korea","latitude":"35.22806000","longitude":"128.68111000","wikiDataId":"Q243327"},{"id":65285,"Name":"Changwon-si","state_id":3857,"state_code":"48","state_name":"South Gyeongsang Province","country_id":116,"country_code":"KR","country_name":"South Korea","latitude":"35.27533000","longitude":"128.65152000","wikiDataId":"Q243327"},{"id":65296,"Name":"Chinju","state_id":3857,"state_code":"48","state_name":"South Gyeongsang Province","country_id":116,"country_code":"KR","country_name":"South Korea","latitude":"35.19278000","longitude":"128.08472000","wikiDataId":"Q42144"},{"id":65328,"Name":"Geochang-gun","state_id":3857,"state_code":"48","state_name":"South Gyeongsang Province","country_id":116,"country_code":"KR","country_name":"South Korea","latitude":"35.73034000","longitude":"127.90149000","wikiDataId":"Q50203"},{"id":65329,"Name":"Geoje-si","state_id":3857,"state_code":"48","state_name":"South Gyeongsang Province","country_id":116,"country_code":"KR","country_name":"South Korea","latitude":"34.90000000","longitude":"128.66666000","wikiDataId":"Q50203"},{"id":65337,"Name":"Gimhae-si","state_id":3857,"state_code":"48","state_name":"South Gyeongsang Province","country_id":116,"country_code":"KR","country_name":"South Korea","latitude":"35.25000000","longitude":"128.86667000","wikiDataId":"Q42082"},{"id":65347,"Name":"Goseong","state_id":3857,"state_code":"48","state_name":"South Gyeongsang Province","country_id":116,"country_code":"KR","country_name":"South Korea","latitude":"34.97631000","longitude":"128.32361000","wikiDataId":"Q42062"},{"id":65348,"Name":"Goseong-gun","state_id":3857,"state_code":"48","state_name":"South Gyeongsang Province","country_id":116,"country_code":"KR","country_name":"South Korea","latitude":"35.01478000","longitude":"128.28244000","wikiDataId":"Q50208"},{"id":65372,"Name":"Hadong-gun","state_id":3857,"state_code":"48","state_name":"South Gyeongsang Province","country_id":116,"country_code":"KR","country_name":"South Korea","latitude":"35.13628000","longitude":"127.77291000","wikiDataId":"Q26212"},{"id":65376,"Name":"Haman-gun","state_id":3857,"state_code":"48","state_name":"South Gyeongsang Province","country_id":116,"country_code":"KR","country_name":"South Korea","latitude":"35.29117000","longitude":"128.42970000","wikiDataId":"Q50338"},{"id":65380,"Name":"Hapcheon-gun","state_id":3857,"state_code":"48","state_name":"South Gyeongsang Province","country_id":116,"country_code":"KR","country_name":"South Korea","latitude":"35.57410000","longitude":"128.13841000","wikiDataId":"Q50341"},{"id":65418,"Name":"Jinju-si","state_id":3857,"state_code":"48","state_name":"South Gyeongsang Province","country_id":116,"country_code":"KR","country_name":"South Korea","latitude":"35.20445000","longitude":"128.12408000","wikiDataId":"Q50325"},{"id":65425,"Name":"Kimhae","state_id":3857,"state_code":"48","state_name":"South Gyeongsang Province","country_id":116,"country_code":"KR","country_name":"South Korea","latitude":"35.23417000","longitude":"128.88111000","wikiDataId":"Q50444"},{"id":65435,"Name":"Kyosai","state_id":3857,"state_code":"48","state_name":"South Gyeongsang Province","country_id":116,"country_code":"KR","country_name":"South Korea","latitude":"34.85028000","longitude":"128.58861000","wikiDataId":"Q42057"},{"id":65439,"Name":"Miryang","state_id":3857,"state_code":"48","state_name":"South Gyeongsang Province","country_id":116,"country_code":"KR","country_name":"South Korea","latitude":"35.49333000","longitude":"128.74889000","wikiDataId":"Q42096"},{"id":65440,"Name":"Miryang-si","state_id":3857,"state_code":"48","state_name":"South Gyeongsang Province","country_id":116,"country_code":"KR","country_name":"South Korea","latitude":"35.49750000","longitude":"128.78690000","wikiDataId":"Q42096"},{"id":65449,"Name":"Naes≈è","state_id":3857,"state_code":"48","state_name":"South Gyeongsang Province","country_id":116,"country_code":"KR","country_name":"South Korea","latitude":"35.24972000","longitude":"128.52000000","wikiDataId":"Q42095"},{"id":65454,"Name":"Namhae-gun","state_id":3857,"state_code":"48","state_name":"South Gyeongsang Province","country_id":116,"country_code":"KR","country_name":"South Korea","latitude":"34.80433000","longitude":"127.92708000","wikiDataId":"Q50364"},{"id":65476,"Name":"Sacheon-si","state_id":3857,"state_code":"48","state_name":"South Gyeongsang Province","country_id":116,"country_code":"KR","country_name":"South Korea","latitude":"35.00385000","longitude":"128.06857000","wikiDataId":"Q42154"},{"id":65479,"Name":"Sancheong-gun","state_id":3857,"state_code":"48","state_name":"South Gyeongsang Province","country_id":116,"country_code":"KR","country_name":"South Korea","latitude":"35.36625000","longitude":"127.87065000","wikiDataId":"Q50248"},{"id":65502,"Name":"Sinhyeon","state_id":3857,"state_code":"48","state_name":"South Gyeongsang Province","country_id":116,"country_code":"KR","country_name":"South Korea","latitude":"34.88250000","longitude":"128.62667000","wikiDataId":"Q50252"},{"id":65521,"Name":"Uiryeong-gun","state_id":3857,"state_code":"48","state_name":"South Gyeongsang Province","country_id":116,"country_code":"KR","country_name":"South Korea","latitude":"35.39230000","longitude":"128.26917000","wikiDataId":"Q50316"},{"id":65528,"Name":"Ungsang","state_id":3857,"state_code":"48","state_name":"South Gyeongsang Province","country_id":116,"country_code":"KR","country_name":"South Korea","latitude":"35.40611000","longitude":"129.16861000","wikiDataId":"Q485570"},{"id":65542,"Name":"Yangsan","state_id":3857,"state_code":"48","state_name":"South Gyeongsang Province","country_id":116,"country_code":"KR","country_name":"South Korea","latitude":"35.34199000","longitude":"129.03358000","wikiDataId":"Q42123"}]