[{"id":105193,"Name":"Amphoe Ban Hong","state_id":3483,"state_code":"51","state_name":"Lamphun","country_id":219,"country_code":"TH","country_name":"Thailand","latitude":"18.27422000","longitude":"98.83794000","wikiDataId":"Q475104"},{"id":105220,"Name":"Amphoe Ban Thi","state_id":3483,"state_code":"51","state_name":"Lamphun","country_id":219,"country_code":"TH","country_name":"Thailand","latitude":"18.65894000","longitude":"99.15883000","wikiDataId":"Q475185"},{"id":105490,"Name":"Amphoe Li","state_id":3483,"state_code":"51","state_name":"Lamphun","country_id":219,"country_code":"TH","country_name":"Thailand","latitude":"17.78639000","longitude":"98.88674000","wikiDataId":"Q475906"},{"id":105516,"Name":"Amphoe Mae Tha","state_id":3483,"state_code":"51","state_name":"Lamphun","country_id":219,"country_code":"TH","country_name":"Thailand","latitude":"18.39540000","longitude":"99.09233000","wikiDataId":"Q475974"},{"id":105548,"Name":"Amphoe Mueang Lamphun","state_id":3483,"state_code":"51","state_name":"Lamphun","country_id":219,"country_code":"TH","country_name":"Thailand","latitude":"18.55217000","longitude":"99.05905000","wikiDataId":"Q476025"},{"id":105697,"Name":"Amphoe Pa Sang","state_id":3483,"state_code":"51","state_name":"Lamphun","country_id":219,"country_code":"TH","country_name":"Thailand","latitude":"18.41397000","longitude":"98.88281000","wikiDataId":"Q476314"},{"id":106313,"Name":"Amphoe Thung Hua Chang","state_id":3483,"state_code":"51","state_name":"Lamphun","country_id":219,"country_code":"TH","country_name":"Thailand","latitude":"17.98333000","longitude":"99.05000000","wikiDataId":"Q476935"},{"id":106364,"Name":"Amphoe Wiang Nong Long","state_id":3483,"state_code":"51","state_name":"Lamphun","country_id":219,"country_code":"TH","country_name":"Thailand","latitude":"18.41844000","longitude":"98.75856000","wikiDataId":"Q477076"},{"id":106550,"Name":"Lamphun","state_id":3483,"state_code":"51","state_name":"Lamphun","country_id":219,"country_code":"TH","country_name":"Thailand","latitude":"18.58054000","longitude":"99.00745000","wikiDataId":"Q1211214"},{"id":106567,"Name":"Mae Tha","state_id":3483,"state_code":"51","state_name":"Lamphun","country_id":219,"country_code":"TH","country_name":"Thailand","latitude":"18.46456000","longitude":"99.14026000","wikiDataId":"Q1015445"},{"id":106607,"Name":"Pa Sang","state_id":3483,"state_code":"51","state_name":"Lamphun","country_id":219,"country_code":"TH","country_name":"Thailand","latitude":"18.52617000","longitude":"98.93936000","wikiDataId":"Q28727197"}]