[{"id":107182,"Name":"Ardeşen","state_id":2219,"state_code":"53","state_name":"Rize","country_id":225,"country_code":"TR","country_name":"Turkey","latitude":"41.19111000","longitude":"40.98750000","wikiDataId":"Q638539"},{"id":108800,"Name":"Çayeli","state_id":2219,"state_code":"53","state_name":"Rize","country_id":225,"country_code":"TR","country_name":"Turkey","latitude":"41.08941000","longitude":"40.73696000","wikiDataId":"Q2248873"},{"id":107644,"Name":"Fındıklı","state_id":2219,"state_code":"53","state_name":"Rize","country_id":225,"country_code":"TR","country_name":"Turkey","latitude":"41.27110000","longitude":"41.14449000","wikiDataId":"Q1921294"},{"id":107743,"Name":"Güneysu","state_id":2219,"state_code":"53","state_name":"Rize","country_id":225,"country_code":"TR","country_name":"Turkey","latitude":"40.98130000","longitude":"40.60465000","wikiDataId":"Q2671034"},{"id":107821,"Name":"Hemşin İlçesi","state_id":2219,"state_code":"53","state_name":"Rize","country_id":225,"country_code":"TR","country_name":"Turkey","latitude":"41.05922000","longitude":"40.90140000","wikiDataId":"Q1025138"},{"id":108889,"Name":"İkizdere İlçesi","state_id":2219,"state_code":"53","state_name":"Rize","country_id":225,"country_code":"TR","country_name":"Turkey","latitude":"40.77713000","longitude":"40.56076000","wikiDataId":"Q2670748"},{"id":108922,"Name":"İyidere","state_id":2219,"state_code":"53","state_name":"Rize","country_id":225,"country_code":"TR","country_name":"Turkey","latitude":"41.00905000","longitude":"40.37776000","wikiDataId":"Q2598753"},{"id":107877,"Name":"Kalkandere","state_id":2219,"state_code":"53","state_name":"Rize","country_id":225,"country_code":"TR","country_name":"Turkey","latitude":"40.92143000","longitude":"40.43999000","wikiDataId":"Q2670776"},{"id":108257,"Name":"Nurluca","state_id":2219,"state_code":"53","state_name":"Rize","country_id":225,"country_code":"TR","country_name":"Turkey","latitude":"41.03519000","longitude":"40.90584000","wikiDataId":"Q1004573"},{"id":108321,"Name":"Pazar","state_id":2219,"state_code":"53","state_name":"Rize","country_id":225,"country_code":"TR","country_name":"Turkey","latitude":"41.17917000","longitude":"40.88417000","wikiDataId":"Q1920516"},{"id":108371,"Name":"Rize","state_id":2219,"state_code":"53","state_name":"Rize","country_id":225,"country_code":"TR","country_name":"Turkey","latitude":"41.02083000","longitude":"40.52194000","wikiDataId":"Q201101"}]