[{"id":135275,"Name":"Acquasparta","state_id":1683,"state_code":"55","state_name":"Umbria","country_id":107,"country_code":"IT","country_name":"Italy","latitude":"42.68915000","longitude":"12.54275000","wikiDataId":"Q18461170"},{"id":135417,"Name":"Allerona","state_id":1683,"state_code":"55","state_name":"Umbria","country_id":107,"country_code":"IT","country_name":"Italy","latitude":"42.81174000","longitude":"11.97451000","wikiDataId":"Q18454404"},{"id":135447,"Name":"Alviano","state_id":1683,"state_code":"55","state_name":"Umbria","country_id":107,"country_code":"IT","country_name":"Italy","latitude":"42.59084000","longitude":"12.29775000","wikiDataId":"Q3613147"},{"id":135468,"Name":"Amelia","state_id":1683,"state_code":"55","state_name":"Umbria","country_id":107,"country_code":"IT","country_name":"Italy","latitude":"42.55177000","longitude":"12.42076000","wikiDataId":"Q3613790"},{"id":135635,"Name":"Arrone","state_id":1683,"state_code":"55","state_name":"Umbria","country_id":107,"country_code":"IT","country_name":"Italy","latitude":"42.58266000","longitude":"12.76714000","wikiDataId":"Q18436874"},{"id":135666,"Name":"Assisi","state_id":1683,"state_code":"55","state_name":"Umbria","country_id":107,"country_code":"IT","country_name":"Italy","latitude":"43.06671000","longitude":"12.62109000","wikiDataId":"Q3625263"},{"id":135681,"Name":"Attigliano","state_id":1683,"state_code":"55","state_name":"Umbria","country_id":107,"country_code":"IT","country_name":"Italy","latitude":"42.51505000","longitude":"12.29455000","wikiDataId":"Q18452704"},{"id":135710,"Name":"Avigliano Umbro","state_id":1683,"state_code":"55","state_name":"Umbria","country_id":107,"country_code":"IT","country_name":"Italy","latitude":"42.65303000","longitude":"12.42571000","wikiDataId":"Q18448272"},{"id":135880,"Name":"Baschi","state_id":1683,"state_code":"55","state_name":"Umbria","country_id":107,"country_code":"IT","country_name":"Italy","latitude":"42.67324000","longitude":"12.21762000","wikiDataId":"Q3635515"},{"id":135898,"Name":"Bastardo","state_id":1683,"state_code":"55","state_name":"Umbria","country_id":107,"country_code":"IT","country_name":"Italy","latitude":"42.87144000","longitude":"12.55943000","wikiDataId":"Q1132242"},{"id":135901,"Name":"Bastia umbra","state_id":1683,"state_code":"55","state_name":"Umbria","country_id":107,"country_code":"IT","country_name":"Italy","latitude":"43.06425000","longitude":"12.54612000","wikiDataId":"Q18497308"},{"id":136022,"Name":"Bettona","state_id":1683,"state_code":"55","state_name":"Umbria","country_id":107,"country_code":"IT","country_name":"Italy","latitude":"43.01124000","longitude":"12.48698000","wikiDataId":"Q676702"},{"id":136024,"Name":"Bevagna","state_id":1683,"state_code":"55","state_name":"Umbria","country_id":107,"country_code":"IT","country_name":"Italy","latitude":"42.93748000","longitude":"12.61488000","wikiDataId":"Q18445866"},{"id":136368,"Name":"Bruna","state_id":1683,"state_code":"55","state_name":"Umbria","country_id":107,"country_code":"IT","country_name":"Italy","latitude":"42.82071000","longitude":"12.68851000","wikiDataId":"Q3645550"},{"id":136559,"Name":"Calvi dell'Umbria","state_id":1683,"state_code":"55","state_name":"Umbria","country_id":107,"country_code":"IT","country_name":"Italy","latitude":"42.40421000","longitude":"12.56771000","wikiDataId":"Q18503049"},{"id":136612,"Name":"Campello sul Clitunno","state_id":1683,"state_code":"55","state_name":"Umbria","country_id":107,"country_code":"IT","country_name":"Italy","latitude":"42.82685000","longitude":"12.76931000","wikiDataId":"Q18469409"},{"id":136719,"Name":"Cannara","state_id":1683,"state_code":"55","state_name":"Umbria","country_id":107,"country_code":"IT","country_name":"Italy","latitude":"42.99540000","longitude":"12.58202000","wikiDataId":"Q18426515"},{"id":136772,"Name":"Capitan Loreto","state_id":1683,"state_code":"55","state_name":"Umbria","country_id":107,"country_code":"IT","country_name":"Italy","latitude":"43.01731000","longitude":"12.64750000","wikiDataId":"Q18492329"},{"id":136951,"Name":"Casa del Diavolo","state_id":1683,"state_code":"55","state_name":"Umbria","country_id":107,"country_code":"IT","country_name":"Italy","latitude":"43.18762000","longitude":"12.44923000","wikiDataId":"Q18492356"},{"id":137045,"Name":"Cascia","state_id":1683,"state_code":"55","state_name":"Umbria","country_id":107,"country_code":"IT","country_name":"Italy","latitude":"42.71790000","longitude":"13.01697000","wikiDataId":"Q3661528"},{"id":137140,"Name":"Castel Giorgio","state_id":1683,"state_code":"55","state_name":"Umbria","country_id":107,"country_code":"IT","country_name":"Italy","latitude":"42.70697000","longitude":"11.97717000","wikiDataId":"Q18454463"},{"id":137147,"Name":"Castel Ritaldi","state_id":1683,"state_code":"55","state_name":"Umbria","country_id":107,"country_code":"IT","country_name":"Italy","latitude":"42.82247000","longitude":"12.67420000","wikiDataId":"Q18454463"},{"id":137159,"Name":"Castel Viscardo","state_id":1683,"state_code":"55","state_name":"Umbria","country_id":107,"country_code":"IT","country_name":"Italy","latitude":"42.75359000","longitude":"12.00072000","wikiDataId":"Q18454463"},{"id":137319,"Name":"Casteltodino","state_id":1683,"state_code":"55","state_name":"Umbria","country_id":107,"country_code":"IT","country_name":"Italy","latitude":"42.66667000","longitude":"12.50000000","wikiDataId":"Q2163325"},{"id":137353,"Name":"Castiglione del Lago","state_id":1683,"state_code":"55","state_name":"Umbria","country_id":107,"country_code":"IT","country_name":"Italy","latitude":"43.12457000","longitude":"12.03982000","wikiDataId":"Q18457021"},{"id":137520,"Name":"Cerbara","state_id":1683,"state_code":"55","state_name":"Umbria","country_id":107,"country_code":"IT","country_name":"Italy","latitude":"43.49913000","longitude":"12.21113000","wikiDataId":"Q18492542"},{"id":137569,"Name":"Cerreto di Spoleto","state_id":1683,"state_code":"55","state_name":"Umbria","country_id":107,"country_code":"IT","country_name":"Italy","latitude":"42.82188000","longitude":"12.92032000","wikiDataId":"Q18427252"},{"id":137683,"Name":"Chiugiana-La Commenda","state_id":1683,"state_code":"55","state_name":"Umbria","country_id":107,"country_code":"IT","country_name":"Italy","latitude":"43.09823000","longitude":"12.30818000","wikiDataId":"Q2586177"},{"id":137713,"Name":"Ciconia","state_id":1683,"state_code":"55","state_name":"Umbria","country_id":107,"country_code":"IT","country_name":"Italy","latitude":"42.73356000","longitude":"12.13400000","wikiDataId":"Q2132286"},{"id":137744,"Name":"Cipolleto","state_id":1683,"state_code":"55","state_name":"Umbria","country_id":107,"country_code":"IT","country_name":"Italy","latitude":"43.32393000","longitude":"12.57688000","wikiDataId":"Q18492580"},{"id":137764,"Name":"Citerna","state_id":1683,"state_code":"55","state_name":"Umbria","country_id":107,"country_code":"IT","country_name":"Italy","latitude":"43.49882000","longitude":"12.11376000","wikiDataId":"Q18461630"},{"id":137773,"Name":"Città della Pieve","state_id":1683,"state_code":"55","state_name":"Umbria","country_id":107,"country_code":"IT","country_name":"Italy","latitude":"42.95934000","longitude":"12.00696000","wikiDataId":"Q590156"},{"id":137774,"Name":"Città di Castello","state_id":1683,"state_code":"55","state_name":"Umbria","country_id":107,"country_code":"IT","country_name":"Italy","latitude":"43.46556000","longitude":"12.23750000","wikiDataId":"Q590156"},{"id":137858,"Name":"Collazzone","state_id":1683,"state_code":"55","state_name":"Umbria","country_id":107,"country_code":"IT","country_name":"Italy","latitude":"42.90147000","longitude":"12.43582000","wikiDataId":"Q987465"},{"id":137888,"Name":"Collepepe","state_id":1683,"state_code":"55","state_name":"Umbria","country_id":107,"country_code":"IT","country_name":"Italy","latitude":"42.91548000","longitude":"12.39486000","wikiDataId":"Q1951859"},{"id":137920,"Name":"Colombella","state_id":1683,"state_code":"55","state_name":"Umbria","country_id":107,"country_code":"IT","country_name":"Italy","latitude":"43.15262000","longitude":"12.48239000","wikiDataId":"Q18492666"},{"id":137999,"Name":"Corciano","state_id":1683,"state_code":"55","state_name":"Umbria","country_id":107,"country_code":"IT","country_name":"Italy","latitude":"43.12821000","longitude":"12.28684000","wikiDataId":"Q18442371"},{"id":138103,"Name":"Costacciaro","state_id":1683,"state_code":"55","state_name":"Umbria","country_id":107,"country_code":"IT","country_name":"Italy","latitude":"43.35866000","longitude":"12.71262000","wikiDataId":"Q18473241"},{"id":138104,"Name":"Costano","state_id":1683,"state_code":"55","state_name":"Umbria","country_id":107,"country_code":"IT","country_name":"Italy","latitude":"43.04420000","longitude":"12.53410000","wikiDataId":"Q663531"},{"id":138252,"Name":"Deruta","state_id":1683,"state_code":"55","state_name":"Umbria","country_id":107,"country_code":"IT","country_name":"Italy","latitude":"42.98465000","longitude":"12.41760000","wikiDataId":"Q1627174"},{"id":138397,"Name":"Fabro","state_id":1683,"state_code":"55","state_name":"Umbria","country_id":107,"country_code":"IT","country_name":"Italy","latitude":"42.87267000","longitude":"12.01540000","wikiDataId":"Q18429765"},{"id":138398,"Name":"Fabro Scalo","state_id":1683,"state_code":"55","state_name":"Umbria","country_id":107,"country_code":"IT","country_name":"Italy","latitude":"42.87605000","longitude":"12.04624000","wikiDataId":"Q18494710"},{"id":138479,"Name":"Ferentillo","state_id":1683,"state_code":"55","state_name":"Umbria","country_id":107,"country_code":"IT","country_name":"Italy","latitude":"42.62027000","longitude":"12.78726000","wikiDataId":"Q18498384"},{"id":138506,"Name":"Ficulle","state_id":1683,"state_code":"55","state_name":"Umbria","country_id":107,"country_code":"IT","country_name":"Italy","latitude":"42.83194000","longitude":"12.06801000","wikiDataId":"Q18457570"},{"id":138582,"Name":"Foligno","state_id":1683,"state_code":"55","state_name":"Umbria","country_id":107,"country_code":"IT","country_name":"Italy","latitude":"42.95488000","longitude":"12.70268000","wikiDataId":"Q18445985"},{"id":138614,"Name":"Fontignano","state_id":1683,"state_code":"55","state_name":"Umbria","country_id":107,"country_code":"IT","country_name":"Italy","latitude":"43.02436000","longitude":"12.19190000","wikiDataId":"Q1070894"},{"id":138658,"Name":"Fornole","state_id":1683,"state_code":"55","state_name":"Umbria","country_id":107,"country_code":"IT","country_name":"Italy","latitude":"42.54218000","longitude":"12.45576000","wikiDataId":"Q3748429"},{"id":138677,"Name":"Fossato di Vico","state_id":1683,"state_code":"55","state_name":"Umbria","country_id":107,"country_code":"IT","country_name":"Italy","latitude":"43.29644000","longitude":"12.76121000","wikiDataId":"Q18432505"},{"id":138721,"Name":"Fratta Todina","state_id":1683,"state_code":"55","state_name":"Umbria","country_id":107,"country_code":"IT","country_name":"Italy","latitude":"42.85684000","longitude":"12.36366000","wikiDataId":"Q3752466"},{"id":138943,"Name":"Giano dell'Umbria","state_id":1683,"state_code":"55","state_name":"Umbria","country_id":107,"country_code":"IT","country_name":"Italy","latitude":"42.83384000","longitude":"12.57777000","wikiDataId":"Q3762446"},{"id":138976,"Name":"Giove","state_id":1683,"state_code":"55","state_name":"Umbria","country_id":107,"country_code":"IT","country_name":"Italy","latitude":"42.50988000","longitude":"12.33015000","wikiDataId":"Q2038926"},{"id":139146,"Name":"Gualdo Cattaneo","state_id":1683,"state_code":"55","state_name":"Umbria","country_id":107,"country_code":"IT","country_name":"Italy","latitude":"42.91228000","longitude":"12.55666000","wikiDataId":"Q18453762"},{"id":139147,"Name":"Gualdo Tadino","state_id":1683,"state_code":"55","state_name":"Umbria","country_id":107,"country_code":"IT","country_name":"Italy","latitude":"43.22941000","longitude":"12.77862000","wikiDataId":"Q18453762"},{"id":139158,"Name":"Guardea","state_id":1683,"state_code":"55","state_name":"Umbria","country_id":107,"country_code":"IT","country_name":"Italy","latitude":"42.62370000","longitude":"12.29928000","wikiDataId":"Q18429326"},{"id":139173,"Name":"Gubbio","state_id":1683,"state_code":"55","state_name":"Umbria","country_id":107,"country_code":"IT","country_name":"Italy","latitude":"43.34996000","longitude":"12.57309000","wikiDataId":"Q18491689"},{"id":139317,"Name":"Lacugnano","state_id":1683,"state_code":"55","state_name":"Umbria","country_id":107,"country_code":"IT","country_name":"Italy","latitude":"43.09475000","longitude":"12.33150000","wikiDataId":"Q18492964"},{"id":139539,"Name":"Lisciano Niccone","state_id":1683,"state_code":"55","state_name":"Umbria","country_id":107,"country_code":"IT","country_name":"Italy","latitude":"43.24684000","longitude":"12.14305000","wikiDataId":"Q3833372"},{"id":139647,"Name":"Lugnano in Teverina","state_id":1683,"state_code":"55","state_name":"Umbria","country_id":107,"country_code":"IT","country_name":"Italy","latitude":"42.57592000","longitude":"12.33336000","wikiDataId":"Q3839209"},{"id":139720,"Name":"Magione","state_id":1683,"state_code":"55","state_name":"Umbria","country_id":107,"country_code":"IT","country_name":"Italy","latitude":"43.14179000","longitude":"12.21169000","wikiDataId":"Q3842921"},{"id":139809,"Name":"Mantignana","state_id":1683,"state_code":"55","state_name":"Umbria","country_id":107,"country_code":"IT","country_name":"Italy","latitude":"43.15992000","longitude":"12.28855000","wikiDataId":"Q3844917"},{"id":139920,"Name":"Marsciano","state_id":1683,"state_code":"55","state_name":"Umbria","country_id":107,"country_code":"IT","country_name":"Italy","latitude":"42.92093000","longitude":"12.35066000","wikiDataId":"Q18444890"},{"id":139974,"Name":"Massa Martana","state_id":1683,"state_code":"55","state_name":"Umbria","country_id":107,"country_code":"IT","country_name":"Italy","latitude":"42.77312000","longitude":"12.52579000","wikiDataId":"Q95114"},{"id":140028,"Name":"Meggiano","state_id":1683,"state_code":"55","state_name":"Umbria","country_id":107,"country_code":"IT","country_name":"Italy","latitude":"42.75474000","longitude":"12.86379000","wikiDataId":"Q18493090"},{"id":140354,"Name":"Monte Castello di Vibio","state_id":1683,"state_code":"55","state_name":"Umbria","country_id":107,"country_code":"IT","country_name":"Italy","latitude":"42.84040000","longitude":"12.35240000","wikiDataId":"Q18454834"},{"id":140359,"Name":"Monte Grimano","state_id":1683,"state_code":"55","state_name":"Umbria","country_id":107,"country_code":"IT","country_name":"Italy","latitude":"43.46667000","longitude":"12.46667000","wikiDataId":"Q18493147"},{"id":140380,"Name":"Monte Santa Maria Tiberina","state_id":1683,"state_code":"55","state_name":"Umbria","country_id":107,"country_code":"IT","country_name":"Italy","latitude":"43.43688000","longitude":"12.16220000","wikiDataId":"Q18453228"},{"id":140404,"Name":"Montecastrilli","state_id":1683,"state_code":"55","state_name":"Umbria","country_id":107,"country_code":"IT","country_name":"Italy","latitude":"42.65087000","longitude":"12.48811000","wikiDataId":"Q1903460"},{"id":140409,"Name":"Montecchio","state_id":1683,"state_code":"55","state_name":"Umbria","country_id":107,"country_code":"IT","country_name":"Italy","latitude":"42.66234000","longitude":"12.28803000","wikiDataId":"Q2182778"},{"id":140430,"Name":"Montefalco","state_id":1683,"state_code":"55","state_name":"Umbria","country_id":107,"country_code":"IT","country_name":"Italy","latitude":"42.89084000","longitude":"12.64827000","wikiDataId":"Q18436663"},{"id":140447,"Name":"Montefranco","state_id":1683,"state_code":"55","state_name":"Umbria","country_id":107,"country_code":"IT","country_name":"Italy","latitude":"42.59835000","longitude":"12.76376000","wikiDataId":"Q18494838"},{"id":140450,"Name":"Montegabbione","state_id":1683,"state_code":"55","state_name":"Umbria","country_id":107,"country_code":"IT","country_name":"Italy","latitude":"42.91973000","longitude":"12.09212000","wikiDataId":"Q18494838"},{"id":140469,"Name":"Monteleone d'Orvieto","state_id":1683,"state_code":"55","state_name":"Umbria","country_id":107,"country_code":"IT","country_name":"Italy","latitude":"42.92171000","longitude":"12.05347000","wikiDataId":"Q18454897"},{"id":140472,"Name":"Monteleone di Spoleto","state_id":1683,"state_code":"55","state_name":"Umbria","country_id":107,"country_code":"IT","country_name":"Italy","latitude":"42.65046000","longitude":"12.95158000","wikiDataId":"Q18454897"},{"id":140579,"Name":"Montone","state_id":1683,"state_code":"55","state_name":"Umbria","country_id":107,"country_code":"IT","country_name":"Italy","latitude":"43.36078000","longitude":"12.32346000","wikiDataId":"Q18495968"},{"id":140719,"Name":"Narni","state_id":1683,"state_code":"55","state_name":"Umbria","country_id":107,"country_code":"IT","country_name":"Italy","latitude":"42.51956000","longitude":"12.52758000","wikiDataId":"Q18241891"},{"id":140720,"Name":"Narni Scalo","state_id":1683,"state_code":"55","state_name":"Umbria","country_id":107,"country_code":"IT","country_name":"Italy","latitude":"42.53620000","longitude":"12.51680000","wikiDataId":"Q18494864"},{"id":140786,"Name":"Nocera Umbra","state_id":1683,"state_code":"55","state_name":"Umbria","country_id":107,"country_code":"IT","country_name":"Italy","latitude":"43.11400000","longitude":"12.78925000","wikiDataId":"Q18429380"},{"id":140807,"Name":"Norcia","state_id":1683,"state_code":"55","state_name":"Umbria","country_id":107,"country_code":"IT","country_name":"Italy","latitude":"42.79105000","longitude":"13.09600000","wikiDataId":"Q30028227"},{"id":140993,"Name":"Orvieto","state_id":1683,"state_code":"55","state_name":"Umbria","country_id":107,"country_code":"IT","country_name":"Italy","latitude":"42.71924000","longitude":"12.11249000","wikiDataId":"Q3886214"},{"id":140994,"Name":"Orvieto Scalo","state_id":1683,"state_code":"55","state_name":"Umbria","country_id":107,"country_code":"IT","country_name":"Italy","latitude":"42.72088000","longitude":"12.13402000","wikiDataId":"Q18494870"},{"id":141001,"Name":"Oscano","state_id":1683,"state_code":"55","state_name":"Umbria","country_id":107,"country_code":"IT","country_name":"Italy","latitude":"43.15863000","longitude":"12.33776000","wikiDataId":"Q18493268"},{"id":141021,"Name":"Ospedalicchio","state_id":1683,"state_code":"55","state_name":"Umbria","country_id":107,"country_code":"IT","country_name":"Italy","latitude":"43.07812000","longitude":"12.50074000","wikiDataId":"Q1811799"},{"id":141039,"Name":"Osteria del Gatto","state_id":1683,"state_code":"55","state_name":"Umbria","country_id":107,"country_code":"IT","country_name":"Italy","latitude":"43.28504000","longitude":"12.74504000","wikiDataId":"Q18493275"},{"id":141046,"Name":"Otricoli","state_id":1683,"state_code":"55","state_name":"Umbria","country_id":107,"country_code":"IT","country_name":"Italy","latitude":"42.42079000","longitude":"12.47737000","wikiDataId":"Q18493275"},{"id":141072,"Name":"Paciano","state_id":1683,"state_code":"55","state_name":"Umbria","country_id":107,"country_code":"IT","country_name":"Italy","latitude":"43.02288000","longitude":"12.06788000","wikiDataId":"Q18442909"},{"id":141089,"Name":"Padule-San Marco","state_id":1683,"state_code":"55","state_name":"Umbria","country_id":107,"country_code":"IT","country_name":"Italy","latitude":"43.32880000","longitude":"12.60942000","wikiDataId":"Q3970389"},{"id":58227,"Name":"Palazzo","state_id":1683,"state_code":"55","state_name":"Umbria","country_id":107,"country_code":"IT","country_name":"Italy","latitude":"43.09708000","longitude":"12.56436000","wikiDataId":"Q3889493"},{"id":58278,"Name":"Panicale","state_id":1683,"state_code":"55","state_name":"Umbria","country_id":107,"country_code":"IT","country_name":"Italy","latitude":"43.02830000","longitude":"12.09993000","wikiDataId":"Q18448976"},{"id":58283,"Name":"Pantalla","state_id":1683,"state_code":"55","state_name":"Umbria","country_id":107,"country_code":"IT","country_name":"Italy","latitude":"42.87287000","longitude":"12.39861000","wikiDataId":"Q18493322"},{"id":58314,"Name":"Parrano","state_id":1683,"state_code":"55","state_name":"Umbria","country_id":107,"country_code":"IT","country_name":"Italy","latitude":"42.86624000","longitude":"12.11026000","wikiDataId":"Q2703485"},{"id":58325,"Name":"Passaggio","state_id":1683,"state_code":"55","state_name":"Umbria","country_id":107,"country_code":"IT","country_name":"Italy","latitude":"43.02239000","longitude":"12.50781000","wikiDataId":"Q18493339"},{"id":58328,"Name":"Passignano sul Trasimeno","state_id":1683,"state_code":"55","state_name":"Umbria","country_id":107,"country_code":"IT","country_name":"Italy","latitude":"43.19043000","longitude":"12.13535000","wikiDataId":"Q3897230"},{"id":58404,"Name":"Penna in Teverina","state_id":1683,"state_code":"55","state_name":"Umbria","country_id":107,"country_code":"IT","country_name":"Italy","latitude":"42.49342000","longitude":"12.35845000","wikiDataId":"Q18453835"},{"id":58446,"Name":"Perugia","state_id":1683,"state_code":"55","state_name":"Umbria","country_id":107,"country_code":"IT","country_name":"Italy","latitude":"43.11220000","longitude":"12.38878000","wikiDataId":"Q18452392"},{"id":58482,"Name":"Petrignano","state_id":1683,"state_code":"55","state_name":"Umbria","country_id":107,"country_code":"IT","country_name":"Italy","latitude":"43.10269000","longitude":"12.53239000","wikiDataId":"Q775778"},{"id":58595,"Name":"Piegaro","state_id":1683,"state_code":"55","state_name":"Umbria","country_id":107,"country_code":"IT","country_name":"Italy","latitude":"42.96596000","longitude":"12.08409000","wikiDataId":"Q18497652"},{"id":58615,"Name":"Pietralunga","state_id":1683,"state_code":"55","state_name":"Umbria","country_id":107,"country_code":"IT","country_name":"Italy","latitude":"43.43609000","longitude":"12.42921000","wikiDataId":"Q1110618"},{"id":58666,"Name":"Pila","state_id":1683,"state_code":"55","state_name":"Umbria","country_id":107,"country_code":"IT","country_name":"Italy","latitude":"43.05329000","longitude":"12.32857000","wikiDataId":"Q3904944"},{"id":58715,"Name":"Pistrino","state_id":1683,"state_code":"55","state_name":"Umbria","country_id":107,"country_code":"IT","country_name":"Italy","latitude":"43.50966000","longitude":"12.15181000","wikiDataId":"Q2268273"},{"id":58767,"Name":"Poggiodomo","state_id":1683,"state_code":"55","state_name":"Umbria","country_id":107,"country_code":"IT","country_name":"Italy","latitude":"42.71237000","longitude":"12.93251000","wikiDataId":"Q2604595"},{"id":58792,"Name":"Polino","state_id":1683,"state_code":"55","state_name":"Umbria","country_id":107,"country_code":"IT","country_name":"Italy","latitude":"42.58423000","longitude":"12.84437000","wikiDataId":"Q610420"},{"id":58839,"Name":"Ponte Felcino","state_id":1683,"state_code":"55","state_name":"Umbria","country_id":107,"country_code":"IT","country_name":"Italy","latitude":"43.13049000","longitude":"12.44914000","wikiDataId":"Q18493538"},{"id":58845,"Name":"Ponte Pattoli","state_id":1683,"state_code":"55","state_name":"Umbria","country_id":107,"country_code":"IT","country_name":"Italy","latitude":"43.17807000","longitude":"12.42842000","wikiDataId":"Q3908009"},{"id":58877,"Name":"Ponterio-Pian di Porto","state_id":1683,"state_code":"55","state_name":"Umbria","country_id":107,"country_code":"IT","country_name":"Italy","latitude":"42.80769000","longitude":"12.41024000","wikiDataId":"Q18493570"},{"id":58902,"Name":"Porano","state_id":1683,"state_code":"55","state_name":"Umbria","country_id":107,"country_code":"IT","country_name":"Italy","latitude":"42.68099000","longitude":"12.10331000","wikiDataId":"Q18455168"},{"id":58990,"Name":"Pozzuolo","state_id":1683,"state_code":"55","state_name":"Umbria","country_id":107,"country_code":"IT","country_name":"Italy","latitude":"43.12165000","longitude":"11.95599000","wikiDataId":"Q3090933"},{"id":59042,"Name":"Preci","state_id":1683,"state_code":"55","state_name":"Umbria","country_id":107,"country_code":"IT","country_name":"Italy","latitude":"42.88069000","longitude":"13.03747000","wikiDataId":"Q18506748"},{"id":59158,"Name":"Provincia di Perugia","state_id":1683,"state_code":"55","state_name":"Umbria","country_id":107,"country_code":"IT","country_name":"Italy","latitude":"43.05000000","longitude":"12.55000000","wikiDataId":"Q16240"},{"id":59180,"Name":"Provincia di Terni","state_id":1683,"state_code":"55","state_name":"Umbria","country_id":107,"country_code":"IT","country_name":"Italy","latitude":"42.68333000","longitude":"12.31667000","wikiDataId":"Q16286"},{"id":59444,"Name":"Rivotorto","state_id":1683,"state_code":"55","state_name":"Umbria","country_id":107,"country_code":"IT","country_name":"Italy","latitude":"43.04406000","longitude":"12.62069000","wikiDataId":"Q980584"},{"id":59931,"Name":"San Gemini","state_id":1683,"state_code":"55","state_name":"Umbria","country_id":107,"country_code":"IT","country_name":"Italy","latitude":"42.61378000","longitude":"12.54528000","wikiDataId":"Q18438659"},{"id":59940,"Name":"San Giacomo","state_id":1683,"state_code":"55","state_name":"Umbria","country_id":107,"country_code":"IT","country_name":"Italy","latitude":"42.79387000","longitude":"12.75243000","wikiDataId":"Q18493789"},{"id":60015,"Name":"San Giustino","state_id":1683,"state_code":"55","state_name":"Umbria","country_id":107,"country_code":"IT","country_name":"Italy","latitude":"43.54660000","longitude":"12.17528000","wikiDataId":"Q18453415"},{"id":60090,"Name":"San Martino in Campo","state_id":1683,"state_code":"55","state_name":"Umbria","country_id":107,"country_code":"IT","country_name":"Italy","latitude":"43.03608000","longitude":"12.40265000","wikiDataId":"Q3947654"},{"id":60096,"Name":"San Martino in Trignano","state_id":1683,"state_code":"55","state_name":"Umbria","country_id":107,"country_code":"IT","country_name":"Italy","latitude":"42.74125000","longitude":"12.66836000","wikiDataId":"Q18493829"},{"id":60133,"Name":"San Niccolò di Celle","state_id":1683,"state_code":"55","state_name":"Umbria","country_id":107,"country_code":"IT","country_name":"Italy","latitude":"43.01667000","longitude":"12.38333000","wikiDataId":"Q3947734"},{"id":60239,"Name":"San Secondo","state_id":1683,"state_code":"55","state_name":"Umbria","country_id":107,"country_code":"IT","country_name":"Italy","latitude":"43.40468000","longitude":"12.23389000","wikiDataId":"Q7415310"},{"id":60254,"Name":"San Terenziano","state_id":1683,"state_code":"55","state_name":"Umbria","country_id":107,"country_code":"IT","country_name":"Italy","latitude":"42.86731000","longitude":"12.47319000","wikiDataId":"Q18493866"},{"id":60261,"Name":"San Venanzo","state_id":1683,"state_code":"55","state_name":"Umbria","country_id":107,"country_code":"IT","country_name":"Italy","latitude":"42.86886000","longitude":"12.26853000","wikiDataId":"Q18438681"},{"id":60341,"Name":"Sant'Anatolia di Narco","state_id":1683,"state_code":"55","state_name":"Umbria","country_id":107,"country_code":"IT","country_name":"Italy","latitude":"42.73319000","longitude":"12.83576000","wikiDataId":"Q16600206"},{"id":60471,"Name":"Santa Maria degli Angeli","state_id":1683,"state_code":"55","state_name":"Umbria","country_id":107,"country_code":"IT","country_name":"Italy","latitude":"43.05691000","longitude":"12.57497000","wikiDataId":"Q938802"},{"id":60641,"Name":"Scheggia","state_id":1683,"state_code":"55","state_name":"Umbria","country_id":107,"country_code":"IT","country_name":"Italy","latitude":"43.40364000","longitude":"12.66584000","wikiDataId":"Q3951830"},{"id":60642,"Name":"Scheggino","state_id":1683,"state_code":"55","state_name":"Umbria","country_id":107,"country_code":"IT","country_name":"Italy","latitude":"42.71304000","longitude":"12.83007000","wikiDataId":"Q3951830"},{"id":60696,"Name":"Selci-Lama","state_id":1683,"state_code":"55","state_name":"Umbria","country_id":107,"country_code":"IT","country_name":"Italy","latitude":"43.51719000","longitude":"12.21293000","wikiDataId":"Q18494013"},{"id":60699,"Name":"Sellano","state_id":1683,"state_code":"55","state_name":"Umbria","country_id":107,"country_code":"IT","country_name":"Italy","latitude":"42.88735000","longitude":"12.92311000","wikiDataId":"Q18469996"},{"id":60716,"Name":"Semonte-Casamorcia","state_id":1683,"state_code":"55","state_name":"Umbria","country_id":107,"country_code":"IT","country_name":"Italy","latitude":"43.36826000","longitude":"12.53064000","wikiDataId":"Q18494022"},{"id":60828,"Name":"Sferracavallo","state_id":1683,"state_code":"55","state_name":"Umbria","country_id":107,"country_code":"IT","country_name":"Italy","latitude":"42.72631000","longitude":"12.09569000","wikiDataId":"Q18495055"},{"id":60845,"Name":"Sigillo","state_id":1683,"state_code":"55","state_name":"Umbria","country_id":107,"country_code":"IT","country_name":"Italy","latitude":"43.33111000","longitude":"12.74059000","wikiDataId":"Q3828428"},{"id":60995,"Name":"Spello","state_id":1683,"state_code":"55","state_name":"Umbria","country_id":107,"country_code":"IT","country_name":"Italy","latitude":"42.99231000","longitude":"12.66632000","wikiDataId":"Q18437102"},{"id":61026,"Name":"Spoleto","state_id":1683,"state_code":"55","state_name":"Umbria","country_id":107,"country_code":"IT","country_name":"Italy","latitude":"42.74071000","longitude":"12.73899000","wikiDataId":"Q2048225"},{"id":61055,"Name":"Stazione di Allerona","state_id":1683,"state_code":"55","state_name":"Umbria","country_id":107,"country_code":"IT","country_name":"Italy","latitude":"42.78550000","longitude":"12.03726000","wikiDataId":"Q3968861"},{"id":61056,"Name":"Stazione di Padule","state_id":1683,"state_code":"55","state_name":"Umbria","country_id":107,"country_code":"IT","country_name":"Italy","latitude":"43.30766000","longitude":"12.61557000","wikiDataId":"Q3968861"},{"id":61098,"Name":"Stroncone","state_id":1683,"state_code":"55","state_name":"Umbria","country_id":107,"country_code":"IT","country_name":"Italy","latitude":"42.51196000","longitude":"12.64770000","wikiDataId":"Q30030942"},{"id":61187,"Name":"Tavernelle","state_id":1683,"state_code":"55","state_name":"Umbria","country_id":107,"country_code":"IT","country_name":"Italy","latitude":"43.00333000","longitude":"12.14520000","wikiDataId":"Q18494134"},{"id":61232,"Name":"Terni","state_id":1683,"state_code":"55","state_name":"Umbria","country_id":107,"country_code":"IT","country_name":"Italy","latitude":"42.56335000","longitude":"12.64329000","wikiDataId":"Q18466634"},{"id":61295,"Name":"Todi","state_id":1683,"state_code":"55","state_name":"Umbria","country_id":107,"country_code":"IT","country_name":"Italy","latitude":"42.77881000","longitude":"12.41202000","wikiDataId":"Q18430784"},{"id":61327,"Name":"Torgiano","state_id":1683,"state_code":"55","state_name":"Umbria","country_id":107,"country_code":"IT","country_name":"Italy","latitude":"43.02761000","longitude":"12.44015000","wikiDataId":"Q18435771"},{"id":61499,"Name":"Trestina","state_id":1683,"state_code":"55","state_name":"Umbria","country_id":107,"country_code":"IT","country_name":"Italy","latitude":"43.36597000","longitude":"12.23701000","wikiDataId":"Q3998444"},{"id":61501,"Name":"Trevi","state_id":1683,"state_code":"55","state_name":"Umbria","country_id":107,"country_code":"IT","country_name":"Italy","latitude":"42.87769000","longitude":"12.74938000","wikiDataId":"Q3998444"},{"id":61569,"Name":"Tuoro sul Trasimeno","state_id":1683,"state_code":"55","state_name":"Umbria","country_id":107,"country_code":"IT","country_name":"Italy","latitude":"43.20654000","longitude":"12.07465000","wikiDataId":"Q222063"},{"id":61597,"Name":"Umbertide","state_id":1683,"state_code":"55","state_name":"Umbria","country_id":107,"country_code":"IT","country_name":"Italy","latitude":"43.30341000","longitude":"12.33749000","wikiDataId":"Q547157"},{"id":61668,"Name":"Valfabbrica","state_id":1683,"state_code":"55","state_name":"Umbria","country_id":107,"country_code":"IT","country_name":"Italy","latitude":"43.15784000","longitude":"12.60202000","wikiDataId":"Q16620210"},{"id":61742,"Name":"Valtopina","state_id":1683,"state_code":"55","state_name":"Umbria","country_id":107,"country_code":"IT","country_name":"Italy","latitude":"43.05674000","longitude":"12.75307000","wikiDataId":"Q18502485"},{"id":61898,"Name":"Via Lippia","state_id":1683,"state_code":"55","state_name":"Umbria","country_id":107,"country_code":"IT","country_name":"Italy","latitude":"43.08611000","longitude":"12.48106000","wikiDataId":"Q18494347"}]