[{"id":31603,"Name":"Haapsalu","state_id":3568,"state_code":"57","state_name":"Lääne County","country_id":69,"country_code":"EE","country_name":"Estonia","latitude":"58.94306000","longitude":"23.54139000","wikiDataId":"Q191106"},{"id":31604,"Name":"Haapsalu linn","state_id":3568,"state_code":"57","state_name":"Lääne County","country_id":69,"country_code":"EE","country_name":"Estonia","latitude":"58.93580000","longitude":"23.53005000","wikiDataId":"Q43281004"},{"id":31609,"Name":"Hullo","state_id":3568,"state_code":"57","state_name":"Lääne County","country_id":69,"country_code":"EE","country_name":"Estonia","latitude":"58.99004000","longitude":"23.24441000","wikiDataId":"Q3451126"},{"id":31656,"Name":"Lääne-Nigula vald","state_id":3568,"state_code":"57","state_name":"Lääne County","country_id":69,"country_code":"EE","country_name":"Estonia","latitude":"58.96045000","longitude":"23.74489000","wikiDataId":"Q1639142"},{"id":31715,"Name":"Taebla","state_id":3568,"state_code":"57","state_name":"Lääne County","country_id":69,"country_code":"EE","country_name":"Estonia","latitude":"58.95389000","longitude":"23.75222000","wikiDataId":"Q3458520"},{"id":31731,"Name":"Uuemõisa","state_id":3568,"state_code":"57","state_name":"Lääne County","country_id":69,"country_code":"EE","country_name":"Estonia","latitude":"58.93944000","longitude":"23.58944000","wikiDataId":"Q3453560"},{"id":31746,"Name":"Vormsi vald","state_id":3568,"state_code":"57","state_name":"Lääne County","country_id":69,"country_code":"EE","country_name":"Estonia","latitude":"58.99986000","longitude":"23.23408000","wikiDataId":"Q426207"}]