[{"id":105295,"Name":"Amphoe Chiang Khong","state_id":3498,"state_code":"57","state_name":"Chiang Rai","country_id":219,"country_code":"TH","country_name":"Thailand","latitude":"20.13587000","longitude":"100.36527000","wikiDataId":"Q475389"},{"id":105299,"Name":"Amphoe Chiang Saen","state_id":3498,"state_code":"57","state_name":"Chiang Rai","country_id":219,"country_code":"TH","country_name":"Thailand","latitude":"20.23572000","longitude":"100.15537000","wikiDataId":"Q475399"},{"id":105325,"Name":"Amphoe Doi Luang","state_id":3498,"state_code":"57","state_name":"Chiang Rai","country_id":219,"country_code":"TH","country_name":"Thailand","latitude":"20.14496000","longitude":"100.15712000","wikiDataId":"Q475460"},{"id":105433,"Name":"Amphoe Khun Tan","state_id":3498,"state_code":"57","state_name":"Chiang Rai","country_id":219,"country_code":"TH","country_name":"Thailand","latitude":"19.86481000","longitude":"100.28731000","wikiDataId":"Q475762"},{"id":105499,"Name":"Amphoe Mae Chan","state_id":3498,"state_code":"57","state_name":"Chiang Rai","country_id":219,"country_code":"TH","country_name":"Thailand","latitude":"20.19910000","longitude":"99.88468000","wikiDataId":"Q475929"},{"id":105501,"Name":"Amphoe Mae Fa Luang","state_id":3498,"state_code":"57","state_name":"Chiang Rai","country_id":219,"country_code":"TH","country_name":"Thailand","latitude":"20.22228000","longitude":"99.64147000","wikiDataId":"Q475932"},{"id":105504,"Name":"Amphoe Mae Lao","state_id":3498,"state_code":"57","state_name":"Chiang Rai","country_id":219,"country_code":"TH","country_name":"Thailand","latitude":"19.77223000","longitude":"99.71128000","wikiDataId":"Q475939"},{"id":105511,"Name":"Amphoe Mae Sai","state_id":3498,"state_code":"57","state_name":"Chiang Rai","country_id":219,"country_code":"TH","country_name":"Thailand","latitude":"20.36500000","longitude":"99.92604000","wikiDataId":"Q475958"},{"id":105514,"Name":"Amphoe Mae Suai","state_id":3498,"state_code":"57","state_name":"Chiang Rai","country_id":219,"country_code":"TH","country_name":"Thailand","latitude":"19.69037000","longitude":"99.48459000","wikiDataId":"Q475965"},{"id":105540,"Name":"Amphoe Mueang Chiang Rai","state_id":3498,"state_code":"57","state_name":"Chiang Rai","country_id":219,"country_code":"TH","country_name":"Thailand","latitude":"19.90824000","longitude":"99.77299000","wikiDataId":"Q476010"},{"id":105693,"Name":"Amphoe Pa Daet","state_id":3498,"state_code":"57","state_name":"Chiang Rai","country_id":219,"country_code":"TH","country_name":"Thailand","latitude":"19.50643000","longitude":"99.97615000","wikiDataId":"Q476308"},{"id":105720,"Name":"Amphoe Phan","state_id":3498,"state_code":"57","state_name":"Chiang Rai","country_id":219,"country_code":"TH","country_name":"Thailand","latitude":"19.57450000","longitude":"99.77299000","wikiDataId":"Q476363"},{"id":105733,"Name":"Amphoe Phaya Mengrai","state_id":3498,"state_code":"57","state_name":"Chiang Rai","country_id":219,"country_code":"TH","country_name":"Thailand","latitude":"19.87320000","longitude":"100.16257000","wikiDataId":"Q476391"},{"id":106308,"Name":"Amphoe Thoeng","state_id":3498,"state_code":"57","state_name":"Chiang Rai","country_id":219,"country_code":"TH","country_name":"Thailand","latitude":"19.67650000","longitude":"100.20095000","wikiDataId":"Q476919"},{"id":106359,"Name":"Amphoe Wiang Chai","state_id":3498,"state_code":"57","state_name":"Chiang Rai","country_id":219,"country_code":"TH","country_name":"Thailand","latitude":"19.86360000","longitude":"100.00065000","wikiDataId":"Q477058"},{"id":106360,"Name":"Amphoe Wiang Chiang Rung","state_id":3498,"state_code":"57","state_name":"Chiang Rai","country_id":219,"country_code":"TH","country_name":"Thailand","latitude":"20.02208000","longitude":"100.07472000","wikiDataId":"Q477061"},{"id":106362,"Name":"Amphoe Wiang Kaen","state_id":3498,"state_code":"57","state_name":"Chiang Rai","country_id":219,"country_code":"TH","country_name":"Thailand","latitude":"20.00874000","longitude":"100.48641000","wikiDataId":"Q428365"},{"id":106365,"Name":"Amphoe Wiang Pa Pao","state_id":3498,"state_code":"57","state_name":"Chiang Rai","country_id":219,"country_code":"TH","country_name":"Thailand","latitude":"19.30460000","longitude":"99.44925000","wikiDataId":"Q477077"},{"id":106472,"Name":"Chiang Khong","state_id":3498,"state_code":"57","state_name":"Chiang Rai","country_id":219,"country_code":"TH","country_name":"Thailand","latitude":"20.26125000","longitude":"100.40461000","wikiDataId":"Q7998013"},{"id":106475,"Name":"Chiang Rai","state_id":3498,"state_code":"57","state_name":"Chiang Rai","country_id":219,"country_code":"TH","country_name":"Thailand","latitude":"19.90858000","longitude":"99.83250000","wikiDataId":"Q856772"},{"id":106476,"Name":"Chiang Saen","state_id":3498,"state_code":"57","state_name":"Chiang Rai","country_id":219,"country_code":"TH","country_name":"Thailand","latitude":"20.27511000","longitude":"100.08689000","wikiDataId":"Q856772"},{"id":106562,"Name":"Mae Chan","state_id":3498,"state_code":"57","state_name":"Chiang Rai","country_id":219,"country_code":"TH","country_name":"Thailand","latitude":"20.14675000","longitude":"99.85256000","wikiDataId":"Q15310472"},{"id":106565,"Name":"Mae Sai","state_id":3498,"state_code":"57","state_name":"Chiang Rai","country_id":219,"country_code":"TH","country_name":"Thailand","latitude":"20.43353000","longitude":"99.87617000","wikiDataId":"Q15273763"},{"id":106606,"Name":"Pa Daet","state_id":3498,"state_code":"57","state_name":"Chiang Rai","country_id":219,"country_code":"TH","country_name":"Thailand","latitude":"19.50489000","longitude":"99.99241000","wikiDataId":"Q28732122"}]