[{"id":142113,"Name":"Boyabat","state_id":4854,"state_code":"57","state_name":"Sinop","country_id":225,"country_code":"TR","country_name":"Turkey","latitude":"41.46889000","longitude":"34.76667000","wikiDataId":"Q895880"},{"id":142115,"Name":"Dikmen","state_id":4854,"state_code":"57","state_name":"Sinop","country_id":225,"country_code":"TR","country_name":"Turkey","latitude":"41.66000000","longitude":"35.27055556","wikiDataId":"Q3027936"},{"id":142116,"Name":"Durağan","state_id":4854,"state_code":"57","state_name":"Sinop","country_id":225,"country_code":"TR","country_name":"Turkey","latitude":"41.42555556","longitude":"35.05777778","wikiDataId":"Q2670763"},{"id":142117,"Name":"Erfelek","state_id":4854,"state_code":"57","state_name":"Sinop","country_id":225,"country_code":"TR","country_name":"Turkey","latitude":"41.87926000","longitude":"34.91838000","wikiDataId":"Q1872912"},{"id":142119,"Name":"Gerze","state_id":4854,"state_code":"57","state_name":"Sinop","country_id":225,"country_code":"TR","country_name":"Turkey","latitude":"41.81000000","longitude":"35.19027778","wikiDataId":"Q2014028"},{"id":142120,"Name":"Merkez","state_id":4854,"state_code":"57","state_name":"Sinop","country_id":225,"country_code":"TR","country_name":"Turkey","latitude":"41.91835000","longitude":"35.00687000","wikiDataId":"Q2014028"},{"id":142121,"Name":"Saraydüzü","state_id":4854,"state_code":"57","state_name":"Sinop","country_id":225,"country_code":"TR","country_name":"Turkey","latitude":"41.33722222","longitude":"34.85361111","wikiDataId":"Q1834901"},{"id":142122,"Name":"Sinop","state_id":4854,"state_code":"57","state_name":"Sinop","country_id":225,"country_code":"TR","country_name":"Turkey","latitude":"42.02719200","longitude":"35.15044100","wikiDataId":"Q599416"},{"id":142123,"Name":"Türkeli","state_id":4854,"state_code":"57","state_name":"Sinop","country_id":225,"country_code":"TR","country_name":"Turkey","latitude":"41.94777778","longitude":"34.33861111","wikiDataId":"Q606923"}]