[{"id":107113,"Name":"Akıncılar","state_id":2181,"state_code":"58","state_name":"Sivas","country_id":225,"country_code":"TR","country_name":"Turkey","latitude":"40.07172000","longitude":"38.34330000","wikiDataId":"Q2313013"},{"id":107096,"Name":"Aksu","state_id":2181,"state_code":"58","state_name":"Sivas","country_id":225,"country_code":"TR","country_name":"Turkey","latitude":"40.08964000","longitude":"38.03467000","wikiDataId":"Q421618"},{"id":107149,"Name":"Altınyayla","state_id":2181,"state_code":"58","state_name":"Sivas","country_id":225,"country_code":"TR","country_name":"Turkey","latitude":"39.27249000","longitude":"36.75098000","wikiDataId":"Q2034360"},{"id":107500,"Name":"Divriği","state_id":2181,"state_code":"58","state_name":"Sivas","country_id":225,"country_code":"TR","country_name":"Turkey","latitude":"39.37100000","longitude":"38.11370000","wikiDataId":"Q2473716"},{"id":107523,"Name":"Doğanşar","state_id":2181,"state_code":"58","state_name":"Sivas","country_id":225,"country_code":"TR","country_name":"Turkey","latitude":"40.20841000","longitude":"37.53123000","wikiDataId":"Q2670793"},{"id":107658,"Name":"Gemerek","state_id":2181,"state_code":"58","state_name":"Sivas","country_id":225,"country_code":"TR","country_name":"Turkey","latitude":"39.18342000","longitude":"36.07189000","wikiDataId":"Q984701"},{"id":107700,"Name":"Gölova","state_id":2181,"state_code":"58","state_name":"Sivas","country_id":225,"country_code":"TR","country_name":"Turkey","latitude":"40.06194000","longitude":"38.60667000","wikiDataId":"Q2551174"},{"id":107757,"Name":"Gürün","state_id":2181,"state_code":"58","state_name":"Sivas","country_id":225,"country_code":"TR","country_name":"Turkey","latitude":"38.72225000","longitude":"37.27097000","wikiDataId":"Q2384475"},{"id":107772,"Name":"Hafik","state_id":2181,"state_code":"58","state_name":"Sivas","country_id":225,"country_code":"TR","country_name":"Turkey","latitude":"39.85639000","longitude":"37.38639000","wikiDataId":"Q349498"},{"id":108894,"Name":"İmranlı","state_id":2181,"state_code":"58","state_name":"Sivas","country_id":225,"country_code":"TR","country_name":"Turkey","latitude":"39.87544000","longitude":"38.11358000","wikiDataId":"Q2082058"},{"id":107883,"Name":"Kangal","state_id":2181,"state_code":"58","state_name":"Sivas","country_id":225,"country_code":"TR","country_name":"Turkey","latitude":"39.23354000","longitude":"37.39111000","wikiDataId":"Q1022149"},{"id":108029,"Name":"Koyulhisar","state_id":2181,"state_code":"58","state_name":"Sivas","country_id":225,"country_code":"TR","country_name":"Turkey","latitude":"40.30184000","longitude":"37.82336000","wikiDataId":"Q6432728"},{"id":108187,"Name":"Merkez","state_id":2181,"state_code":"58","state_name":"Sivas","country_id":225,"country_code":"TR","country_name":"Turkey","latitude":"39.71613000","longitude":"36.97695000","wikiDataId":"Q3055997"},{"id":108938,"Name":"Şarkışla","state_id":2181,"state_code":"58","state_name":"Sivas","country_id":225,"country_code":"TR","country_name":"Turkey","latitude":"39.35186000","longitude":"36.40976000","wikiDataId":"Q388544"},{"id":108473,"Name":"Sivas","state_id":2181,"state_code":"58","state_name":"Sivas","country_id":225,"country_code":"TR","country_name":"Turkey","latitude":"39.74833000","longitude":"37.01611000","wikiDataId":"Q107401"},{"id":108513,"Name":"Suşehri","state_id":2181,"state_code":"58","state_name":"Sivas","country_id":225,"country_code":"TR","country_name":"Turkey","latitude":"40.16005000","longitude":"38.08413000","wikiDataId":"Q1022236"},{"id":108618,"Name":"Ulaş","state_id":2181,"state_code":"58","state_name":"Sivas","country_id":225,"country_code":"TR","country_name":"Turkey","latitude":"39.44492000","longitude":"37.03900000","wikiDataId":"Q993676"},{"id":108747,"Name":"Yıldızeli İlçesi","state_id":2181,"state_code":"58","state_name":"Sivas","country_id":225,"country_code":"TR","country_name":"Turkey","latitude":"39.87601000","longitude":"36.60652000","wikiDataId":"Q1011921"},{"id":108749,"Name":"Zara","state_id":2181,"state_code":"58","state_name":"Sivas","country_id":225,"country_code":"TR","country_name":"Turkey","latitude":"39.82406000","longitude":"37.77499000","wikiDataId":"Q2674064"}]