[{"id":108819,"Name":"Çerkezköy","state_id":2167,"state_code":"59","state_name":"Tekirdağ","country_id":225,"country_code":"TR","country_name":"Turkey","latitude":"41.28616000","longitude":"27.99969000","wikiDataId":"Q2619996"},{"id":108842,"Name":"Çorlu","state_id":2167,"state_code":"59","state_name":"Tekirdağ","country_id":225,"country_code":"TR","country_name":"Turkey","latitude":"41.15917000","longitude":"27.80000000","wikiDataId":"Q214655"},{"id":107594,"Name":"Ergene","state_id":2167,"state_code":"59","state_name":"Tekirdağ","country_id":225,"country_code":"TR","country_name":"Turkey","latitude":"40.85953000","longitude":"27.27081000","wikiDataId":"Q16957420"},{"id":107813,"Name":"Hayrabolu","state_id":2167,"state_code":"59","state_name":"Tekirdağ","country_id":225,"country_code":"TR","country_name":"Turkey","latitude":"41.21311000","longitude":"27.10688000","wikiDataId":"Q1020642"},{"id":107885,"Name":"Kapaklı","state_id":2167,"state_code":"59","state_name":"Tekirdağ","country_id":225,"country_code":"TR","country_name":"Turkey","latitude":"41.32912000","longitude":"27.98064000","wikiDataId":"Q5247279"},{"id":108046,"Name":"Kumbağ","state_id":2167,"state_code":"59","state_name":"Tekirdağ","country_id":225,"country_code":"TR","country_name":"Turkey","latitude":"40.88236000","longitude":"27.45919000","wikiDataId":"Q1948486"},{"id":108144,"Name":"Malkara","state_id":2167,"state_code":"59","state_name":"Tekirdağ","country_id":225,"country_code":"TR","country_name":"Turkey","latitude":"40.89000000","longitude":"26.90111000","wikiDataId":"Q937499"},{"id":108156,"Name":"Marmara Ereğlisi","state_id":2167,"state_code":"59","state_name":"Tekirdağ","country_id":225,"country_code":"TR","country_name":"Turkey","latitude":"40.97003000","longitude":"27.95528000","wikiDataId":"Q985638"},{"id":108159,"Name":"Marmaracık","state_id":2167,"state_code":"59","state_name":"Tekirdağ","country_id":225,"country_code":"TR","country_name":"Turkey","latitude":"41.20667000","longitude":"27.75444000","wikiDataId":"Q6586522"},{"id":108223,"Name":"Muratlı İlçesi","state_id":2167,"state_code":"59","state_name":"Tekirdağ","country_id":225,"country_code":"TR","country_name":"Turkey","latitude":"41.18345000","longitude":"27.51454000","wikiDataId":"Q2581023"},{"id":108388,"Name":"Saray","state_id":2167,"state_code":"59","state_name":"Tekirdağ","country_id":225,"country_code":"TR","country_name":"Turkey","latitude":"41.44431000","longitude":"27.92194000","wikiDataId":"Q1011256"},{"id":108937,"Name":"Şarköy İlçesi","state_id":2167,"state_code":"59","state_name":"Tekirdağ","country_id":225,"country_code":"TR","country_name":"Turkey","latitude":"40.62513000","longitude":"27.10069000","wikiDataId":"Q388544"},{"id":108522,"Name":"Süleymanpaşa","state_id":2167,"state_code":"59","state_name":"Tekirdağ","country_id":225,"country_code":"TR","country_name":"Turkey","latitude":"40.97990000","longitude":"27.30377000","wikiDataId":"Q16897309"},{"id":108499,"Name":"Sultanköy","state_id":2167,"state_code":"59","state_name":"Tekirdağ","country_id":225,"country_code":"TR","country_name":"Turkey","latitude":"41.02139000","longitude":"27.98861000","wikiDataId":"Q5248613"},{"id":108559,"Name":"Tekirdağ","state_id":2167,"state_code":"59","state_name":"Tekirdağ","country_id":225,"country_code":"TR","country_name":"Turkey","latitude":"40.97810000","longitude":"27.51101000","wikiDataId":"Q182009"},{"id":108649,"Name":"Velimeşe","state_id":2167,"state_code":"59","state_name":"Tekirdağ","country_id":225,"country_code":"TR","country_name":"Turkey","latitude":"41.25361000","longitude":"27.87833000","wikiDataId":"Q2670181"}]