[{"id":1604,"Name":"Abtissendorf","state_id":2059,"state_code":"6","state_name":"Styria","country_id":15,"country_code":"AT","country_name":"Austria","latitude":"46.99583000","longitude":"15.45639000","wikiDataId":"Q334510"},{"id":1610,"Name":"Admont","state_id":2059,"state_code":"6","state_name":"Styria","country_id":15,"country_code":"AT","country_name":"Austria","latitude":"47.57537000","longitude":"14.46075000","wikiDataId":"Q359324"},{"id":1613,"Name":"Aflenz Kurort","state_id":2059,"state_code":"6","state_name":"Styria","country_id":15,"country_code":"AT","country_name":"Austria","latitude":"47.54211000","longitude":"15.23898000","wikiDataId":"Q383351"},{"id":1616,"Name":"Aibl","state_id":2059,"state_code":"6","state_name":"Styria","country_id":15,"country_code":"AT","country_name":"Austria","latitude":"46.68145000","longitude":"15.22619000","wikiDataId":"Q403420"},{"id":1618,"Name":"Aigen im Ennstal","state_id":2059,"state_code":"6","state_name":"Styria","country_id":15,"country_code":"AT","country_name":"Austria","latitude":"47.51667000","longitude":"14.13333000","wikiDataId":"Q257539"},{"id":1624,"Name":"Albersdorf","state_id":2059,"state_code":"6","state_name":"Styria","country_id":15,"country_code":"AT","country_name":"Austria","latitude":"47.12166000","longitude":"15.69826000","wikiDataId":"Q665702"},{"id":1629,"Name":"Allerheiligen bei Wildon","state_id":2059,"state_code":"6","state_name":"Styria","country_id":15,"country_code":"AT","country_name":"Austria","latitude":"46.91417000","longitude":"15.55444000","wikiDataId":"Q696216"},{"id":1631,"Name":"Allerheiligen im Mürztal","state_id":2059,"state_code":"6","state_name":"Styria","country_id":15,"country_code":"AT","country_name":"Austria","latitude":"47.46667000","longitude":"15.40000000","wikiDataId":"Q695945"},{"id":1636,"Name":"Altaussee","state_id":2059,"state_code":"6","state_name":"Styria","country_id":15,"country_code":"AT","country_name":"Austria","latitude":"47.63844000","longitude":"13.76278000","wikiDataId":"Q262951"},{"id":1642,"Name":"Altenmarkt bei Fürstenfeld","state_id":2059,"state_code":"6","state_name":"Styria","country_id":15,"country_code":"AT","country_name":"Austria","latitude":"47.06638000","longitude":"16.04785000","wikiDataId":"Q437393"},{"id":1643,"Name":"Altenmarkt bei Sankt Gallen","state_id":2059,"state_code":"6","state_name":"Styria","country_id":15,"country_code":"AT","country_name":"Austria","latitude":"47.72327000","longitude":"14.64838000","wikiDataId":"Q437419"},{"id":1661,"Name":"Andritz","state_id":2059,"state_code":"6","state_name":"Styria","country_id":15,"country_code":"AT","country_name":"Austria","latitude":"47.11387000","longitude":"15.42348000","wikiDataId":"Q492434"},{"id":1664,"Name":"Anger","state_id":2059,"state_code":"6","state_name":"Styria","country_id":15,"country_code":"AT","country_name":"Austria","latitude":"47.27422000","longitude":"15.69139000","wikiDataId":"Q255501"},{"id":1674,"Name":"Apfelberg","state_id":2059,"state_code":"6","state_name":"Styria","country_id":15,"country_code":"AT","country_name":"Austria","latitude":"47.20000000","longitude":"14.83333000","wikiDataId":"Q618270"},{"id":1677,"Name":"Ardning","state_id":2059,"state_code":"6","state_name":"Styria","country_id":15,"country_code":"AT","country_name":"Austria","latitude":"47.59120000","longitude":"14.36372000","wikiDataId":"Q639728"},{"id":1678,"Name":"Arnfels","state_id":2059,"state_code":"6","state_name":"Styria","country_id":15,"country_code":"AT","country_name":"Austria","latitude":"46.67639000","longitude":"15.40306000","wikiDataId":"Q693471"},{"id":1682,"Name":"Arzberg","state_id":2059,"state_code":"6","state_name":"Styria","country_id":15,"country_code":"AT","country_name":"Austria","latitude":"47.25000000","longitude":"15.51667000","wikiDataId":"Q664562"},{"id":1694,"Name":"Attendorf","state_id":2059,"state_code":"6","state_name":"Styria","country_id":15,"country_code":"AT","country_name":"Austria","latitude":"47.00426000","longitude":"15.33897000","wikiDataId":"Q680044"},{"id":1707,"Name":"Auersbach","state_id":2059,"state_code":"6","state_name":"Styria","country_id":15,"country_code":"AT","country_name":"Austria","latitude":"47.01667000","longitude":"15.86667000","wikiDataId":"Q693516"},{"id":1716,"Name":"Bad Aussee","state_id":2059,"state_code":"6","state_name":"Styria","country_id":15,"country_code":"AT","country_name":"Austria","latitude":"47.60998000","longitude":"13.78243000","wikiDataId":"Q251065"},{"id":1717,"Name":"Bad Blumau","state_id":2059,"state_code":"6","state_name":"Styria","country_id":15,"country_code":"AT","country_name":"Austria","latitude":"47.11667000","longitude":"16.05000000","wikiDataId":"Q672639"},{"id":1721,"Name":"Bad Gams","state_id":2059,"state_code":"6","state_name":"Styria","country_id":15,"country_code":"AT","country_name":"Austria","latitude":"46.87111000","longitude":"15.22472000","wikiDataId":"Q690159"},{"id":1723,"Name":"Bad Gleichenberg","state_id":2059,"state_code":"6","state_name":"Styria","country_id":15,"country_code":"AT","country_name":"Austria","latitude":"46.87556000","longitude":"15.90861000","wikiDataId":"Q693550"},{"id":1732,"Name":"Bad Radkersburg","state_id":2059,"state_code":"6","state_name":"Styria","country_id":15,"country_code":"AT","country_name":"Austria","latitude":"46.68806000","longitude":"15.98806000","wikiDataId":"Q698465"},{"id":1740,"Name":"Bad Waltersdorf","state_id":2059,"state_code":"6","state_name":"Styria","country_id":15,"country_code":"AT","country_name":"Austria","latitude":"47.16960000","longitude":"16.00870000","wikiDataId":"Q664631"},{"id":1744,"Name":"Baierdorf-Umgebung","state_id":2059,"state_code":"6","state_name":"Styria","country_id":15,"country_code":"AT","country_name":"Austria","latitude":"47.28511000","longitude":"15.71045000","wikiDataId":"Q662576"},{"id":1745,"Name":"Bairisch Kölldorf","state_id":2059,"state_code":"6","state_name":"Styria","country_id":15,"country_code":"AT","country_name":"Austria","latitude":"46.86667000","longitude":"15.93333000","wikiDataId":"Q803958"},{"id":1823,"Name":"Bärnbach","state_id":2059,"state_code":"6","state_name":"Styria","country_id":15,"country_code":"AT","country_name":"Austria","latitude":"47.07141000","longitude":"15.12792000","wikiDataId":"Q672629"},{"id":1750,"Name":"Baumgarten bei Gnas","state_id":2059,"state_code":"6","state_name":"Styria","country_id":15,"country_code":"AT","country_name":"Austria","latitude":"46.91667000","longitude":"15.76667000","wikiDataId":"Q700958"},{"id":1762,"Name":"Berndorf","state_id":2059,"state_code":"6","state_name":"Styria","country_id":15,"country_code":"AT","country_name":"Austria","latitude":"47.41667000","longitude":"15.26667000","wikiDataId":"Q819321"},{"id":1772,"Name":"Bierbaum am Auersbach","state_id":2059,"state_code":"6","state_name":"Styria","country_id":15,"country_code":"AT","country_name":"Austria","latitude":"46.82949000","longitude":"15.79237000","wikiDataId":"Q687471"},{"id":1775,"Name":"Birkfeld","state_id":2059,"state_code":"6","state_name":"Styria","country_id":15,"country_code":"AT","country_name":"Austria","latitude":"47.35000000","longitude":"15.68333000","wikiDataId":"Q687471"},{"id":1780,"Name":"Blaindorf","state_id":2059,"state_code":"6","state_name":"Styria","country_id":15,"country_code":"AT","country_name":"Austria","latitude":"47.17498000","longitude":"15.86795000","wikiDataId":"Q672077"},{"id":1799,"Name":"Breitenfeld am Tannenriegel","state_id":2059,"state_code":"6","state_name":"Styria","country_id":15,"country_code":"AT","country_name":"Austria","latitude":"46.85000000","longitude":"15.63333000","wikiDataId":"Q700444"},{"id":1800,"Name":"Breitenfeld an der Rittschein","state_id":2059,"state_code":"6","state_name":"Styria","country_id":15,"country_code":"AT","country_name":"Austria","latitude":"47.03333000","longitude":"15.95000000","wikiDataId":"Q693112"},{"id":1803,"Name":"Bretstein","state_id":2059,"state_code":"6","state_name":"Styria","country_id":15,"country_code":"AT","country_name":"Austria","latitude":"47.33333000","longitude":"14.41667000","wikiDataId":"Q670428"},{"id":1810,"Name":"Bruck an der Mur","state_id":2059,"state_code":"6","state_name":"Styria","country_id":15,"country_code":"AT","country_name":"Austria","latitude":"47.41667000","longitude":"15.28333000","wikiDataId":"Q259893"},{"id":1812,"Name":"Brunn","state_id":2059,"state_code":"6","state_name":"Styria","country_id":15,"country_code":"AT","country_name":"Austria","latitude":"46.72944000","longitude":"15.30000000","wikiDataId":"Q660740"},{"id":1820,"Name":"Burgau","state_id":2059,"state_code":"6","state_name":"Styria","country_id":15,"country_code":"AT","country_name":"Austria","latitude":"47.14268000","longitude":"16.09643000","wikiDataId":"Q876277"},{"id":1832,"Name":"Dechantskirchen","state_id":2059,"state_code":"6","state_name":"Styria","country_id":15,"country_code":"AT","country_name":"Austria","latitude":"47.41667000","longitude":"16.01667000","wikiDataId":"Q672114"},{"id":1836,"Name":"Deuchendorf","state_id":2059,"state_code":"6","state_name":"Styria","country_id":15,"country_code":"AT","country_name":"Austria","latitude":"47.46593000","longitude":"15.32172000","wikiDataId":"Q429034"},{"id":1837,"Name":"Deutsch Goritz","state_id":2059,"state_code":"6","state_name":"Styria","country_id":15,"country_code":"AT","country_name":"Austria","latitude":"46.75083000","longitude":"15.82944000","wikiDataId":"Q687487"},{"id":1842,"Name":"Deutschfeistritz","state_id":2059,"state_code":"6","state_name":"Styria","country_id":15,"country_code":"AT","country_name":"Austria","latitude":"47.19852000","longitude":"15.33623000","wikiDataId":"Q513647"},{"id":1844,"Name":"Deutschlandsberg","state_id":2059,"state_code":"6","state_name":"Styria","country_id":15,"country_code":"AT","country_name":"Austria","latitude":"46.81528000","longitude":"15.22222000","wikiDataId":"Q573106"},{"id":1846,"Name":"Diemlach","state_id":2059,"state_code":"6","state_name":"Styria","country_id":15,"country_code":"AT","country_name":"Austria","latitude":"47.43610000","longitude":"15.27460000","wikiDataId":"Q573106"},{"id":1847,"Name":"Dienersdorf","state_id":2059,"state_code":"6","state_name":"Styria","country_id":15,"country_code":"AT","country_name":"Austria","latitude":"47.23979000","longitude":"15.90142000","wikiDataId":"Q669855"},{"id":1852,"Name":"Dietersdorf","state_id":2059,"state_code":"6","state_name":"Styria","country_id":15,"country_code":"AT","country_name":"Austria","latitude":"47.20000000","longitude":"14.66667000","wikiDataId":"Q684587"},{"id":1853,"Name":"Dietersdorf am Gnasbach","state_id":2059,"state_code":"6","state_name":"Styria","country_id":15,"country_code":"AT","country_name":"Austria","latitude":"46.80917000","longitude":"15.81167000","wikiDataId":"Q688242"},{"id":1857,"Name":"Donawitz","state_id":2059,"state_code":"6","state_name":"Styria","country_id":15,"country_code":"AT","country_name":"Austria","latitude":"47.36667000","longitude":"15.06667000","wikiDataId":"Q268058"},{"id":1858,"Name":"Donnersbach","state_id":2059,"state_code":"6","state_name":"Styria","country_id":15,"country_code":"AT","country_name":"Austria","latitude":"47.46139000","longitude":"14.12972000","wikiDataId":"Q268058"},{"id":1879,"Name":"Dürnstein in der Steiermark","state_id":2059,"state_code":"6","state_name":"Styria","country_id":15,"country_code":"AT","country_name":"Austria","latitude":"46.98833000","longitude":"14.39167000","wikiDataId":"Q677936"},{"id":1892,"Name":"Ebersdorf","state_id":2059,"state_code":"6","state_name":"Styria","country_id":15,"country_code":"AT","country_name":"Austria","latitude":"47.19852000","longitude":"15.96219000","wikiDataId":"Q684966"},{"id":1899,"Name":"Edelsbach bei Feldbach","state_id":2059,"state_code":"6","state_name":"Styria","country_id":15,"country_code":"AT","country_name":"Austria","latitude":"46.98944000","longitude":"15.83694000","wikiDataId":"Q547994"},{"id":1900,"Name":"Edelschrott","state_id":2059,"state_code":"6","state_name":"Styria","country_id":15,"country_code":"AT","country_name":"Austria","latitude":"47.02156000","longitude":"15.05266000","wikiDataId":"Q689715"},{"id":1901,"Name":"Edelsgrub","state_id":2059,"state_code":"6","state_name":"Styria","country_id":15,"country_code":"AT","country_name":"Austria","latitude":"47.03333000","longitude":"15.60000000","wikiDataId":"Q689153"},{"id":1903,"Name":"Edelstauden","state_id":2059,"state_code":"6","state_name":"Styria","country_id":15,"country_code":"AT","country_name":"Austria","latitude":"46.98333000","longitude":"15.61667000","wikiDataId":"Q693208"},{"id":1908,"Name":"Eggenberg","state_id":2059,"state_code":"6","state_name":"Styria","country_id":15,"country_code":"AT","country_name":"Austria","latitude":"47.07000000","longitude":"15.39871000","wikiDataId":"Q1297479"},{"id":1912,"Name":"Eggersdorf bei Graz","state_id":2059,"state_code":"6","state_name":"Styria","country_id":15,"country_code":"AT","country_name":"Austria","latitude":"47.12338000","longitude":"15.60084000","wikiDataId":"Q687622"},{"id":1914,"Name":"Ehrenhausen","state_id":2059,"state_code":"6","state_name":"Styria","country_id":15,"country_code":"AT","country_name":"Austria","latitude":"46.72417000","longitude":"15.58667000","wikiDataId":"Q696164"},{"id":1916,"Name":"Eibiswald","state_id":2059,"state_code":"6","state_name":"Styria","country_id":15,"country_code":"AT","country_name":"Austria","latitude":"46.68667000","longitude":"15.24722000","wikiDataId":"Q674721"},{"id":1917,"Name":"Eichberg","state_id":2059,"state_code":"6","state_name":"Styria","country_id":15,"country_code":"AT","country_name":"Austria","latitude":"47.38188000","longitude":"15.97356000","wikiDataId":"Q674721"},{"id":1919,"Name":"Eichfeld","state_id":2059,"state_code":"6","state_name":"Styria","country_id":15,"country_code":"AT","country_name":"Austria","latitude":"46.72528000","longitude":"15.76806000","wikiDataId":"Q674721"},{"id":1922,"Name":"Eisbach","state_id":2059,"state_code":"6","state_name":"Styria","country_id":15,"country_code":"AT","country_name":"Austria","latitude":"47.11667000","longitude":"15.26667000","wikiDataId":"Q700603"},{"id":1923,"Name":"Eisenerz","state_id":2059,"state_code":"6","state_name":"Styria","country_id":15,"country_code":"AT","country_name":"Austria","latitude":"47.53333000","longitude":"14.88333000","wikiDataId":"Q700603"},{"id":1936,"Name":"Empersdorf","state_id":2059,"state_code":"6","state_name":"Styria","country_id":15,"country_code":"AT","country_name":"Austria","latitude":"46.99892000","longitude":"15.59959000","wikiDataId":"Q675509"},{"id":1945,"Name":"Eppenstein","state_id":2059,"state_code":"6","state_name":"Styria","country_id":15,"country_code":"AT","country_name":"Austria","latitude":"47.12833000","longitude":"14.73750000","wikiDataId":"Q671656"},{"id":1959,"Name":"Falkenburg","state_id":2059,"state_code":"6","state_name":"Styria","country_id":15,"country_code":"AT","country_name":"Austria","latitude":"47.50000000","longitude":"14.08333000","wikiDataId":"Q269175"},{"id":1962,"Name":"Farrach","state_id":2059,"state_code":"6","state_name":"Styria","country_id":15,"country_code":"AT","country_name":"Austria","latitude":"47.18333000","longitude":"14.73333000","wikiDataId":"Q185754"},{"id":1964,"Name":"Fehring","state_id":2059,"state_code":"6","state_name":"Styria","country_id":15,"country_code":"AT","country_name":"Austria","latitude":"46.94000000","longitude":"16.00806000","wikiDataId":"Q665198"},{"id":1968,"Name":"Feistritz bei Knittelfeld","state_id":2059,"state_code":"6","state_name":"Styria","country_id":15,"country_code":"AT","country_name":"Austria","latitude":"47.26802000","longitude":"14.89334000","wikiDataId":"Q691204"},{"id":1972,"Name":"Feldbach","state_id":2059,"state_code":"6","state_name":"Styria","country_id":15,"country_code":"AT","country_name":"Austria","latitude":"46.95306000","longitude":"15.88833000","wikiDataId":"Q663618"},{"id":1975,"Name":"Feldkirchen bei Graz","state_id":2059,"state_code":"6","state_name":"Styria","country_id":15,"country_code":"AT","country_name":"Austria","latitude":"47.01667000","longitude":"15.45000000","wikiDataId":"Q672464"},{"id":1982,"Name":"Fernitz","state_id":2059,"state_code":"6","state_name":"Styria","country_id":15,"country_code":"AT","country_name":"Austria","latitude":"46.97389000","longitude":"15.50111000","wikiDataId":""},{"id":1991,"Name":"Fischbach","state_id":2059,"state_code":"6","state_name":"Styria","country_id":15,"country_code":"AT","country_name":"Austria","latitude":"47.44234000","longitude":"15.64972000","wikiDataId":"Q662080"},{"id":1995,"Name":"Fladnitz im Raabtal","state_id":2059,"state_code":"6","state_name":"Styria","country_id":15,"country_code":"AT","country_name":"Austria","latitude":"46.99167000","longitude":"15.78528000","wikiDataId":"Q693303"},{"id":1996,"Name":"Flatschach","state_id":2059,"state_code":"6","state_name":"Styria","country_id":15,"country_code":"AT","country_name":"Austria","latitude":"47.21667000","longitude":"14.75000000","wikiDataId":"Q693303"},{"id":2001,"Name":"Floing","state_id":2059,"state_code":"6","state_name":"Styria","country_id":15,"country_code":"AT","country_name":"Austria","latitude":"47.26356000","longitude":"15.74650000","wikiDataId":"Q683666"},{"id":2003,"Name":"Fohnsdorf","state_id":2059,"state_code":"6","state_name":"Styria","country_id":15,"country_code":"AT","country_name":"Austria","latitude":"47.20000000","longitude":"14.68333000","wikiDataId":"Q672143"},{"id":2011,"Name":"Frannach","state_id":2059,"state_code":"6","state_name":"Styria","country_id":15,"country_code":"AT","country_name":"Austria","latitude":"46.91306000","longitude":"15.63361000","wikiDataId":"Q260002"},{"id":2013,"Name":"Frauenberg","state_id":2059,"state_code":"6","state_name":"Styria","country_id":15,"country_code":"AT","country_name":"Austria","latitude":"47.42855000","longitude":"15.34206000","wikiDataId":"Q698577"},{"id":2017,"Name":"Freidorf an der Laßnitz","state_id":2059,"state_code":"6","state_name":"Styria","country_id":15,"country_code":"AT","country_name":"Austria","latitude":"46.81667000","longitude":"15.25000000","wikiDataId":"Q698577"},{"id":2018,"Name":"Freiland bei Deutschlandsberg","state_id":2059,"state_code":"6","state_name":"Styria","country_id":15,"country_code":"AT","country_name":"Austria","latitude":"46.83333000","longitude":"15.13333000","wikiDataId":"Q368380"},{"id":2023,"Name":"Friedberg","state_id":2059,"state_code":"6","state_name":"Styria","country_id":15,"country_code":"AT","country_name":"Austria","latitude":"47.43333000","longitude":"16.05000000","wikiDataId":""},{"id":2026,"Name":"Frohnleiten","state_id":2059,"state_code":"6","state_name":"Styria","country_id":15,"country_code":"AT","country_name":"Austria","latitude":"47.26667000","longitude":"15.31667000","wikiDataId":"Q661519"},{"id":2037,"Name":"Fürstenfeld","state_id":2059,"state_code":"6","state_name":"Styria","country_id":15,"country_code":"AT","country_name":"Austria","latitude":"47.05000000","longitude":"16.08333000","wikiDataId":"Q661272"},{"id":2039,"Name":"Gaal","state_id":2059,"state_code":"6","state_name":"Styria","country_id":15,"country_code":"AT","country_name":"Austria","latitude":"47.27268000","longitude":"14.67003000","wikiDataId":"Q669960"},{"id":2040,"Name":"Gabersdorf","state_id":2059,"state_code":"6","state_name":"Styria","country_id":15,"country_code":"AT","country_name":"Austria","latitude":"46.77722000","longitude":"15.58417000","wikiDataId":"Q669960"},{"id":2047,"Name":"Gallmannsegg","state_id":2059,"state_code":"6","state_name":"Styria","country_id":15,"country_code":"AT","country_name":"Austria","latitude":"47.18333000","longitude":"15.06667000","wikiDataId":"Q688057"},{"id":2053,"Name":"Gamlitz","state_id":2059,"state_code":"6","state_name":"Styria","country_id":15,"country_code":"AT","country_name":"Austria","latitude":"46.72028000","longitude":"15.55333000","wikiDataId":"Q672576"},{"id":2055,"Name":"Gams bei Hieflau","state_id":2059,"state_code":"6","state_name":"Styria","country_id":15,"country_code":"AT","country_name":"Austria","latitude":"47.66667000","longitude":"14.78333000","wikiDataId":"Q690031"},{"id":2056,"Name":"Ganz","state_id":2059,"state_code":"6","state_name":"Styria","country_id":15,"country_code":"AT","country_name":"Austria","latitude":"47.60000000","longitude":"15.68333000","wikiDataId":"Q690031"},{"id":2057,"Name":"Garanas","state_id":2059,"state_code":"6","state_name":"Styria","country_id":15,"country_code":"AT","country_name":"Austria","latitude":"46.76667000","longitude":"15.11667000","wikiDataId":"Q696185"},{"id":2061,"Name":"Gasen","state_id":2059,"state_code":"6","state_name":"Styria","country_id":15,"country_code":"AT","country_name":"Austria","latitude":"47.38333000","longitude":"15.56667000","wikiDataId":"Q528286"},{"id":2070,"Name":"Geidorf","state_id":2059,"state_code":"6","state_name":"Styria","country_id":15,"country_code":"AT","country_name":"Austria","latitude":"47.08393000","longitude":"15.44400000","wikiDataId":"Q21879666"},{"id":2071,"Name":"Geistthal","state_id":2059,"state_code":"6","state_name":"Styria","country_id":15,"country_code":"AT","country_name":"Austria","latitude":"47.16667000","longitude":"15.16667000","wikiDataId":"Q21879666"},{"id":2079,"Name":"Gersdorf an der Feistritz","state_id":2059,"state_code":"6","state_name":"Styria","country_id":15,"country_code":"AT","country_name":"Austria","latitude":"47.16667000","longitude":"15.85000000","wikiDataId":"Q689372"},{"id":2085,"Name":"Gleinstätten","state_id":2059,"state_code":"6","state_name":"Styria","country_id":15,"country_code":"AT","country_name":"Austria","latitude":"46.75361000","longitude":"15.36972000","wikiDataId":"Q689704"},{"id":2086,"Name":"Gleisdorf","state_id":2059,"state_code":"6","state_name":"Styria","country_id":15,"country_code":"AT","country_name":"Austria","latitude":"47.10559000","longitude":"15.71011000","wikiDataId":"Q643600"},{"id":2090,"Name":"Glojach","state_id":2059,"state_code":"6","state_name":"Styria","country_id":15,"country_code":"AT","country_name":"Austria","latitude":"46.86667000","longitude":"15.66667000","wikiDataId":"Q687172"},{"id":2097,"Name":"Gnas","state_id":2059,"state_code":"6","state_name":"Styria","country_id":15,"country_code":"AT","country_name":"Austria","latitude":"46.87306000","longitude":"15.82528000","wikiDataId":"Q693133"},{"id":2100,"Name":"Gniebing","state_id":2059,"state_code":"6","state_name":"Styria","country_id":15,"country_code":"AT","country_name":"Austria","latitude":"46.96252000","longitude":"15.85645000","wikiDataId":"Q155113"},{"id":2106,"Name":"Gosdorf","state_id":2059,"state_code":"6","state_name":"Styria","country_id":15,"country_code":"AT","country_name":"Austria","latitude":"46.72778000","longitude":"15.79250000","wikiDataId":"Q680274"},{"id":2187,"Name":"Göss","state_id":2059,"state_code":"6","state_name":"Styria","country_id":15,"country_code":"AT","country_name":"Austria","latitude":"47.35871000","longitude":"15.10015000","wikiDataId":"Q673743"},{"id":2188,"Name":"Gössenberg","state_id":2059,"state_code":"6","state_name":"Styria","country_id":15,"country_code":"AT","country_name":"Austria","latitude":"47.41667000","longitude":"13.81667000","wikiDataId":"Q569134"},{"id":2107,"Name":"Gossendorf","state_id":2059,"state_code":"6","state_name":"Styria","country_id":15,"country_code":"AT","country_name":"Austria","latitude":"46.91076000","longitude":"15.93043000","wikiDataId":"Q701193"},{"id":2190,"Name":"Gösting","state_id":2059,"state_code":"6","state_name":"Styria","country_id":15,"country_code":"AT","country_name":"Austria","latitude":"47.09788000","longitude":"15.39777000","wikiDataId":"Q1559684"},{"id":2192,"Name":"Göttelsberg","state_id":2059,"state_code":"6","state_name":"Styria","country_id":15,"country_code":"AT","country_name":"Austria","latitude":"47.21667000","longitude":"15.60000000","wikiDataId":"Q1559684"},{"id":2108,"Name":"Grabersdorf","state_id":2059,"state_code":"6","state_name":"Styria","country_id":15,"country_code":"AT","country_name":"Austria","latitude":"46.84306000","longitude":"15.82472000","wikiDataId":"Q700195"},{"id":2109,"Name":"Grafendorf bei Hartberg","state_id":2059,"state_code":"6","state_name":"Styria","country_id":15,"country_code":"AT","country_name":"Austria","latitude":"47.34028000","longitude":"15.99060000","wikiDataId":"Q673052"},{"id":2115,"Name":"Gralla","state_id":2059,"state_code":"6","state_name":"Styria","country_id":15,"country_code":"AT","country_name":"Austria","latitude":"46.81404000","longitude":"15.55510000","wikiDataId":"Q595241"},{"id":2119,"Name":"Grambach","state_id":2059,"state_code":"6","state_name":"Styria","country_id":15,"country_code":"AT","country_name":"Austria","latitude":"47.01473000","longitude":"15.50407000","wikiDataId":"Q876341"},{"id":2120,"Name":"Gratkorn","state_id":2059,"state_code":"6","state_name":"Styria","country_id":15,"country_code":"AT","country_name":"Austria","latitude":"47.13333000","longitude":"15.35000000","wikiDataId":"Q522963"},{"id":2121,"Name":"Gratwein","state_id":2059,"state_code":"6","state_name":"Styria","country_id":15,"country_code":"AT","country_name":"Austria","latitude":"47.11667000","longitude":"15.31667000","wikiDataId":"Q691262"},{"id":2122,"Name":"Graz","state_id":2059,"state_code":"6","state_name":"Styria","country_id":15,"country_code":"AT","country_name":"Austria","latitude":"47.06667000","longitude":"15.45000000","wikiDataId":"Q691262"},{"id":2123,"Name":"Graz Stadt","state_id":2059,"state_code":"6","state_name":"Styria","country_id":15,"country_code":"AT","country_name":"Austria","latitude":"47.06667000","longitude":"15.43333000","wikiDataId":"Q13298"},{"id":2127,"Name":"Greisdorf","state_id":2059,"state_code":"6","state_name":"Styria","country_id":15,"country_code":"AT","country_name":"Austria","latitude":"46.92647000","longitude":"15.21906000","wikiDataId":"Q689355"},{"id":2128,"Name":"Gressenberg","state_id":2059,"state_code":"6","state_name":"Styria","country_id":15,"country_code":"AT","country_name":"Austria","latitude":"46.80000000","longitude":"15.11667000","wikiDataId":"Q689455"},{"id":2131,"Name":"Gries","state_id":2059,"state_code":"6","state_name":"Styria","country_id":15,"country_code":"AT","country_name":"Austria","latitude":"47.06236000","longitude":"15.42421000","wikiDataId":"Q689455"},{"id":2165,"Name":"Gröbming","state_id":2059,"state_code":"6","state_name":"Styria","country_id":15,"country_code":"AT","country_name":"Austria","latitude":"47.44272000","longitude":"13.90122000","wikiDataId":"Q700597"},{"id":2145,"Name":"Groß Sankt Florian","state_id":2059,"state_code":"6","state_name":"Styria","country_id":15,"country_code":"AT","country_name":"Austria","latitude":"46.82444000","longitude":"15.31861000","wikiDataId":"Q666739"},{"id":2156,"Name":"Großklein","state_id":2059,"state_code":"6","state_name":"Styria","country_id":15,"country_code":"AT","country_name":"Austria","latitude":"46.73611000","longitude":"15.44444000","wikiDataId":"Q696181"},{"id":2158,"Name":"Großlobming","state_id":2059,"state_code":"6","state_name":"Styria","country_id":15,"country_code":"AT","country_name":"Austria","latitude":"47.18333000","longitude":"14.80000000","wikiDataId":"Q690970"},{"id":2162,"Name":"Großsölk","state_id":2059,"state_code":"6","state_name":"Styria","country_id":15,"country_code":"AT","country_name":"Austria","latitude":"47.41667000","longitude":"13.96667000","wikiDataId":"Q674992"},{"id":2144,"Name":"Grosssulz","state_id":2059,"state_code":"6","state_name":"Styria","country_id":15,"country_code":"AT","country_name":"Austria","latitude":"46.94556000","longitude":"15.49028000","wikiDataId":"Q682248"},{"id":2174,"Name":"Gundersdorf","state_id":2059,"state_code":"6","state_name":"Styria","country_id":15,"country_code":"AT","country_name":"Austria","latitude":"46.95000000","longitude":"15.23333000","wikiDataId":"Q688307"},{"id":2206,"Name":"Hafendorf","state_id":2059,"state_code":"6","state_name":"Styria","country_id":15,"country_code":"AT","country_name":"Austria","latitude":"47.45653000","longitude":"15.31837000","wikiDataId":"Q670815"},{"id":2217,"Name":"Hainersdorf","state_id":2059,"state_code":"6","state_name":"Styria","country_id":15,"country_code":"AT","country_name":"Austria","latitude":"47.11506000","longitude":"15.94374000","wikiDataId":"Q752107"},{"id":2219,"Name":"Hainsdorf im Schwarzautal","state_id":2059,"state_code":"6","state_name":"Styria","country_id":15,"country_code":"AT","country_name":"Austria","latitude":"46.83583000","longitude":"15.64139000","wikiDataId":"Q752107"},{"id":2221,"Name":"Halbenrain","state_id":2059,"state_code":"6","state_name":"Styria","country_id":15,"country_code":"AT","country_name":"Austria","latitude":"46.72194000","longitude":"15.94667000","wikiDataId":"Q669529"},{"id":2223,"Name":"Hall bei Admont","state_id":2059,"state_code":"6","state_name":"Styria","country_id":15,"country_code":"AT","country_name":"Austria","latitude":"47.58700000","longitude":"14.46372000","wikiDataId":"Q662292"},{"id":2236,"Name":"Hart bei Graz","state_id":2059,"state_code":"6","state_name":"Styria","country_id":15,"country_code":"AT","country_name":"Austria","latitude":"47.04311000","longitude":"15.51527000","wikiDataId":"Q689675"},{"id":2238,"Name":"Hartberg","state_id":2059,"state_code":"6","state_name":"Styria","country_id":15,"country_code":"AT","country_name":"Austria","latitude":"47.28333000","longitude":"15.96667000","wikiDataId":"Q368598"},{"id":2241,"Name":"Hartl","state_id":2059,"state_code":"6","state_name":"Styria","country_id":15,"country_code":"AT","country_name":"Austria","latitude":"47.18333000","longitude":"15.91667000","wikiDataId":"Q664682"},{"id":2242,"Name":"Hartmannsdorf","state_id":2059,"state_code":"6","state_name":"Styria","country_id":15,"country_code":"AT","country_name":"Austria","latitude":"47.05461000","longitude":"15.83941000","wikiDataId":"Q664682"},{"id":2246,"Name":"Hatzendorf","state_id":2059,"state_code":"6","state_name":"Styria","country_id":15,"country_code":"AT","country_name":"Austria","latitude":"46.97686000","longitude":"16.00107000","wikiDataId":"Q697478"},{"id":2250,"Name":"Haus","state_id":2059,"state_code":"6","state_name":"Styria","country_id":15,"country_code":"AT","country_name":"Austria","latitude":"47.40997000","longitude":"13.76724000","wikiDataId":"Q222343"},{"id":2251,"Name":"Haus im Ennstal","state_id":2059,"state_code":"6","state_name":"Styria","country_id":15,"country_code":"AT","country_name":"Austria","latitude":"47.41058000","longitude":"13.76759000","wikiDataId":"Q222343"},{"id":2255,"Name":"Hausmannstätten","state_id":2059,"state_code":"6","state_name":"Styria","country_id":15,"country_code":"AT","country_name":"Austria","latitude":"46.99111000","longitude":"15.51139000","wikiDataId":"Q695447"},{"id":2262,"Name":"Heiligenkreuz am Waasen","state_id":2059,"state_code":"6","state_name":"Styria","country_id":15,"country_code":"AT","country_name":"Austria","latitude":"46.95583000","longitude":"15.58806000","wikiDataId":"Q696102"},{"id":2264,"Name":"Heimschuh","state_id":2059,"state_code":"6","state_name":"Styria","country_id":15,"country_code":"AT","country_name":"Austria","latitude":"46.76000000","longitude":"15.49306000","wikiDataId":"Q662219"},{"id":2268,"Name":"Hengsberg","state_id":2059,"state_code":"6","state_name":"Styria","country_id":15,"country_code":"AT","country_name":"Austria","latitude":"46.86667000","longitude":"15.43333000","wikiDataId":"Q695443"},{"id":2277,"Name":"Hetzendorf","state_id":2059,"state_code":"6","state_name":"Styria","country_id":15,"country_code":"AT","country_name":"Austria","latitude":"47.18333000","longitude":"14.68333000","wikiDataId":"Q679190"},{"id":2279,"Name":"Hieflau","state_id":2059,"state_code":"6","state_name":"Styria","country_id":15,"country_code":"AT","country_name":"Austria","latitude":"47.60639000","longitude":"14.74503000","wikiDataId":"Q700575"},{"id":2284,"Name":"Hinterberg","state_id":2059,"state_code":"6","state_name":"Styria","country_id":15,"country_code":"AT","country_name":"Austria","latitude":"47.36066000","longitude":"15.06951000","wikiDataId":"Q693010"},{"id":2291,"Name":"Hirnsdorf","state_id":2059,"state_code":"6","state_name":"Styria","country_id":15,"country_code":"AT","country_name":"Austria","latitude":"47.19167000","longitude":"15.82868000","wikiDataId":"Q286442"},{"id":2296,"Name":"Hitzendorf","state_id":2059,"state_code":"6","state_name":"Styria","country_id":15,"country_code":"AT","country_name":"Austria","latitude":"47.03333000","longitude":"15.30000000","wikiDataId":"Q687402"},{"id":2301,"Name":"Hochtregist","state_id":2059,"state_code":"6","state_name":"Styria","country_id":15,"country_code":"AT","country_name":"Austria","latitude":"47.10000000","longitude":"15.13333000","wikiDataId":"Q665986"},{"id":2337,"Name":"Höf","state_id":2059,"state_code":"6","state_name":"Styria","country_id":15,"country_code":"AT","country_name":"Austria","latitude":"47.13401000","longitude":"15.49092000","wikiDataId":"Q678044"},{"id":2307,"Name":"Hof bei Straden","state_id":2059,"state_code":"6","state_name":"Styria","country_id":15,"country_code":"AT","country_name":"Austria","latitude":"46.80000000","longitude":"15.93333000","wikiDataId":"Q695427"},{"id":2311,"Name":"Hofstätten an der Raab","state_id":2059,"state_code":"6","state_name":"Styria","country_id":15,"country_code":"AT","country_name":"Austria","latitude":"47.06667000","longitude":"15.73333000","wikiDataId":"Q428737"},{"id":2313,"Name":"Hohenau an der Raab","state_id":2059,"state_code":"6","state_name":"Styria","country_id":15,"country_code":"AT","country_name":"Austria","latitude":"47.30000000","longitude":"15.55000000","wikiDataId":"Q428737"},{"id":2318,"Name":"Hohentauern","state_id":2059,"state_code":"6","state_name":"Styria","country_id":15,"country_code":"AT","country_name":"Austria","latitude":"47.43333000","longitude":"14.48333000","wikiDataId":"Q665811"},{"id":2322,"Name":"Hollenegg","state_id":2059,"state_code":"6","state_name":"Styria","country_id":15,"country_code":"AT","country_name":"Austria","latitude":"46.79147000","longitude":"15.21345000","wikiDataId":"Q675627"},{"id":2341,"Name":"Hönigsberg","state_id":2059,"state_code":"6","state_name":"Styria","country_id":15,"country_code":"AT","country_name":"Austria","latitude":"47.58038000","longitude":"15.64808000","wikiDataId":"Q677992"},{"id":2352,"Name":"Ilz","state_id":2059,"state_code":"6","state_name":"Styria","country_id":15,"country_code":"AT","country_name":"Austria","latitude":"47.08649000","longitude":"15.92676000","wikiDataId":"Q663981"},{"id":2357,"Name":"Innere Stadt","state_id":2059,"state_code":"6","state_name":"Styria","country_id":15,"country_code":"AT","country_name":"Austria","latitude":"47.06650000","longitude":"15.44051000","wikiDataId":"Q254107"},{"id":2365,"Name":"Irdning","state_id":2059,"state_code":"6","state_name":"Styria","country_id":15,"country_code":"AT","country_name":"Austria","latitude":"47.50529000","longitude":"14.10155000","wikiDataId":"Q696276"},{"id":2371,"Name":"Jagerberg","state_id":2059,"state_code":"6","state_name":"Styria","country_id":15,"country_code":"AT","country_name":"Austria","latitude":"46.85361000","longitude":"15.73806000","wikiDataId":"Q696414"},{"id":2373,"Name":"Jakomini","state_id":2059,"state_code":"6","state_name":"Styria","country_id":15,"country_code":"AT","country_name":"Austria","latitude":"47.05441000","longitude":"15.44984000","wikiDataId":"Q676486"},{"id":2380,"Name":"Johnsbach","state_id":2059,"state_code":"6","state_name":"Styria","country_id":15,"country_code":"AT","country_name":"Austria","latitude":"47.53333000","longitude":"14.58333000","wikiDataId":"Q701397"},{"id":2382,"Name":"Judenburg","state_id":2059,"state_code":"6","state_name":"Styria","country_id":15,"country_code":"AT","country_name":"Austria","latitude":"47.16667000","longitude":"14.66667000","wikiDataId":"Q263107"},{"id":2383,"Name":"Judendorf","state_id":2059,"state_code":"6","state_name":"Styria","country_id":15,"country_code":"AT","country_name":"Austria","latitude":"47.40000000","longitude":"15.10000000","wikiDataId":"Q263107"},{"id":2385,"Name":"Kaibing","state_id":2059,"state_code":"6","state_name":"Styria","country_id":15,"country_code":"AT","country_name":"Austria","latitude":"47.20000000","longitude":"15.83333000","wikiDataId":"Q689659"},{"id":2386,"Name":"Kainach bei Voitsberg","state_id":2059,"state_code":"6","state_name":"Styria","country_id":15,"country_code":"AT","country_name":"Austria","latitude":"47.13637000","longitude":"15.09530000","wikiDataId":"Q689659"},{"id":2387,"Name":"Kainbach","state_id":2059,"state_code":"6","state_name":"Styria","country_id":15,"country_code":"AT","country_name":"Austria","latitude":"47.08333000","longitude":"15.51667000","wikiDataId":"Q689659"},{"id":2388,"Name":"Kaindorf","state_id":2059,"state_code":"6","state_name":"Styria","country_id":15,"country_code":"AT","country_name":"Austria","latitude":"47.22537000","longitude":"15.91125000","wikiDataId":"Q689659"},{"id":2389,"Name":"Kaindorf an der Sulm","state_id":2059,"state_code":"6","state_name":"Styria","country_id":15,"country_code":"AT","country_name":"Austria","latitude":"46.79248000","longitude":"15.53879000","wikiDataId":"Q689659"},{"id":2391,"Name":"Kalsdorf bei Graz","state_id":2059,"state_code":"6","state_name":"Styria","country_id":15,"country_code":"AT","country_name":"Austria","latitude":"46.96528000","longitude":"15.48028000","wikiDataId":"Q700550"},{"id":2395,"Name":"Kalwang","state_id":2059,"state_code":"6","state_name":"Styria","country_id":15,"country_code":"AT","country_name":"Austria","latitude":"47.42678000","longitude":"14.75442000","wikiDataId":"Q695616"},{"id":2396,"Name":"Kammern im Liesingtal","state_id":2059,"state_code":"6","state_name":"Styria","country_id":15,"country_code":"AT","country_name":"Austria","latitude":"47.39245000","longitude":"14.90407000","wikiDataId":"Q695606"},{"id":2397,"Name":"Kapellen","state_id":2059,"state_code":"6","state_name":"Styria","country_id":15,"country_code":"AT","country_name":"Austria","latitude":"47.64784000","longitude":"15.62863000","wikiDataId":"Q695606"},{"id":2399,"Name":"Kapfenberg","state_id":2059,"state_code":"6","state_name":"Styria","country_id":15,"country_code":"AT","country_name":"Austria","latitude":"47.44458000","longitude":"15.29331000","wikiDataId":"Q623049"},{"id":2400,"Name":"Kapfenstein","state_id":2059,"state_code":"6","state_name":"Styria","country_id":15,"country_code":"AT","country_name":"Austria","latitude":"46.88611000","longitude":"15.97167000","wikiDataId":"Q699786"},{"id":2423,"Name":"Kindberg","state_id":2059,"state_code":"6","state_name":"Styria","country_id":15,"country_code":"AT","country_name":"Austria","latitude":"47.50000000","longitude":"15.45000000","wikiDataId":"Q695227"},{"id":2425,"Name":"Kirchbach in Steiermark","state_id":2059,"state_code":"6","state_name":"Styria","country_id":15,"country_code":"AT","country_name":"Austria","latitude":"46.93167000","longitude":"15.66194000","wikiDataId":"Q699795"},{"id":2430,"Name":"Kirchberg an der Raab","state_id":2059,"state_code":"6","state_name":"Styria","country_id":15,"country_code":"AT","country_name":"Austria","latitude":"46.98583000","longitude":"15.76694000","wikiDataId":"Q699789"},{"id":2436,"Name":"Kirchenviertel","state_id":2059,"state_code":"6","state_name":"Styria","country_id":15,"country_code":"AT","country_name":"Austria","latitude":"47.13124000","longitude":"15.34764000","wikiDataId":"Q665558"},{"id":2444,"Name":"Kitzeck im Sausal","state_id":2059,"state_code":"6","state_name":"Styria","country_id":15,"country_code":"AT","country_name":"Austria","latitude":"46.78072000","longitude":"15.45384000","wikiDataId":"Q696558"},{"id":2455,"Name":"Kleinlobming","state_id":2059,"state_code":"6","state_name":"Styria","country_id":15,"country_code":"AT","country_name":"Austria","latitude":"47.14954000","longitude":"14.84875000","wikiDataId":"Q696059"},{"id":2457,"Name":"Kleinsöding","state_id":2059,"state_code":"6","state_name":"Styria","country_id":15,"country_code":"AT","country_name":"Austria","latitude":"47.00000000","longitude":"15.28333000","wikiDataId":"Q696059"},{"id":2458,"Name":"Kleinsölk","state_id":2059,"state_code":"6","state_name":"Styria","country_id":15,"country_code":"AT","country_name":"Austria","latitude":"47.39444000","longitude":"13.93944000","wikiDataId":"Q696059"},{"id":2463,"Name":"Klöch","state_id":2059,"state_code":"6","state_name":"Styria","country_id":15,"country_code":"AT","country_name":"Austria","latitude":"46.76472000","longitude":"15.96556000","wikiDataId":"Q487522"},{"id":2461,"Name":"Kloster","state_id":2059,"state_code":"6","state_name":"Styria","country_id":15,"country_code":"AT","country_name":"Austria","latitude":"46.88333000","longitude":"15.08333000","wikiDataId":"Q662564"},{"id":2465,"Name":"Knittelfeld","state_id":2059,"state_code":"6","state_name":"Styria","country_id":15,"country_code":"AT","country_name":"Austria","latitude":"47.21667000","longitude":"14.81667000","wikiDataId":"Q494621"},{"id":2466,"Name":"Kobenz","state_id":2059,"state_code":"6","state_name":"Styria","country_id":15,"country_code":"AT","country_name":"Austria","latitude":"47.25000000","longitude":"14.85000000","wikiDataId":"Q696354"},{"id":2508,"Name":"Köflach","state_id":2059,"state_code":"6","state_name":"Styria","country_id":15,"country_code":"AT","country_name":"Austria","latitude":"47.06667000","longitude":"15.08333000","wikiDataId":"Q550434"},{"id":2470,"Name":"Kohlberg","state_id":2059,"state_code":"6","state_name":"Styria","country_id":15,"country_code":"AT","country_name":"Austria","latitude":"46.90000000","longitude":"15.78333000","wikiDataId":"Q427263"},{"id":2471,"Name":"Kohlschwarz","state_id":2059,"state_code":"6","state_name":"Styria","country_id":15,"country_code":"AT","country_name":"Austria","latitude":"47.11667000","longitude":"15.11667000","wikiDataId":"Q427263"},{"id":2478,"Name":"Krakaudorf","state_id":2059,"state_code":"6","state_name":"Styria","country_id":15,"country_code":"AT","country_name":"Austria","latitude":"47.18131000","longitude":"14.02061000","wikiDataId":"Q690345"},{"id":2479,"Name":"Krakauhintermühlen","state_id":2059,"state_code":"6","state_name":"Styria","country_id":15,"country_code":"AT","country_name":"Austria","latitude":"47.18333000","longitude":"13.98333000","wikiDataId":"Q690345"},{"id":2480,"Name":"Krakauschatten","state_id":2059,"state_code":"6","state_name":"Styria","country_id":15,"country_code":"AT","country_name":"Austria","latitude":"47.18333000","longitude":"13.96667000","wikiDataId":"Q695438"},{"id":2482,"Name":"Kraubath an der Mur","state_id":2059,"state_code":"6","state_name":"Styria","country_id":15,"country_code":"AT","country_name":"Austria","latitude":"47.30000000","longitude":"14.93333000","wikiDataId":"Q261045"},{"id":2488,"Name":"Krieglach","state_id":2059,"state_code":"6","state_name":"Styria","country_id":15,"country_code":"AT","country_name":"Austria","latitude":"47.54728000","longitude":"15.56248000","wikiDataId":"Q671402"},{"id":2493,"Name":"Krottendorf","state_id":2059,"state_code":"6","state_name":"Styria","country_id":15,"country_code":"AT","country_name":"Austria","latitude":"47.20000000","longitude":"15.63333000","wikiDataId":"Q680424"},{"id":2494,"Name":"Krottendorf bei Ligist","state_id":2059,"state_code":"6","state_name":"Styria","country_id":15,"country_code":"AT","country_name":"Austria","latitude":"47.01667000","longitude":"15.21667000","wikiDataId":"Q680424"},{"id":2498,"Name":"Krumegg","state_id":2059,"state_code":"6","state_name":"Styria","country_id":15,"country_code":"AT","country_name":"Austria","latitude":"47.02111000","longitude":"15.63139000","wikiDataId":"Q674904"},{"id":2501,"Name":"Krusdorf","state_id":2059,"state_code":"6","state_name":"Styria","country_id":15,"country_code":"AT","country_name":"Austria","latitude":"46.83944000","longitude":"15.86083000","wikiDataId":"Q696426"},{"id":2505,"Name":"Kulm am Zirbitz","state_id":2059,"state_code":"6","state_name":"Styria","country_id":15,"country_code":"AT","country_name":"Austria","latitude":"47.05814000","longitude":"14.48702000","wikiDataId":"Q383001"},{"id":2506,"Name":"Kumberg","state_id":2059,"state_code":"6","state_name":"Styria","country_id":15,"country_code":"AT","country_name":"Austria","latitude":"47.16422000","longitude":"15.53261000","wikiDataId":"Q697859"},{"id":2522,"Name":"Labuch","state_id":2059,"state_code":"6","state_name":"Styria","country_id":15,"country_code":"AT","country_name":"Austria","latitude":"47.06667000","longitude":"15.66667000","wikiDataId":"Q261705"},{"id":2527,"Name":"Lafnitz","state_id":2059,"state_code":"6","state_name":"Styria","country_id":15,"country_code":"AT","country_name":"Austria","latitude":"47.36792000","longitude":"16.01103000","wikiDataId":"Q696208"},{"id":2532,"Name":"Landl","state_id":2059,"state_code":"6","state_name":"Styria","country_id":15,"country_code":"AT","country_name":"Austria","latitude":"47.65666000","longitude":"14.73189000","wikiDataId":"Q696281"},{"id":2534,"Name":"Lang","state_id":2059,"state_code":"6","state_name":"Styria","country_id":15,"country_code":"AT","country_name":"Austria","latitude":"46.83765000","longitude":"15.50471000","wikiDataId":"Q696281"},{"id":2536,"Name":"Langegg bei Graz","state_id":2059,"state_code":"6","state_name":"Styria","country_id":15,"country_code":"AT","country_name":"Austria","latitude":"47.05000000","longitude":"15.63333000","wikiDataId":"Q695419"},{"id":2543,"Name":"Langenwang","state_id":2059,"state_code":"6","state_name":"Styria","country_id":15,"country_code":"AT","country_name":"Austria","latitude":"47.56667000","longitude":"15.61667000","wikiDataId":"Q695639"},{"id":2547,"Name":"Lannach","state_id":2059,"state_code":"6","state_name":"Styria","country_id":15,"country_code":"AT","country_name":"Austria","latitude":"46.94611000","longitude":"15.33722000","wikiDataId":"Q696259"},{"id":2552,"Name":"Lassnitzhöhe","state_id":2059,"state_code":"6","state_name":"Styria","country_id":15,"country_code":"AT","country_name":"Austria","latitude":"47.06667000","longitude":"15.58333000","wikiDataId":"Q699625"},{"id":2564,"Name":"Leibnitz","state_id":2059,"state_code":"6","state_name":"Styria","country_id":15,"country_code":"AT","country_name":"Austria","latitude":"46.78161000","longitude":"15.53836000","wikiDataId":"Q659860"},{"id":2566,"Name":"Leitendorf","state_id":2059,"state_code":"6","state_name":"Styria","country_id":15,"country_code":"AT","country_name":"Austria","latitude":"47.36667000","longitude":"15.08333000","wikiDataId":"Q690245"},{"id":2567,"Name":"Leitersdorf im Raabtal","state_id":2059,"state_code":"6","state_name":"Styria","country_id":15,"country_code":"AT","country_name":"Austria","latitude":"46.94182000","longitude":"15.93365000","wikiDataId":"Q696400"},{"id":2569,"Name":"Leitring","state_id":2059,"state_code":"6","state_name":"Styria","country_id":15,"country_code":"AT","country_name":"Austria","latitude":"46.76667000","longitude":"15.56667000","wikiDataId":"Q533521"},{"id":2573,"Name":"Lend","state_id":2059,"state_code":"6","state_name":"Styria","country_id":15,"country_code":"AT","country_name":"Austria","latitude":"47.08256000","longitude":"15.41589000","wikiDataId":"Q681202"},{"id":2578,"Name":"Leoben","state_id":2059,"state_code":"6","state_name":"Styria","country_id":15,"country_code":"AT","country_name":"Austria","latitude":"47.37650000","longitude":"15.09144000","wikiDataId":"Q485294"},{"id":2589,"Name":"Leutschach","state_id":2059,"state_code":"6","state_name":"Styria","country_id":15,"country_code":"AT","country_name":"Austria","latitude":"46.66722000","longitude":"15.46889000","wikiDataId":"Q699818"},{"id":2593,"Name":"Liebenau","state_id":2059,"state_code":"6","state_name":"Styria","country_id":15,"country_code":"AT","country_name":"Austria","latitude":"47.03333000","longitude":"15.46667000","wikiDataId":"Q876432"},{"id":2595,"Name":"Lieboch","state_id":2059,"state_code":"6","state_name":"Styria","country_id":15,"country_code":"AT","country_name":"Austria","latitude":"46.97417000","longitude":"15.33750000","wikiDataId":"Q509098"},{"id":2597,"Name":"Liesingtal","state_id":2059,"state_code":"6","state_name":"Styria","country_id":15,"country_code":"AT","country_name":"Austria","latitude":"47.34597000","longitude":"15.01352000","wikiDataId":"Q336250"},{"id":2598,"Name":"Liezen","state_id":2059,"state_code":"6","state_name":"Styria","country_id":15,"country_code":"AT","country_name":"Austria","latitude":"47.56667000","longitude":"14.23333000","wikiDataId":"Q698520"},{"id":2599,"Name":"Ligist","state_id":2059,"state_code":"6","state_name":"Styria","country_id":15,"country_code":"AT","country_name":"Austria","latitude":"46.99389000","longitude":"15.21083000","wikiDataId":"Q696327"},{"id":2624,"Name":"Lödersdorf","state_id":2059,"state_code":"6","state_name":"Styria","country_id":15,"country_code":"AT","country_name":"Austria","latitude":"46.95861000","longitude":"15.94333000","wikiDataId":"Q696421"},{"id":2612,"Name":"Loipersdorf bei Fürstenfeld","state_id":2059,"state_code":"6","state_name":"Styria","country_id":15,"country_code":"AT","country_name":"Austria","latitude":"47.00000000","longitude":"16.10000000","wikiDataId":"Q580762"},{"id":2625,"Name":"Maierdorf","state_id":2059,"state_code":"6","state_name":"Styria","country_id":15,"country_code":"AT","country_name":"Austria","latitude":"46.89250000","longitude":"15.84972000","wikiDataId":"Q697481"},{"id":2643,"Name":"Maria Lankowitz","state_id":2059,"state_code":"6","state_name":"Styria","country_id":15,"country_code":"AT","country_name":"Austria","latitude":"47.06220000","longitude":"15.06525000","wikiDataId":"Q699807"},{"id":2652,"Name":"Mariahof","state_id":2059,"state_code":"6","state_name":"Styria","country_id":15,"country_code":"AT","country_name":"Austria","latitude":"47.10000000","longitude":"14.40000000","wikiDataId":"Q304370"},{"id":2657,"Name":"Mariatrost","state_id":2059,"state_code":"6","state_name":"Styria","country_id":15,"country_code":"AT","country_name":"Austria","latitude":"47.10000000","longitude":"15.50000000","wikiDataId":"Q875624"},{"id":2658,"Name":"Mariazell","state_id":2059,"state_code":"6","state_name":"Styria","country_id":15,"country_code":"AT","country_name":"Austria","latitude":"47.77306000","longitude":"15.31639000","wikiDataId":"Q264201"},{"id":2680,"Name":"Mautern in Steiermark","state_id":2059,"state_code":"6","state_name":"Styria","country_id":15,"country_code":"AT","country_name":"Austria","latitude":"47.40000000","longitude":"14.83333000","wikiDataId":"Q258162"},{"id":2689,"Name":"Mellach","state_id":2059,"state_code":"6","state_name":"Styria","country_id":15,"country_code":"AT","country_name":"Austria","latitude":"46.93333000","longitude":"15.51667000","wikiDataId":"Q696115"},{"id":2691,"Name":"Merkendorf","state_id":2059,"state_code":"6","state_name":"Styria","country_id":15,"country_code":"AT","country_name":"Austria","latitude":"46.85722000","longitude":"15.90389000","wikiDataId":"Q693939"},{"id":2693,"Name":"Mettersdorf am Saßbach","state_id":2059,"state_code":"6","state_name":"Styria","country_id":15,"country_code":"AT","country_name":"Austria","latitude":"46.80583000","longitude":"15.71111000","wikiDataId":"Q695622"},{"id":2694,"Name":"Michaelerberg","state_id":2059,"state_code":"6","state_name":"Styria","country_id":15,"country_code":"AT","country_name":"Austria","latitude":"47.41083000","longitude":"13.89333000","wikiDataId":"Q695622"},{"id":2710,"Name":"Mitterdorf an der Raab","state_id":2059,"state_code":"6","state_name":"Styria","country_id":15,"country_code":"AT","country_name":"Austria","latitude":"47.16667000","longitude":"15.60000000","wikiDataId":"Q281814"},{"id":2711,"Name":"Mitterdorf im Mürztal","state_id":2059,"state_code":"6","state_name":"Styria","country_id":15,"country_code":"AT","country_name":"Austria","latitude":"47.53333000","longitude":"15.51667000","wikiDataId":"Q696044"},{"id":2714,"Name":"Mitterlabill","state_id":2059,"state_code":"6","state_name":"Styria","country_id":15,"country_code":"AT","country_name":"Austria","latitude":"46.88917000","longitude":"15.63556000","wikiDataId":"Q666964"},{"id":2717,"Name":"Mitterndorf im Steirischen Salzkammergut","state_id":2059,"state_code":"6","state_name":"Styria","country_id":15,"country_code":"AT","country_name":"Austria","latitude":"47.55556000","longitude":"13.93187000","wikiDataId":"Q672441"},{"id":2721,"Name":"Modriach","state_id":2059,"state_code":"6","state_name":"Styria","country_id":15,"country_code":"AT","country_name":"Austria","latitude":"46.95000000","longitude":"15.05000000","wikiDataId":"Q695603"},{"id":2747,"Name":"Mönichwald","state_id":2059,"state_code":"6","state_name":"Styria","country_id":15,"country_code":"AT","country_name":"Austria","latitude":"47.44655000","longitude":"15.88275000","wikiDataId":"Q701421"},{"id":2728,"Name":"Mooskirchen","state_id":2059,"state_code":"6","state_name":"Styria","country_id":15,"country_code":"AT","country_name":"Austria","latitude":"46.98167000","longitude":"15.27889000","wikiDataId":"Q669467"},{"id":2729,"Name":"Mortantsch","state_id":2059,"state_code":"6","state_name":"Styria","country_id":15,"country_code":"AT","country_name":"Austria","latitude":"47.20752000","longitude":"15.57954000","wikiDataId":"Q695931"},{"id":2757,"Name":"Mühldorf bei Feldbach","state_id":2059,"state_code":"6","state_name":"Styria","country_id":15,"country_code":"AT","country_name":"Austria","latitude":"46.93861000","longitude":"15.90750000","wikiDataId":"Q696385"},{"id":2758,"Name":"Mühlen","state_id":2059,"state_code":"6","state_name":"Styria","country_id":15,"country_code":"AT","country_name":"Austria","latitude":"47.03071000","longitude":"14.50848000","wikiDataId":"Q696385"},{"id":2735,"Name":"Murau","state_id":2059,"state_code":"6","state_name":"Styria","country_id":15,"country_code":"AT","country_name":"Austria","latitude":"47.11056000","longitude":"14.16944000","wikiDataId":"Q605054"},{"id":2736,"Name":"Mureck","state_id":2059,"state_code":"6","state_name":"Styria","country_id":15,"country_code":"AT","country_name":"Austria","latitude":"46.70806000","longitude":"15.77472000","wikiDataId":"Q163474"},{"id":2765,"Name":"Mürzhofen","state_id":2059,"state_code":"6","state_name":"Styria","country_id":15,"country_code":"AT","country_name":"Austria","latitude":"47.48333000","longitude":"15.38333000","wikiDataId":"Q689105"},{"id":2766,"Name":"Mürzsteg","state_id":2059,"state_code":"6","state_name":"Styria","country_id":15,"country_code":"AT","country_name":"Austria","latitude":"47.67556000","longitude":"15.49145000","wikiDataId":"Q694786"},{"id":2767,"Name":"Mürzzuschlag","state_id":2059,"state_code":"6","state_name":"Styria","country_id":15,"country_code":"AT","country_name":"Austria","latitude":"47.60660000","longitude":"15.67226000","wikiDataId":"Q492868"},{"id":2769,"Name":"Naas","state_id":2059,"state_code":"6","state_name":"Styria","country_id":15,"country_code":"AT","country_name":"Austria","latitude":"47.25086000","longitude":"15.59449000","wikiDataId":"Q696090"},{"id":2780,"Name":"Nestelbach bei Graz","state_id":2059,"state_code":"6","state_name":"Styria","country_id":15,"country_code":"AT","country_name":"Austria","latitude":"47.06053000","longitude":"15.61140000","wikiDataId":"Q694001"},{"id":2781,"Name":"Nestelbach im Ilztal","state_id":2059,"state_code":"6","state_name":"Styria","country_id":15,"country_code":"AT","country_name":"Austria","latitude":"47.08333000","longitude":"15.86667000","wikiDataId":"Q671081"},{"id":2786,"Name":"Neuberg an der Mürz","state_id":2059,"state_code":"6","state_name":"Styria","country_id":15,"country_code":"AT","country_name":"Austria","latitude":"47.66423000","longitude":"15.57226000","wikiDataId":"Q695342"},{"id":2788,"Name":"Neudau","state_id":2059,"state_code":"6","state_name":"Styria","country_id":15,"country_code":"AT","country_name":"Austria","latitude":"47.17554000","longitude":"16.10184000","wikiDataId":"Q673727"},{"id":2808,"Name":"Neumarkt in Steiermark","state_id":2059,"state_code":"6","state_name":"Styria","country_id":15,"country_code":"AT","country_name":"Austria","latitude":"47.07398000","longitude":"14.42728000","wikiDataId":"Q688865"},{"id":2817,"Name":"Neutillmitsch","state_id":2059,"state_code":"6","state_name":"Styria","country_id":15,"country_code":"AT","country_name":"Austria","latitude":"46.81667000","longitude":"15.53333000","wikiDataId":"Q252101"},{"id":2833,"Name":"Niederöblarn","state_id":2059,"state_code":"6","state_name":"Styria","country_id":15,"country_code":"AT","country_name":"Austria","latitude":"47.47667000","longitude":"14.01937000","wikiDataId":"Q696324"},{"id":2829,"Name":"Niederschöckl","state_id":2059,"state_code":"6","state_name":"Styria","country_id":15,"country_code":"AT","country_name":"Austria","latitude":"47.15000000","longitude":"15.50000000","wikiDataId":"Q701200"},{"id":2832,"Name":"Niederwölz","state_id":2059,"state_code":"6","state_name":"Styria","country_id":15,"country_code":"AT","country_name":"Austria","latitude":"47.15126000","longitude":"14.37479000","wikiDataId":"Q696324"},{"id":2835,"Name":"Niklasdorf","state_id":2059,"state_code":"6","state_name":"Styria","country_id":15,"country_code":"AT","country_name":"Austria","latitude":"47.38333000","longitude":"15.15000000","wikiDataId":"Q699825"},{"id":2837,"Name":"Nitscha","state_id":2059,"state_code":"6","state_name":"Styria","country_id":15,"country_code":"AT","country_name":"Austria","latitude":"47.11667000","longitude":"15.75000000","wikiDataId":"Q598154"},{"id":2842,"Name":"Obdach","state_id":2059,"state_code":"6","state_name":"Styria","country_id":15,"country_code":"AT","country_name":"Austria","latitude":"47.06667000","longitude":"14.68333000","wikiDataId":"Q700907"},{"id":2844,"Name":"Oberaich","state_id":2059,"state_code":"6","state_name":"Styria","country_id":15,"country_code":"AT","country_name":"Austria","latitude":"47.40000000","longitude":"15.21667000","wikiDataId":"Q696285"},{"id":2847,"Name":"Oberdorf am Hochegg","state_id":2059,"state_code":"6","state_name":"Styria","country_id":15,"country_code":"AT","country_name":"Austria","latitude":"46.97861000","longitude":"15.72167000","wikiDataId":"Q694253"},{"id":2851,"Name":"Oberhaag","state_id":2059,"state_code":"6","state_name":"Styria","country_id":15,"country_code":"AT","country_name":"Austria","latitude":"46.68690000","longitude":"15.33202000","wikiDataId":"Q695633"},{"id":2857,"Name":"Oberkurzheim","state_id":2059,"state_code":"6","state_name":"Styria","country_id":15,"country_code":"AT","country_name":"Austria","latitude":"47.23333000","longitude":"14.58333000","wikiDataId":"Q696342"},{"id":2870,"Name":"Oberpremstätten","state_id":2059,"state_code":"6","state_name":"Styria","country_id":15,"country_code":"AT","country_name":"Austria","latitude":"46.97444000","longitude":"15.40444000","wikiDataId":"Q616805"},{"id":2872,"Name":"Oberrettenbach","state_id":2059,"state_code":"6","state_name":"Styria","country_id":15,"country_code":"AT","country_name":"Austria","latitude":"47.15000000","longitude":"15.80000000","wikiDataId":"Q252982"},{"id":2876,"Name":"Oberstorcha","state_id":2059,"state_code":"6","state_name":"Styria","country_id":15,"country_code":"AT","country_name":"Austria","latitude":"46.96667000","longitude":"15.80000000","wikiDataId":"Q686384"},{"id":2880,"Name":"Obervogau","state_id":2059,"state_code":"6","state_name":"Styria","country_id":15,"country_code":"AT","country_name":"Austria","latitude":"46.74500000","longitude":"15.58472000","wikiDataId":"Q876239"},{"id":2885,"Name":"Oberweg","state_id":2059,"state_code":"6","state_name":"Styria","country_id":15,"country_code":"AT","country_name":"Austria","latitude":"47.15000000","longitude":"14.63333000","wikiDataId":"Q696108"},{"id":2887,"Name":"Oberwölz Stadt","state_id":2059,"state_code":"6","state_name":"Styria","country_id":15,"country_code":"AT","country_name":"Austria","latitude":"47.20117000","longitude":"14.28321000","wikiDataId":"Q685862"},{"id":2888,"Name":"Oberzeiring","state_id":2059,"state_code":"6","state_name":"Styria","country_id":15,"country_code":"AT","country_name":"Austria","latitude":"47.25000000","longitude":"14.48333000","wikiDataId":"Q684378"},{"id":3897,"Name":"Öblarn","state_id":2059,"state_code":"6","state_name":"Styria","country_id":15,"country_code":"AT","country_name":"Austria","latitude":"47.45938000","longitude":"13.99023000","wikiDataId":"Q293898"},{"id":2900,"Name":"Oppenberg","state_id":2059,"state_code":"6","state_name":"Styria","country_id":15,"country_code":"AT","country_name":"Austria","latitude":"47.48333000","longitude":"14.26667000","wikiDataId":"Q695453"},{"id":2903,"Name":"Ortgraben","state_id":2059,"state_code":"6","state_name":"Styria","country_id":15,"country_code":"AT","country_name":"Austria","latitude":"47.45000000","longitude":"16.05000000","wikiDataId":"Q673894"},{"id":2908,"Name":"Osterwitz","state_id":2059,"state_code":"6","state_name":"Styria","country_id":15,"country_code":"AT","country_name":"Austria","latitude":"46.85943000","longitude":"15.08998000","wikiDataId":"Q696248"},{"id":2917,"Name":"Pack","state_id":2059,"state_code":"6","state_name":"Styria","country_id":15,"country_code":"AT","country_name":"Austria","latitude":"46.97917000","longitude":"14.98417000","wikiDataId":"Q610415"},{"id":2918,"Name":"Paldau","state_id":2059,"state_code":"6","state_name":"Styria","country_id":15,"country_code":"AT","country_name":"Austria","latitude":"46.94222000","longitude":"15.79583000","wikiDataId":"Q652753"},{"id":2919,"Name":"Palfau","state_id":2059,"state_code":"6","state_name":"Styria","country_id":15,"country_code":"AT","country_name":"Austria","latitude":"47.70000000","longitude":"14.80000000","wikiDataId":"Q686214"},{"id":2925,"Name":"Parschlug","state_id":2059,"state_code":"6","state_name":"Styria","country_id":15,"country_code":"AT","country_name":"Austria","latitude":"47.48090000","longitude":"15.28645000","wikiDataId":"Q660886"},{"id":2927,"Name":"Passail","state_id":2059,"state_code":"6","state_name":"Styria","country_id":15,"country_code":"AT","country_name":"Austria","latitude":"47.28333000","longitude":"15.51667000","wikiDataId":"Q573803"},{"id":2933,"Name":"Peggau","state_id":2059,"state_code":"6","state_name":"Styria","country_id":15,"country_code":"AT","country_name":"Austria","latitude":"47.20000000","longitude":"15.35000000","wikiDataId":"Q368619"},{"id":2936,"Name":"Perchau am Sattel","state_id":2059,"state_code":"6","state_name":"Styria","country_id":15,"country_code":"AT","country_name":"Austria","latitude":"47.10000000","longitude":"14.45000000","wikiDataId":"Q696315"},{"id":2939,"Name":"Perlsdorf","state_id":2059,"state_code":"6","state_name":"Styria","country_id":15,"country_code":"AT","country_name":"Austria","latitude":"46.91361000","longitude":"15.81417000","wikiDataId":"Q696367"},{"id":2941,"Name":"Pernegg an der Mur","state_id":2059,"state_code":"6","state_name":"Styria","country_id":15,"country_code":"AT","country_name":"Austria","latitude":"47.35979000","longitude":"15.34236000","wikiDataId":"Q175483"},{"id":2945,"Name":"Pertlstein","state_id":2059,"state_code":"6","state_name":"Styria","country_id":15,"country_code":"AT","country_name":"Austria","latitude":"46.94056000","longitude":"15.96167000","wikiDataId":"Q385680"},{"id":2962,"Name":"Piberegg","state_id":2059,"state_code":"6","state_name":"Styria","country_id":15,"country_code":"AT","country_name":"Austria","latitude":"47.09424000","longitude":"15.11658000","wikiDataId":"Q693947"},{"id":2965,"Name":"Pichling bei Köflach","state_id":2059,"state_code":"6","state_name":"Styria","country_id":15,"country_code":"AT","country_name":"Austria","latitude":"47.04785000","longitude":"15.07098000","wikiDataId":"Q677221"},{"id":2971,"Name":"Pinggau","state_id":2059,"state_code":"6","state_name":"Styria","country_id":15,"country_code":"AT","country_name":"Austria","latitude":"47.44232000","longitude":"16.06713000","wikiDataId":"Q673002"},{"id":2974,"Name":"Pirching am Traubenberg","state_id":2059,"state_code":"6","state_name":"Styria","country_id":15,"country_code":"AT","country_name":"Austria","latitude":"46.95000000","longitude":"15.60000000","wikiDataId":"Q693405"},{"id":2976,"Name":"Pirka","state_id":2059,"state_code":"6","state_name":"Styria","country_id":15,"country_code":"AT","country_name":"Austria","latitude":"47.00000000","longitude":"15.38333000","wikiDataId":"Q689616"},{"id":2977,"Name":"Pischelsdorf in der Steiermark","state_id":2059,"state_code":"6","state_name":"Styria","country_id":15,"country_code":"AT","country_name":"Austria","latitude":"47.17417000","longitude":"15.80572000","wikiDataId":"Q689616"},{"id":2978,"Name":"Pistorf","state_id":2059,"state_code":"6","state_name":"Styria","country_id":15,"country_code":"AT","country_name":"Austria","latitude":"46.76667000","longitude":"15.36667000","wikiDataId":"Q689616"},{"id":2979,"Name":"Pitschgau","state_id":2059,"state_code":"6","state_name":"Styria","country_id":15,"country_code":"AT","country_name":"Austria","latitude":"46.70000000","longitude":"15.26667000","wikiDataId":"Q687795"},{"id":2993,"Name":"Politischer Bezirk Bruck-Mürzzuschlag","state_id":2059,"state_code":"6","state_name":"Styria","country_id":15,"country_code":"AT","country_name":"Austria","latitude":"47.41880000","longitude":"15.27512000","wikiDataId":"Q584543"},{"id":2994,"Name":"Politischer Bezirk Deutschlandsberg","state_id":2059,"state_code":"6","state_name":"Styria","country_id":15,"country_code":"AT","country_name":"Austria","latitude":"46.75000000","longitude":"15.20000000","wikiDataId":"Q660219"},{"id":3002,"Name":"Politischer Bezirk Graz-Umgebung","state_id":2059,"state_code":"6","state_name":"Styria","country_id":15,"country_code":"AT","country_name":"Austria","latitude":"47.13860000","longitude":"15.38823000","wikiDataId":"Q672475"},{"id":3007,"Name":"Politischer Bezirk Hartberg-Fürstenfeld","state_id":2059,"state_code":"6","state_name":"Styria","country_id":15,"country_code":"AT","country_name":"Austria","latitude":"47.27923000","longitude":"15.98373000","wikiDataId":"Q254533"},{"id":3021,"Name":"Politischer Bezirk Leibnitz","state_id":2059,"state_code":"6","state_name":"Styria","country_id":15,"country_code":"AT","country_name":"Austria","latitude":"46.79565000","longitude":"15.51849000","wikiDataId":"Q660400"},{"id":3022,"Name":"Politischer Bezirk Leoben","state_id":2059,"state_code":"6","state_name":"Styria","country_id":15,"country_code":"AT","country_name":"Austria","latitude":"47.41667000","longitude":"14.91667000","wikiDataId":"Q665720"},{"id":3024,"Name":"Politischer Bezirk Liezen","state_id":2059,"state_code":"6","state_name":"Styria","country_id":15,"country_code":"AT","country_name":"Austria","latitude":"47.53521000","longitude":"14.34314000","wikiDataId":"Q255834"},{"id":3030,"Name":"Politischer Bezirk Murau","state_id":2059,"state_code":"6","state_name":"Styria","country_id":15,"country_code":"AT","country_name":"Austria","latitude":"47.13333000","longitude":"14.20000000","wikiDataId":"Q388913"},{"id":3031,"Name":"Politischer Bezirk Murtal","state_id":2059,"state_code":"6","state_name":"Styria","country_id":15,"country_code":"AT","country_name":"Austria","latitude":"47.16964000","longitude":"14.66469000","wikiDataId":"Q526517"},{"id":3050,"Name":"Politischer Bezirk Südoststeiermark","state_id":2059,"state_code":"6","state_name":"Styria","country_id":15,"country_code":"AT","country_name":"Austria","latitude":"46.94089000","longitude":"15.88623000","wikiDataId":"Q854043"},{"id":3055,"Name":"Politischer Bezirk Voitsberg","state_id":2059,"state_code":"6","state_name":"Styria","country_id":15,"country_code":"AT","country_name":"Austria","latitude":"47.05000000","longitude":"15.10000000","wikiDataId":"Q672537"},{"id":3059,"Name":"Politischer Bezirk Weiz","state_id":2059,"state_code":"6","state_name":"Styria","country_id":15,"country_code":"AT","country_name":"Austria","latitude":"47.30000000","longitude":"15.65000000","wikiDataId":"Q665571"},{"id":3105,"Name":"Pöllau","state_id":2059,"state_code":"6","state_name":"Styria","country_id":15,"country_code":"AT","country_name":"Austria","latitude":"47.30000000","longitude":"15.83333000","wikiDataId":"Q255350"},{"id":3106,"Name":"Pöllauberg","state_id":2059,"state_code":"6","state_name":"Styria","country_id":15,"country_code":"AT","country_name":"Austria","latitude":"47.31667000","longitude":"15.85000000","wikiDataId":"Q664645"},{"id":3107,"Name":"Pöls","state_id":2059,"state_code":"6","state_name":"Styria","country_id":15,"country_code":"AT","country_name":"Austria","latitude":"47.21667000","longitude":"14.58333000","wikiDataId":"Q691165"},{"id":3065,"Name":"Poppendorf","state_id":2059,"state_code":"6","state_name":"Styria","country_id":15,"country_code":"AT","country_name":"Austria","latitude":"46.85611000","longitude":"15.85639000","wikiDataId":"Q694452"},{"id":3076,"Name":"Preding","state_id":2059,"state_code":"6","state_name":"Styria","country_id":15,"country_code":"AT","country_name":"Austria","latitude":"46.85861000","longitude":"15.40972000","wikiDataId":"Q522886"},{"id":3084,"Name":"Proleb","state_id":2059,"state_code":"6","state_name":"Styria","country_id":15,"country_code":"AT","country_name":"Austria","latitude":"47.40000000","longitude":"15.13333000","wikiDataId":"Q632374"},{"id":3086,"Name":"Pruggern","state_id":2059,"state_code":"6","state_name":"Styria","country_id":15,"country_code":"AT","country_name":"Austria","latitude":"47.42370000","longitude":"13.87625000","wikiDataId":"Q678115"},{"id":3089,"Name":"Puch bei Weiz","state_id":2059,"state_code":"6","state_name":"Styria","country_id":15,"country_code":"AT","country_name":"Austria","latitude":"47.21667000","longitude":"15.71667000","wikiDataId":"Q688362"},{"id":3097,"Name":"Puntigam","state_id":2059,"state_code":"6","state_name":"Styria","country_id":15,"country_code":"AT","country_name":"Austria","latitude":"47.03333000","longitude":"15.43333000","wikiDataId":"Q1496843"},{"id":3101,"Name":"Pusterwald","state_id":2059,"state_code":"6","state_name":"Styria","country_id":15,"country_code":"AT","country_name":"Austria","latitude":"47.30611000","longitude":"14.37556000","wikiDataId":"Q688158"},{"id":3114,"Name":"Raaba","state_id":2059,"state_code":"6","state_name":"Styria","country_id":15,"country_code":"AT","country_name":"Austria","latitude":"47.03333000","longitude":"15.50000000","wikiDataId":"Q695414"},{"id":3115,"Name":"Raabau","state_id":2059,"state_code":"6","state_name":"Styria","country_id":15,"country_code":"AT","country_name":"Austria","latitude":"46.96278000","longitude":"15.91167000","wikiDataId":"Q693166"},{"id":3121,"Name":"Rabenwald","state_id":2059,"state_code":"6","state_name":"Styria","country_id":15,"country_code":"AT","country_name":"Austria","latitude":"47.40000000","longitude":"15.90000000","wikiDataId":"Q670389"},{"id":3122,"Name":"Rachau","state_id":2059,"state_code":"6","state_name":"Styria","country_id":15,"country_code":"AT","country_name":"Austria","latitude":"47.21667000","longitude":"14.90000000","wikiDataId":"Q670389"},{"id":3128,"Name":"Ragnitz","state_id":2059,"state_code":"6","state_name":"Styria","country_id":15,"country_code":"AT","country_name":"Austria","latitude":"46.83667000","longitude":"15.59278000","wikiDataId":"Q689430"},{"id":3134,"Name":"Ramsau am Dachstein","state_id":2059,"state_code":"6","state_name":"Styria","country_id":15,"country_code":"AT","country_name":"Austria","latitude":"47.42150000","longitude":"13.65545000","wikiDataId":"Q263023"},{"id":3139,"Name":"Raning","state_id":2059,"state_code":"6","state_name":"Styria","country_id":15,"country_code":"AT","country_name":"Austria","latitude":"46.85000000","longitude":"15.81667000","wikiDataId":"Q693329"},{"id":3143,"Name":"Ranten","state_id":2059,"state_code":"6","state_name":"Styria","country_id":15,"country_code":"AT","country_name":"Austria","latitude":"47.15949000","longitude":"14.08349000","wikiDataId":"Q686106"},{"id":3145,"Name":"Rassach","state_id":2059,"state_code":"6","state_name":"Styria","country_id":15,"country_code":"AT","country_name":"Austria","latitude":"46.86028000","longitude":"15.27000000","wikiDataId":"Q689346"},{"id":3147,"Name":"Ratsch an der Weinstraße","state_id":2059,"state_code":"6","state_name":"Styria","country_id":15,"country_code":"AT","country_name":"Austria","latitude":"46.68944000","longitude":"15.57111000","wikiDataId":"Q689346"},{"id":3148,"Name":"Ratschendorf","state_id":2059,"state_code":"6","state_name":"Styria","country_id":15,"country_code":"AT","country_name":"Austria","latitude":"46.74222000","longitude":"15.81583000","wikiDataId":"Q691232"},{"id":3149,"Name":"Ratten","state_id":2059,"state_code":"6","state_name":"Styria","country_id":15,"country_code":"AT","country_name":"Austria","latitude":"47.48333000","longitude":"15.71667000","wikiDataId":"Q580618"},{"id":3164,"Name":"Reichendorf","state_id":2059,"state_code":"6","state_name":"Styria","country_id":15,"country_code":"AT","country_name":"Austria","latitude":"47.18922000","longitude":"15.76160000","wikiDataId":"Q681068"},{"id":3168,"Name":"Reifling","state_id":2059,"state_code":"6","state_name":"Styria","country_id":15,"country_code":"AT","country_name":"Austria","latitude":"47.13333000","longitude":"14.66667000","wikiDataId":"Q687764"},{"id":3179,"Name":"Rettenegg","state_id":2059,"state_code":"6","state_name":"Styria","country_id":15,"country_code":"AT","country_name":"Austria","latitude":"47.52694000","longitude":"15.78104000","wikiDataId":"Q120046"},{"id":3182,"Name":"Retznei","state_id":2059,"state_code":"6","state_name":"Styria","country_id":15,"country_code":"AT","country_name":"Austria","latitude":"46.73333000","longitude":"15.56667000","wikiDataId":"Q689467"},{"id":3192,"Name":"Riegersburg","state_id":2059,"state_code":"6","state_name":"Styria","country_id":15,"country_code":"AT","country_name":"Austria","latitude":"47.00000000","longitude":"15.93028000","wikiDataId":"Q528236"},{"id":3193,"Name":"Ries","state_id":2059,"state_code":"6","state_name":"Styria","country_id":15,"country_code":"AT","country_name":"Austria","latitude":"47.08315000","longitude":"15.48500000","wikiDataId":"Q1670387"},{"id":3203,"Name":"Rohrbach an der Lafnitz","state_id":2059,"state_code":"6","state_name":"Styria","country_id":15,"country_code":"AT","country_name":"Austria","latitude":"47.38333000","longitude":"16.00000000","wikiDataId":"Q522269"},{"id":3212,"Name":"Rosental an der Kainach","state_id":2059,"state_code":"6","state_name":"Styria","country_id":15,"country_code":"AT","country_name":"Austria","latitude":"47.05192000","longitude":"15.12200000","wikiDataId":"Q664587"},{"id":3226,"Name":"Röthelstein","state_id":2059,"state_code":"6","state_name":"Styria","country_id":15,"country_code":"AT","country_name":"Austria","latitude":"47.31667000","longitude":"15.36667000","wikiDataId":"Q689607"},{"id":3214,"Name":"Rottenmann","state_id":2059,"state_code":"6","state_name":"Styria","country_id":15,"country_code":"AT","country_name":"Austria","latitude":"47.51667000","longitude":"14.35000000","wikiDataId":"Q675678"},{"id":3232,"Name":"Salla","state_id":2059,"state_code":"6","state_name":"Styria","country_id":15,"country_code":"AT","country_name":"Austria","latitude":"47.10000000","longitude":"14.96667000","wikiDataId":"Q664890"},{"id":3243,"Name":"Sankt Anna am Aigen","state_id":2059,"state_code":"6","state_name":"Styria","country_id":15,"country_code":"AT","country_name":"Austria","latitude":"46.83111000","longitude":"15.97139000","wikiDataId":"Q876296"},{"id":3245,"Name":"Sankt Bartholomä","state_id":2059,"state_code":"6","state_name":"Styria","country_id":15,"country_code":"AT","country_name":"Austria","latitude":"47.05457000","longitude":"15.25889000","wikiDataId":"Q693560"},{"id":3246,"Name":"Sankt Blasen","state_id":2059,"state_code":"6","state_name":"Styria","country_id":15,"country_code":"AT","country_name":"Austria","latitude":"47.08333000","longitude":"14.30000000","wikiDataId":"Q687817"},{"id":3250,"Name":"Sankt Gallen","state_id":2059,"state_code":"6","state_name":"Styria","country_id":15,"country_code":"AT","country_name":"Austria","latitude":"47.68631000","longitude":"14.61705000","wikiDataId":"Q687817"},{"id":3257,"Name":"Sankt Georgen an der Stiefing","state_id":2059,"state_code":"6","state_name":"Styria","country_id":15,"country_code":"AT","country_name":"Austria","latitude":"46.87333000","longitude":"15.57972000","wikiDataId":"Q636880"},{"id":3260,"Name":"Sankt Georgen ob Judenburg","state_id":2059,"state_code":"6","state_name":"Styria","country_id":15,"country_code":"AT","country_name":"Austria","latitude":"47.20744000","longitude":"14.49736000","wikiDataId":"Q696240"},{"id":3261,"Name":"Sankt Georgen ob Murau","state_id":2059,"state_code":"6","state_name":"Styria","country_id":15,"country_code":"AT","country_name":"Austria","latitude":"47.10000000","longitude":"14.10000000","wikiDataId":"Q696240"},{"id":3264,"Name":"Sankt Ilgen","state_id":2059,"state_code":"6","state_name":"Styria","country_id":15,"country_code":"AT","country_name":"Austria","latitude":"47.55000000","longitude":"15.16667000","wikiDataId":"Q264430"},{"id":3265,"Name":"Sankt Jakob im Walde","state_id":2059,"state_code":"6","state_name":"Styria","country_id":15,"country_code":"AT","country_name":"Austria","latitude":"47.46667000","longitude":"15.78333000","wikiDataId":"Q701425"},{"id":3266,"Name":"Sankt Jakob-Breitenau","state_id":2059,"state_code":"6","state_name":"Styria","country_id":15,"country_code":"AT","country_name":"Austria","latitude":"47.39229000","longitude":"15.42970000","wikiDataId":"Q701425"},{"id":3267,"Name":"Sankt Johann am Tauern","state_id":2059,"state_code":"6","state_name":"Styria","country_id":15,"country_code":"AT","country_name":"Austria","latitude":"47.35000000","longitude":"14.46667000","wikiDataId":"Q689336"},{"id":3268,"Name":"Sankt Johann bei Herberstein","state_id":2059,"state_code":"6","state_name":"Styria","country_id":15,"country_code":"AT","country_name":"Austria","latitude":"47.20000000","longitude":"15.80000000","wikiDataId":"Q123662"},{"id":3270,"Name":"Sankt Johann im Saggautal","state_id":2059,"state_code":"6","state_name":"Styria","country_id":15,"country_code":"AT","country_name":"Austria","latitude":"46.70389000","longitude":"15.40278000","wikiDataId":"Q251022"},{"id":3272,"Name":"Sankt Johann in der Haide","state_id":2059,"state_code":"6","state_name":"Styria","country_id":15,"country_code":"AT","country_name":"Austria","latitude":"47.28080000","longitude":"16.02579000","wikiDataId":"Q377074"},{"id":3273,"Name":"Sankt Josef (Weststeiermark)","state_id":2059,"state_code":"6","state_name":"Styria","country_id":15,"country_code":"AT","country_name":"Austria","latitude":"46.90917000","longitude":"15.33639000","wikiDataId":"Q377074"},{"id":3274,"Name":"Sankt Katharein an der Laming","state_id":2059,"state_code":"6","state_name":"Styria","country_id":15,"country_code":"AT","country_name":"Austria","latitude":"47.47069000","longitude":"15.16319000","wikiDataId":"Q688145"},{"id":3275,"Name":"Sankt Kathrein am Hauenstein","state_id":2059,"state_code":"6","state_name":"Styria","country_id":15,"country_code":"AT","country_name":"Austria","latitude":"47.48943000","longitude":"15.69414000","wikiDataId":"Q688145"},{"id":3276,"Name":"Sankt Kathrein am Offenegg","state_id":2059,"state_code":"6","state_name":"Styria","country_id":15,"country_code":"AT","country_name":"Austria","latitude":"47.30000000","longitude":"15.58333000","wikiDataId":"Q641624"},{"id":3277,"Name":"Sankt Lambrecht","state_id":2059,"state_code":"6","state_name":"Styria","country_id":15,"country_code":"AT","country_name":"Austria","latitude":"47.06667000","longitude":"14.30000000","wikiDataId":"Q684426"},{"id":3280,"Name":"Sankt Leonhard","state_id":2059,"state_code":"6","state_name":"Styria","country_id":15,"country_code":"AT","country_name":"Austria","latitude":"47.06924000","longitude":"15.45784000","wikiDataId":"Q684426"},{"id":3284,"Name":"Sankt Lorenzen am Wechsel","state_id":2059,"state_code":"6","state_name":"Styria","country_id":15,"country_code":"AT","country_name":"Austria","latitude":"47.44153000","longitude":"15.95498000","wikiDataId":"Q701401"},{"id":3285,"Name":"Sankt Lorenzen bei Knittelfeld","state_id":2059,"state_code":"6","state_name":"Styria","country_id":15,"country_code":"AT","country_name":"Austria","latitude":"47.25078000","longitude":"14.89549000","wikiDataId":"Q513931"},{"id":3286,"Name":"Sankt Lorenzen bei Scheifling","state_id":2059,"state_code":"6","state_name":"Styria","country_id":15,"country_code":"AT","country_name":"Austria","latitude":"47.14556000","longitude":"14.40583000","wikiDataId":"Q176565"},{"id":3287,"Name":"Sankt Lorenzen im Mürztal","state_id":2059,"state_code":"6","state_name":"Styria","country_id":15,"country_code":"AT","country_name":"Austria","latitude":"47.48333000","longitude":"15.36667000","wikiDataId":"Q176565"},{"id":3289,"Name":"Sankt Marein bei Graz","state_id":2059,"state_code":"6","state_name":"Styria","country_id":15,"country_code":"AT","country_name":"Austria","latitude":"47.01583000","longitude":"15.68389000","wikiDataId":"Q672265"},{"id":3290,"Name":"Sankt Marein bei Knittelfeld","state_id":2059,"state_code":"6","state_name":"Styria","country_id":15,"country_code":"AT","country_name":"Austria","latitude":"47.27396000","longitude":"14.86085000","wikiDataId":"Q672265"},{"id":3291,"Name":"Sankt Marein bei Neumarkt","state_id":2059,"state_code":"6","state_name":"Styria","country_id":15,"country_code":"AT","country_name":"Austria","latitude":"47.06591000","longitude":"14.42908000","wikiDataId":"Q688267"},{"id":3292,"Name":"Sankt Marein im Mürztal","state_id":2059,"state_code":"6","state_name":"Styria","country_id":15,"country_code":"AT","country_name":"Austria","latitude":"47.46667000","longitude":"15.36667000","wikiDataId":"Q688267"},{"id":3294,"Name":"Sankt Margarethen an der Raab","state_id":2059,"state_code":"6","state_name":"Styria","country_id":15,"country_code":"AT","country_name":"Austria","latitude":"47.05000000","longitude":"15.75000000","wikiDataId":"Q875824"},{"id":3296,"Name":"Sankt Margarethen bei Knittelfeld","state_id":2059,"state_code":"6","state_name":"Styria","country_id":15,"country_code":"AT","country_name":"Austria","latitude":"47.21667000","longitude":"14.86667000","wikiDataId":"Q688256"},{"id":3300,"Name":"Sankt Martin","state_id":2059,"state_code":"6","state_name":"Styria","country_id":15,"country_code":"AT","country_name":"Austria","latitude":"47.44667000","longitude":"15.28490000","wikiDataId":"Q661531"},{"id":3303,"Name":"Sankt Martin am Grimming","state_id":2059,"state_code":"6","state_name":"Styria","country_id":15,"country_code":"AT","country_name":"Austria","latitude":"47.48873000","longitude":"13.98105000","wikiDataId":"Q701378"},{"id":3308,"Name":"Sankt Martin im Sulmtal","state_id":2059,"state_code":"6","state_name":"Styria","country_id":15,"country_code":"AT","country_name":"Austria","latitude":"46.75611000","longitude":"15.29722000","wikiDataId":"Q691181"},{"id":3311,"Name":"Sankt Michael in Obersteiermark","state_id":2059,"state_code":"6","state_name":"Styria","country_id":15,"country_code":"AT","country_name":"Austria","latitude":"47.33839000","longitude":"15.01784000","wikiDataId":"Q696235"},{"id":3312,"Name":"Sankt Nikolai im Sausal","state_id":2059,"state_code":"6","state_name":"Styria","country_id":15,"country_code":"AT","country_name":"Austria","latitude":"46.82111000","longitude":"15.45194000","wikiDataId":"Q689472"},{"id":3313,"Name":"Sankt Nikolai im Sölktal","state_id":2059,"state_code":"6","state_name":"Styria","country_id":15,"country_code":"AT","country_name":"Austria","latitude":"47.31667000","longitude":"14.05000000","wikiDataId":"Q689472"},{"id":3314,"Name":"Sankt Nikolai ob Draßling","state_id":2059,"state_code":"6","state_name":"Styria","country_id":15,"country_code":"AT","country_name":"Austria","latitude":"46.80889000","longitude":"15.65083000","wikiDataId":"Q689472"},{"id":3316,"Name":"Sankt Oswald bei Plankenwarth","state_id":2059,"state_code":"6","state_name":"Styria","country_id":15,"country_code":"AT","country_name":"Austria","latitude":"47.08701000","longitude":"15.27703000","wikiDataId":"Q255939"},{"id":3317,"Name":"Sankt Oswald ob Eibiswald","state_id":2059,"state_code":"6","state_name":"Styria","country_id":15,"country_code":"AT","country_name":"Austria","latitude":"46.70833000","longitude":"15.14667000","wikiDataId":"Q675642"},{"id":3321,"Name":"Sankt Peter","state_id":2059,"state_code":"6","state_name":"Styria","country_id":15,"country_code":"AT","country_name":"Austria","latitude":"47.05000000","longitude":"15.46667000","wikiDataId":""},{"id":3323,"Name":"Sankt Peter am Kammersberg","state_id":2059,"state_code":"6","state_name":"Styria","country_id":15,"country_code":"AT","country_name":"Austria","latitude":"47.18706000","longitude":"14.18464000","wikiDataId":"Q337966"},{"id":3324,"Name":"Sankt Peter am Ottersbach","state_id":2059,"state_code":"6","state_name":"Styria","country_id":15,"country_code":"AT","country_name":"Austria","latitude":"46.79778000","longitude":"15.75917000","wikiDataId":"Q639181"},{"id":3325,"Name":"Sankt Peter im Sulmtal","state_id":2059,"state_code":"6","state_name":"Styria","country_id":15,"country_code":"AT","country_name":"Austria","latitude":"46.75000000","longitude":"15.25000000","wikiDataId":"Q688111"},{"id":3327,"Name":"Sankt Peter ob Judenburg","state_id":2059,"state_code":"6","state_name":"Styria","country_id":15,"country_code":"AT","country_name":"Austria","latitude":"47.18417000","longitude":"14.58639000","wikiDataId":"Q689681"},{"id":3328,"Name":"Sankt Peter-Freienstein","state_id":2059,"state_code":"6","state_name":"Styria","country_id":15,"country_code":"AT","country_name":"Austria","latitude":"47.38333000","longitude":"15.01667000","wikiDataId":"Q690036"},{"id":3331,"Name":"Sankt Radegund bei Graz","state_id":2059,"state_code":"6","state_name":"Styria","country_id":15,"country_code":"AT","country_name":"Austria","latitude":"47.18172000","longitude":"15.49192000","wikiDataId":"Q200916"},{"id":3333,"Name":"Sankt Ruprecht an der Raab","state_id":2059,"state_code":"6","state_name":"Styria","country_id":15,"country_code":"AT","country_name":"Austria","latitude":"47.15336000","longitude":"15.66256000","wikiDataId":"Q167602"},{"id":3335,"Name":"Sankt Stefan im Rosental","state_id":2059,"state_code":"6","state_name":"Styria","country_id":15,"country_code":"AT","country_name":"Austria","latitude":"46.90389000","longitude":"15.71000000","wikiDataId":"Q682864"},{"id":3336,"Name":"Sankt Stefan ob Leoben","state_id":2059,"state_code":"6","state_name":"Styria","country_id":15,"country_code":"AT","country_name":"Austria","latitude":"47.31672000","longitude":"14.97831000","wikiDataId":"Q689734"},{"id":3337,"Name":"Sankt Stefan ob Stainz","state_id":2059,"state_code":"6","state_name":"Styria","country_id":15,"country_code":"AT","country_name":"Austria","latitude":"46.92861000","longitude":"15.25889000","wikiDataId":"Q689361"},{"id":3339,"Name":"Sankt Ulrich am Waasen","state_id":2059,"state_code":"6","state_name":"Styria","country_id":15,"country_code":"AT","country_name":"Austria","latitude":"46.93333000","longitude":"15.53333000","wikiDataId":"Q700650"},{"id":3342,"Name":"Sankt Veit am Vogau","state_id":2059,"state_code":"6","state_name":"Styria","country_id":15,"country_code":"AT","country_name":"Austria","latitude":"46.74048000","longitude":"15.64217000","wikiDataId":"Q661451"},{"id":3352,"Name":"Schachen bei Vorau","state_id":2059,"state_code":"6","state_name":"Styria","country_id":15,"country_code":"AT","country_name":"Austria","latitude":"47.38010000","longitude":"15.85816000","wikiDataId":"Q664111"},{"id":3412,"Name":"Schäffern","state_id":2059,"state_code":"6","state_name":"Styria","country_id":15,"country_code":"AT","country_name":"Austria","latitude":"47.47771000","longitude":"16.10956000","wikiDataId":"Q390084"},{"id":3367,"Name":"Scheifling","state_id":2059,"state_code":"6","state_name":"Styria","country_id":15,"country_code":"AT","country_name":"Austria","latitude":"47.15044000","longitude":"14.41278000","wikiDataId":"Q688326"},{"id":3371,"Name":"Schladming","state_id":2059,"state_code":"6","state_name":"Styria","country_id":15,"country_code":"AT","country_name":"Austria","latitude":"47.39289000","longitude":"13.68699000","wikiDataId":"Q254221"},{"id":3415,"Name":"Schöder","state_id":2059,"state_code":"6","state_name":"Styria","country_id":15,"country_code":"AT","country_name":"Austria","latitude":"47.18333000","longitude":"14.10000000","wikiDataId":"Q690064"},{"id":3389,"Name":"Schrems bei Frohnleiten","state_id":2059,"state_code":"6","state_name":"Styria","country_id":15,"country_code":"AT","country_name":"Austria","latitude":"47.28109000","longitude":"15.35932000","wikiDataId":"Q687516"},{"id":3393,"Name":"Schwanberg","state_id":2059,"state_code":"6","state_name":"Styria","country_id":15,"country_code":"AT","country_name":"Austria","latitude":"46.75833000","longitude":"15.20833000","wikiDataId":"Q673507"},{"id":3399,"Name":"Schwarzau im Schwarzautal","state_id":2059,"state_code":"6","state_name":"Styria","country_id":15,"country_code":"AT","country_name":"Austria","latitude":"46.87886000","longitude":"15.66421000","wikiDataId":"Q693422"},{"id":3425,"Name":"Sebersdorf","state_id":2059,"state_code":"6","state_name":"Styria","country_id":15,"country_code":"AT","country_name":"Austria","latitude":"47.18650000","longitude":"15.99360000","wikiDataId":"Q701671"},{"id":3426,"Name":"Seckau","state_id":2059,"state_code":"6","state_name":"Styria","country_id":15,"country_code":"AT","country_name":"Austria","latitude":"47.26667000","longitude":"14.78333000","wikiDataId":"Q701671"},{"id":3436,"Name":"Seggauberg","state_id":2059,"state_code":"6","state_name":"Styria","country_id":15,"country_code":"AT","country_name":"Austria","latitude":"46.76667000","longitude":"15.51667000","wikiDataId":"Q280588"},{"id":3438,"Name":"Seiersberg","state_id":2059,"state_code":"6","state_name":"Styria","country_id":15,"country_code":"AT","country_name":"Austria","latitude":"47.00000000","longitude":"15.40000000","wikiDataId":"Q688974"},{"id":3442,"Name":"Selzthal","state_id":2059,"state_code":"6","state_name":"Styria","country_id":15,"country_code":"AT","country_name":"Austria","latitude":"47.54988000","longitude":"14.31201000","wikiDataId":"Q676033"},{"id":3444,"Name":"Semriach","state_id":2059,"state_code":"6","state_name":"Styria","country_id":15,"country_code":"AT","country_name":"Austria","latitude":"47.21667000","longitude":"15.40000000","wikiDataId":"Q687706"},{"id":3450,"Name":"Siegersdorf bei Herberstein","state_id":2059,"state_code":"6","state_name":"Styria","country_id":15,"country_code":"AT","country_name":"Austria","latitude":"47.20000000","longitude":"15.78333000","wikiDataId":"Q701384"},{"id":3462,"Name":"Sinabelkirchen","state_id":2059,"state_code":"6","state_name":"Styria","country_id":15,"country_code":"AT","country_name":"Austria","latitude":"47.10200000","longitude":"15.82795000","wikiDataId":"Q691331"},{"id":3466,"Name":"Soboth","state_id":2059,"state_code":"6","state_name":"Styria","country_id":15,"country_code":"AT","country_name":"Austria","latitude":"46.68139000","longitude":"15.07833000","wikiDataId":"Q669583"},{"id":3564,"Name":"Söchau","state_id":2059,"state_code":"6","state_name":"Styria","country_id":15,"country_code":"AT","country_name":"Austria","latitude":"47.03333000","longitude":"16.01667000","wikiDataId":"Q674310"},{"id":3565,"Name":"Södingberg","state_id":2059,"state_code":"6","state_name":"Styria","country_id":15,"country_code":"AT","country_name":"Austria","latitude":"47.10703000","longitude":"15.17169000","wikiDataId":"Q674310"},{"id":3473,"Name":"Spatenhof","state_id":2059,"state_code":"6","state_name":"Styria","country_id":15,"country_code":"AT","country_name":"Austria","latitude":"46.96250000","longitude":"15.36111000","wikiDataId":"Q678477"},{"id":3474,"Name":"Spielberg bei Knittelfeld","state_id":2059,"state_code":"6","state_name":"Styria","country_id":15,"country_code":"AT","country_name":"Austria","latitude":"47.21667000","longitude":"14.78333000","wikiDataId":"Q678477"},{"id":3475,"Name":"Spielfeld","state_id":2059,"state_code":"6","state_name":"Styria","country_id":15,"country_code":"AT","country_name":"Austria","latitude":"46.70556000","longitude":"15.63722000","wikiDataId":"Q672498"},{"id":3478,"Name":"Spital am Semmering","state_id":2059,"state_code":"6","state_name":"Styria","country_id":15,"country_code":"AT","country_name":"Austria","latitude":"47.61345000","longitude":"15.75096000","wikiDataId":"Q176887"},{"id":3488,"Name":"Stadl an der Mur","state_id":2059,"state_code":"6","state_name":"Styria","country_id":15,"country_code":"AT","country_name":"Austria","latitude":"47.08333000","longitude":"13.96667000","wikiDataId":"Q507481"},{"id":3493,"Name":"Stainach","state_id":2059,"state_code":"6","state_name":"Styria","country_id":15,"country_code":"AT","country_name":"Austria","latitude":"47.53343000","longitude":"14.10872000","wikiDataId":"Q256307"},{"id":3494,"Name":"Stainz","state_id":2059,"state_code":"6","state_name":"Styria","country_id":15,"country_code":"AT","country_name":"Austria","latitude":"46.89444000","longitude":"15.26722000","wikiDataId":"Q685128"},{"id":3495,"Name":"Stainz bei Straden","state_id":2059,"state_code":"6","state_name":"Styria","country_id":15,"country_code":"AT","country_name":"Austria","latitude":"46.82444000","longitude":"15.89222000","wikiDataId":"Q693266"},{"id":3498,"Name":"Stallhof","state_id":2059,"state_code":"6","state_name":"Styria","country_id":15,"country_code":"AT","country_name":"Austria","latitude":"46.88333000","longitude":"15.28333000","wikiDataId":"Q689460"},{"id":3499,"Name":"Stallhofen","state_id":2059,"state_code":"6","state_name":"Styria","country_id":15,"country_code":"AT","country_name":"Austria","latitude":"47.05000000","longitude":"15.21667000","wikiDataId":"Q690144"},{"id":3500,"Name":"Stambach","state_id":2059,"state_code":"6","state_name":"Styria","country_id":15,"country_code":"AT","country_name":"Austria","latitude":"47.33333000","longitude":"15.93333000","wikiDataId":"Q701389"},{"id":3505,"Name":"Stattegg","state_id":2059,"state_code":"6","state_name":"Styria","country_id":15,"country_code":"AT","country_name":"Austria","latitude":"47.13333000","longitude":"15.41667000","wikiDataId":"Q696230"},{"id":3510,"Name":"Stein","state_id":2059,"state_code":"6","state_name":"Styria","country_id":15,"country_code":"AT","country_name":"Austria","latitude":"46.99778000","longitude":"16.08694000","wikiDataId":"Q646843"},{"id":3522,"Name":"Stenzengreith","state_id":2059,"state_code":"6","state_name":"Styria","country_id":15,"country_code":"AT","country_name":"Austria","latitude":"47.20000000","longitude":"15.51667000","wikiDataId":"Q643744"},{"id":3531,"Name":"Stiwoll","state_id":2059,"state_code":"6","state_name":"Styria","country_id":15,"country_code":"AT","country_name":"Austria","latitude":"47.10000000","longitude":"15.21667000","wikiDataId":"Q689686"},{"id":3537,"Name":"Straden","state_id":2059,"state_code":"6","state_name":"Styria","country_id":15,"country_code":"AT","country_name":"Austria","latitude":"46.80917000","longitude":"15.86806000","wikiDataId":"Q167011"},{"id":3538,"Name":"Strallegg","state_id":2059,"state_code":"6","state_name":"Styria","country_id":15,"country_code":"AT","country_name":"Austria","latitude":"47.41165000","longitude":"15.72534000","wikiDataId":"Q167011"},{"id":3547,"Name":"Straß in Steiermark","state_id":2059,"state_code":"6","state_name":"Styria","country_id":15,"country_code":"AT","country_name":"Austria","latitude":"46.72722000","longitude":"15.62444000","wikiDataId":"Q690920"},{"id":3542,"Name":"Strassengel","state_id":2059,"state_code":"6","state_name":"Styria","country_id":15,"country_code":"AT","country_name":"Austria","latitude":"47.11573000","longitude":"15.33288000","wikiDataId":"Q674452"},{"id":3549,"Name":"Straßgang","state_id":2059,"state_code":"6","state_name":"Styria","country_id":15,"country_code":"AT","country_name":"Austria","latitude":"47.03333000","longitude":"15.40000000","wikiDataId":"Q179891"},{"id":3555,"Name":"Stubenberg","state_id":2059,"state_code":"6","state_name":"Styria","country_id":15,"country_code":"AT","country_name":"Austria","latitude":"47.24460000","longitude":"15.80027000","wikiDataId":"Q876326"},{"id":3556,"Name":"Studenzen","state_id":2059,"state_code":"6","state_name":"Styria","country_id":15,"country_code":"AT","country_name":"Austria","latitude":"47.00583000","longitude":"15.75417000","wikiDataId":"Q693223"},{"id":3563,"Name":"Sulztal an der Weinstraße","state_id":2059,"state_code":"6","state_name":"Styria","country_id":15,"country_code":"AT","country_name":"Austria","latitude":"46.68333000","longitude":"15.55000000","wikiDataId":"Q674310"},{"id":3576,"Name":"Tauplitz","state_id":2059,"state_code":"6","state_name":"Styria","country_id":15,"country_code":"AT","country_name":"Austria","latitude":"47.56005000","longitude":"14.01293000","wikiDataId":"Q672697"},{"id":3585,"Name":"Teufenbach","state_id":2059,"state_code":"6","state_name":"Styria","country_id":15,"country_code":"AT","country_name":"Austria","latitude":"47.12870000","longitude":"14.35913000","wikiDataId":"Q688227"},{"id":3586,"Name":"Thal","state_id":2059,"state_code":"6","state_name":"Styria","country_id":15,"country_code":"AT","country_name":"Austria","latitude":"47.07644000","longitude":"15.36052000","wikiDataId":"Q688227"},{"id":3596,"Name":"Thörl","state_id":2059,"state_code":"6","state_name":"Styria","country_id":15,"country_code":"AT","country_name":"Austria","latitude":"47.51952000","longitude":"15.22276000","wikiDataId":"Q689720"},{"id":3600,"Name":"Tieschen","state_id":2059,"state_code":"6","state_name":"Styria","country_id":15,"country_code":"AT","country_name":"Austria","latitude":"46.78611000","longitude":"15.94222000","wikiDataId":"Q687430"},{"id":3601,"Name":"Tillmitsch","state_id":2059,"state_code":"6","state_name":"Styria","country_id":15,"country_code":"AT","country_name":"Austria","latitude":"46.81195000","longitude":"15.51679000","wikiDataId":"Q687430"},{"id":3602,"Name":"Tillmitsch Links der Laßnitz","state_id":2059,"state_code":"6","state_name":"Styria","country_id":15,"country_code":"AT","country_name":"Austria","latitude":"46.80955000","longitude":"15.52394000","wikiDataId":"Q687430"},{"id":3606,"Name":"Traboch","state_id":2059,"state_code":"6","state_name":"Styria","country_id":15,"country_code":"AT","country_name":"Austria","latitude":"47.37705000","longitude":"14.98647000","wikiDataId":"Q701429"},{"id":3608,"Name":"Trahütten","state_id":2059,"state_code":"6","state_name":"Styria","country_id":15,"country_code":"AT","country_name":"Austria","latitude":"46.82500000","longitude":"15.15694000","wikiDataId":"Q687960"},{"id":3617,"Name":"Trautmannsdorf in Oststeiermark","state_id":2059,"state_code":"6","state_name":"Styria","country_id":15,"country_code":"AT","country_name":"Austria","latitude":"46.87530000","longitude":"15.88451000","wikiDataId":"Q259710"},{"id":3619,"Name":"Treglwang","state_id":2059,"state_code":"6","state_name":"Styria","country_id":15,"country_code":"AT","country_name":"Austria","latitude":"47.47458000","longitude":"14.59083000","wikiDataId":"Q687443"},{"id":3622,"Name":"Trieben","state_id":2059,"state_code":"6","state_name":"Styria","country_id":15,"country_code":"AT","country_name":"Austria","latitude":"47.48574000","longitude":"14.48744000","wikiDataId":"Q688726"},{"id":3623,"Name":"Triebendorf","state_id":2059,"state_code":"6","state_name":"Styria","country_id":15,"country_code":"AT","country_name":"Austria","latitude":"47.11667000","longitude":"14.23333000","wikiDataId":"Q670364"},