[{"id":89716,"Name":"Abaí","state_id":2775,"state_code":"6","state_name":"Caazapá","country_id":172,"country_code":"PY","country_name":"Paraguay","latitude":"-26.03333000","longitude":"-55.93333000","wikiDataId":"Q3481073"},{"id":89728,"Name":"Buena Vista","state_id":2775,"state_code":"6","state_name":"Caazapá","country_id":172,"country_code":"PY","country_name":"Paraguay","latitude":"-26.18387000","longitude":"-56.08171000","wikiDataId":"Q34783829"},{"id":89732,"Name":"Caazapá","state_id":2775,"state_code":"6","state_name":"Caazapá","country_id":172,"country_code":"PY","country_name":"Paraguay","latitude":"-26.19583000","longitude":"-56.36806000","wikiDataId":"Q2410335"},{"id":89772,"Name":"General Higinio Morínigo","state_id":2775,"state_code":"6","state_name":"Caazapá","country_id":172,"country_code":"PY","country_name":"Paraguay","latitude":"-25.95000000","longitude":"-55.91667000","wikiDataId":"Q47062"},{"id":89826,"Name":"San Juan Nepomuceno","state_id":2775,"state_code":"6","state_name":"Caazapá","country_id":172,"country_code":"PY","country_name":"Paraguay","latitude":"-26.11229000","longitude":"-55.93861000","wikiDataId":"Q135983"},{"id":89850,"Name":"Yegros","state_id":2775,"state_code":"6","state_name":"Caazapá","country_id":172,"country_code":"PY","country_name":"Paraguay","latitude":"-26.45000000","longitude":"-56.40000000","wikiDataId":"Q1983624"},{"id":89855,"Name":"Yuty","state_id":2775,"state_code":"6","state_name":"Caazapá","country_id":172,"country_code":"PY","country_name":"Paraguay","latitude":"-26.61471000","longitude":"-56.24607000","wikiDataId":"Q2475423"}]