[{"id":108818,"Name":"Çemişgezek İlçesi","state_id":2192,"state_code":"62","state_name":"Tunceli","country_id":225,"country_code":"TR","country_name":"Turkey","latitude":"39.06234000","longitude":"38.91400000","wikiDataId":"Q2619996"},{"id":107838,"Name":"Hozat","state_id":2192,"state_code":"62","state_name":"Tunceli","country_id":225,"country_code":"TR","country_name":"Turkey","latitude":"39.10029000","longitude":"39.20816000","wikiDataId":"Q374068"},{"id":108161,"Name":"Mazgirt","state_id":2192,"state_code":"62","state_name":"Tunceli","country_id":225,"country_code":"TR","country_name":"Turkey","latitude":"39.01783000","longitude":"39.60064000","wikiDataId":"Q209908"},{"id":108179,"Name":"Merkez","state_id":2192,"state_code":"62","state_name":"Tunceli","country_id":225,"country_code":"TR","country_name":"Turkey","latitude":"39.17114000","longitude":"39.55570000","wikiDataId":"Q3055997"},{"id":108244,"Name":"Nazimiye","state_id":2192,"state_code":"62","state_name":"Tunceli","country_id":225,"country_code":"TR","country_name":"Turkey","latitude":"39.17986000","longitude":"39.82843000","wikiDataId":"Q2252014"},{"id":108245,"Name":"Nazımiye İlçesi","state_id":2192,"state_code":"62","state_name":"Tunceli","country_id":225,"country_code":"TR","country_name":"Turkey","latitude":"39.17952000","longitude":"39.82805000","wikiDataId":"Q1023317"},{"id":108297,"Name":"Ovacık","state_id":2192,"state_code":"62","state_name":"Tunceli","country_id":225,"country_code":"TR","country_name":"Turkey","latitude":"39.35259000","longitude":"39.20890000","wikiDataId":"Q963947"},{"id":108337,"Name":"Pertek","state_id":2192,"state_code":"62","state_name":"Tunceli","country_id":225,"country_code":"TR","country_name":"Turkey","latitude":"38.86574000","longitude":"39.32273000","wikiDataId":"Q1022161"},{"id":108350,"Name":"Pulumer","state_id":2192,"state_code":"62","state_name":"Tunceli","country_id":225,"country_code":"TR","country_name":"Turkey","latitude":"39.48449000","longitude":"39.89532000","wikiDataId":"Q1004432"},{"id":108353,"Name":"Pülümür İlçesi","state_id":2192,"state_code":"62","state_name":"Tunceli","country_id":225,"country_code":"TR","country_name":"Turkey","latitude":"39.48662000","longitude":"39.89874000","wikiDataId":"Q1023268"},{"id":108598,"Name":"Tunceli","state_id":2192,"state_code":"62","state_name":"Tunceli","country_id":225,"country_code":"TR","country_name":"Turkey","latitude":"39.09921000","longitude":"39.54351000","wikiDataId":"Q202195"}]