[{"id":105263,"Name":"Amphoe Bueng Samakkhi","state_id":3516,"state_code":"62","state_name":"Kamphaeng Phet","country_id":219,"country_code":"TH","country_name":"Thailand","latitude":"16.21262000","longitude":"99.96720000","wikiDataId":"Q475302"},{"id":105390,"Name":"Amphoe Khanu Woralaksaburi","state_id":3516,"state_code":"62","state_name":"Kamphaeng Phet","country_id":219,"country_code":"TH","country_name":"Thailand","latitude":"16.00233000","longitude":"99.67618000","wikiDataId":"Q475647"},{"id":105407,"Name":"Amphoe Khlong Khlung","state_id":3516,"state_code":"62","state_name":"Kamphaeng Phet","country_id":219,"country_code":"TH","country_name":"Thailand","latitude":"16.22191000","longitude":"99.67654000","wikiDataId":"Q475695"},{"id":105409,"Name":"Amphoe Khlong Lan","state_id":3516,"state_code":"62","state_name":"Kamphaeng Phet","country_id":219,"country_code":"TH","country_name":"Thailand","latitude":"16.25992000","longitude":"99.21806000","wikiDataId":"Q475701"},{"id":105449,"Name":"Amphoe Kosamphi Nakhon","state_id":3516,"state_code":"62","state_name":"Kamphaeng Phet","country_id":219,"country_code":"TH","country_name":"Thailand","latitude":"16.60702000","longitude":"99.34795000","wikiDataId":"Q475820"},{"id":105480,"Name":"Amphoe Lan Krabue","state_id":3516,"state_code":"62","state_name":"Kamphaeng Phet","country_id":219,"country_code":"TH","country_name":"Thailand","latitude":"16.60348000","longitude":"99.86521000","wikiDataId":"Q475886"},{"id":105543,"Name":"Amphoe Mueang Kamphaeng Phet","state_id":3516,"state_code":"62","state_name":"Kamphaeng Phet","country_id":219,"country_code":"TH","country_name":"Thailand","latitude":"16.43254000","longitude":"99.48831000","wikiDataId":"Q476019"},{"id":105712,"Name":"Amphoe Pang Sila Thong","state_id":3516,"state_code":"62","state_name":"Kamphaeng Phet","country_id":219,"country_code":"TH","country_name":"Thailand","latitude":"16.02525000","longitude":"99.35593000","wikiDataId":"Q262407"},{"id":105768,"Name":"Amphoe Phran Kratai","state_id":3516,"state_code":"62","state_name":"Kamphaeng Phet","country_id":219,"country_code":"TH","country_name":"Thailand","latitude":"16.70541000","longitude":"99.53704000","wikiDataId":"Q476455"},{"id":105823,"Name":"Amphoe Sai Ngam","state_id":3516,"state_code":"62","state_name":"Kamphaeng Phet","country_id":219,"country_code":"TH","country_name":"Thailand","latitude":"16.43956000","longitude":"99.87457000","wikiDataId":"Q476586"},{"id":105825,"Name":"Amphoe Sai Thong Watthana","state_id":3516,"state_code":"62","state_name":"Kamphaeng Phet","country_id":219,"country_code":"TH","country_name":"Thailand","latitude":"16.30859000","longitude":"99.87854000","wikiDataId":"Q476589"},{"id":106508,"Name":"Kamphaeng Phet","state_id":3516,"state_code":"62","state_name":"Kamphaeng Phet","country_id":219,"country_code":"TH","country_name":"Thailand","latitude":"16.48344000","longitude":"99.52153000","wikiDataId":"Q2960445"},{"id":106519,"Name":"Khanu Woralaksaburi","state_id":3516,"state_code":"62","state_name":"Kamphaeng Phet","country_id":219,"country_code":"TH","country_name":"Thailand","latitude":"16.06170000","longitude":"99.86058000","wikiDataId":"Q28572792"},{"id":106551,"Name":"Lan Krabue","state_id":3516,"state_code":"62","state_name":"Kamphaeng Phet","country_id":219,"country_code":"TH","country_name":"Thailand","latitude":"16.60003000","longitude":"99.84889000","wikiDataId":"Q28572832"}]