[{"id":107281,"Name":"Banaz","state_id":2201,"state_code":"64","state_name":"Uşak","country_id":225,"country_code":"TR","country_name":"Turkey","latitude":"38.73707000","longitude":"29.75194000","wikiDataId":"Q199723"},{"id":107415,"Name":"Bölme","state_id":2201,"state_code":"64","state_name":"Uşak","country_id":225,"country_code":"TR","country_name":"Turkey","latitude":"38.62076000","longitude":"29.37373000","wikiDataId":"Q5005160"},{"id":107629,"Name":"Eşme","state_id":2201,"state_code":"64","state_name":"Uşak","country_id":225,"country_code":"TR","country_name":"Turkey","latitude":"38.39976000","longitude":"28.96905000","wikiDataId":"Q586434"},{"id":107729,"Name":"Güllü","state_id":2201,"state_code":"64","state_name":"Uşak","country_id":225,"country_code":"TR","country_name":"Turkey","latitude":"38.27114000","longitude":"29.10451000","wikiDataId":"Q1958579"},{"id":108892,"Name":"İlyaslı","state_id":2201,"state_code":"64","state_name":"Uşak","country_id":225,"country_code":"TR","country_name":"Turkey","latitude":"38.60389000","longitude":"29.20056000","wikiDataId":"Q1888746"},{"id":107894,"Name":"Karahallı","state_id":2201,"state_code":"64","state_name":"Uşak","country_id":225,"country_code":"TR","country_name":"Turkey","latitude":"38.32083000","longitude":"29.53028000","wikiDataId":"Q189697"},{"id":108115,"Name":"Kızılcasöğüt","state_id":2201,"state_code":"64","state_name":"Uşak","country_id":225,"country_code":"TR","country_name":"Turkey","latitude":"38.65111000","longitude":"29.66611000","wikiDataId":"Q6587855"},{"id":108183,"Name":"Merkez","state_id":2201,"state_code":"64","state_name":"Uşak","country_id":225,"country_code":"TR","country_name":"Turkey","latitude":"38.68463000","longitude":"29.29455000","wikiDataId":"Q3055997"},{"id":108433,"Name":"Selçikler","state_id":2201,"state_code":"64","state_name":"Uşak","country_id":225,"country_code":"TR","country_name":"Turkey","latitude":"38.49837000","longitude":"29.65482000","wikiDataId":"Q6578047"},{"id":108474,"Name":"Sivaslı","state_id":2201,"state_code":"64","state_name":"Uşak","country_id":225,"country_code":"TR","country_name":"Turkey","latitude":"38.49944000","longitude":"29.68361000","wikiDataId":"Q107401"},{"id":108621,"Name":"Ulubey","state_id":2201,"state_code":"64","state_name":"Uşak","country_id":225,"country_code":"TR","country_name":"Turkey","latitude":"38.41987000","longitude":"29.29129000","wikiDataId":"Q1816898"},{"id":108644,"Name":"Uşak","state_id":2201,"state_code":"64","state_name":"Uşak","country_id":225,"country_code":"TR","country_name":"Turkey","latitude":"38.67351000","longitude":"29.40580000","wikiDataId":"Q189134"}]