[{"id":107262,"Name":"Bahçesaray","state_id":2152,"state_code":"65","state_name":"Van","country_id":225,"country_code":"TR","country_name":"Turkey","latitude":"38.12460000","longitude":"42.79825000","wikiDataId":"Q788634"},{"id":107315,"Name":"Başkale","state_id":2152,"state_code":"65","state_name":"Van","country_id":225,"country_code":"TR","country_name":"Turkey","latitude":"38.04526000","longitude":"44.01718000","wikiDataId":"Q2670796"},{"id":108760,"Name":"Çaldıran","state_id":2152,"state_code":"65","state_name":"Van","country_id":225,"country_code":"TR","country_name":"Turkey","latitude":"39.14317000","longitude":"43.91068000","wikiDataId":"Q272362"},{"id":108787,"Name":"Çatak İlçesi","state_id":2152,"state_code":"65","state_name":"Van","country_id":225,"country_code":"TR","country_name":"Turkey","latitude":"38.00780000","longitude":"43.06195000","wikiDataId":"Q272667"},{"id":107551,"Name":"Edremit","state_id":2152,"state_code":"65","state_name":"Van","country_id":225,"country_code":"TR","country_name":"Turkey","latitude":"38.37889000","longitude":"43.29717000","wikiDataId":"Q43387"},{"id":107583,"Name":"Erciş","state_id":2152,"state_code":"65","state_name":"Van","country_id":225,"country_code":"TR","country_name":"Turkey","latitude":"39.15123000","longitude":"43.33705000","wikiDataId":"Q2218549"},{"id":107670,"Name":"Gevaş","state_id":2152,"state_code":"65","state_name":"Van","country_id":225,"country_code":"TR","country_name":"Turkey","latitude":"38.29210000","longitude":"43.10189000","wikiDataId":"Q1004448"},{"id":107753,"Name":"Gürpınar","state_id":2152,"state_code":"65","state_name":"Van","country_id":225,"country_code":"TR","country_name":"Turkey","latitude":"38.32372000","longitude":"43.40991000","wikiDataId":"Q1562063"},{"id":108908,"Name":"İpekyolu","state_id":2152,"state_code":"65","state_name":"Van","country_id":225,"country_code":"TR","country_name":"Turkey","latitude":"38.49041000","longitude":"43.34690000","wikiDataId":"Q16848468"},{"id":108015,"Name":"Konalga","state_id":2152,"state_code":"65","state_name":"Van","country_id":225,"country_code":"TR","country_name":"Turkey","latitude":"37.86035000","longitude":"43.09678000","wikiDataId":"Q6428743"},{"id":108220,"Name":"Muradiye","state_id":2152,"state_code":"65","state_name":"Van","country_id":225,"country_code":"TR","country_name":"Turkey","latitude":"38.97889000","longitude":"43.75374000","wikiDataId":"Q1000878"},{"id":108866,"Name":"Özalp","state_id":2152,"state_code":"65","state_name":"Van","country_id":225,"country_code":"TR","country_name":"Turkey","latitude":"38.65455000","longitude":"43.98869000","wikiDataId":"Q1344290"},{"id":108387,"Name":"Saray","state_id":2152,"state_code":"65","state_name":"Van","country_id":225,"country_code":"TR","country_name":"Turkey","latitude":"38.64691000","longitude":"44.16116000","wikiDataId":"Q1019904"},{"id":108613,"Name":"Tuşpa","state_id":2152,"state_code":"65","state_name":"Van","country_id":225,"country_code":"TR","country_name":"Turkey","latitude":"38.48423000","longitude":"43.40218000","wikiDataId":"Q16968873"},{"id":108646,"Name":"Van","state_id":2152,"state_code":"65","state_name":"Van","country_id":225,"country_code":"TR","country_name":"Turkey","latitude":"38.49457000","longitude":"43.38323000","wikiDataId":"Q83061"}]