[{"id":89721,"Name":"Arquitecto Tomás Romero Pereira","state_id":2778,"state_code":"7","state_name":"Itapúa","country_id":172,"country_code":"PY","country_name":"Paraguay","latitude":"-26.48333000","longitude":"-55.25000000","wikiDataId":"Q31884178"},{"id":89724,"Name":"Bella Vista","state_id":2778,"state_code":"7","state_name":"Itapúa","country_id":172,"country_code":"PY","country_name":"Paraguay","latitude":"-27.05000000","longitude":"-55.55000000","wikiDataId":"Q2639218"},{"id":89735,"Name":"Capitán Miranda","state_id":2778,"state_code":"7","state_name":"Itapúa","country_id":172,"country_code":"PY","country_name":"Paraguay","latitude":"-27.20000000","longitude":"-55.80000000","wikiDataId":"Q2717429"},{"id":89741,"Name":"Carmen del Paraná","state_id":2778,"state_code":"7","state_name":"Itapúa","country_id":172,"country_code":"PY","country_name":"Paraguay","latitude":"-27.22232000","longitude":"-56.15243000","wikiDataId":"Q17564711"},{"id":89746,"Name":"Colonia Carlos Antonio López","state_id":2778,"state_code":"7","state_name":"Itapúa","country_id":172,"country_code":"PY","country_name":"Paraguay","latitude":"-26.39853000","longitude":"-54.75690000","wikiDataId":"Q192235"},{"id":89754,"Name":"Colonia San Lorenzo","state_id":2778,"state_code":"7","state_name":"Itapúa","country_id":172,"country_code":"PY","country_name":"Paraguay","latitude":"-26.49324000","longitude":"-54.79989000","wikiDataId":"Q1709409"},{"id":89761,"Name":"Edelira","state_id":2778,"state_code":"7","state_name":"Itapúa","country_id":172,"country_code":"PY","country_name":"Paraguay","latitude":"-26.76734000","longitude":"-55.27872000","wikiDataId":"Q935504"},{"id":89763,"Name":"Encarnación","state_id":2778,"state_code":"7","state_name":"Itapúa","country_id":172,"country_code":"PY","country_name":"Paraguay","latitude":"-27.33056000","longitude":"-55.86667000","wikiDataId":"Q47138"},{"id":89767,"Name":"Fram","state_id":2778,"state_code":"7","state_name":"Itapúa","country_id":172,"country_code":"PY","country_name":"Paraguay","latitude":"-26.98333000","longitude":"-55.88333000","wikiDataId":"Q47062"},{"id":89769,"Name":"General Artigas","state_id":2778,"state_code":"7","state_name":"Itapúa","country_id":172,"country_code":"PY","country_name":"Paraguay","latitude":"-26.93522000","longitude":"-56.22168000","wikiDataId":"Q47062"},{"id":89770,"Name":"General Delgado","state_id":2778,"state_code":"7","state_name":"Itapúa","country_id":172,"country_code":"PY","country_name":"Paraguay","latitude":"-27.09046000","longitude":"-56.52474000","wikiDataId":"Q47062"},{"id":89776,"Name":"Hohenau","state_id":2778,"state_code":"7","state_name":"Itapúa","country_id":172,"country_code":"PY","country_name":"Paraguay","latitude":"-27.07315000","longitude":"-55.64247000","wikiDataId":"Q47062"},{"id":89787,"Name":"Jesús","state_id":2778,"state_code":"7","state_name":"Itapúa","country_id":172,"country_code":"PY","country_name":"Paraguay","latitude":"-27.05598000","longitude":"-55.74130000","wikiDataId":"Q1988977"},{"id":89801,"Name":"Natalio","state_id":2778,"state_code":"7","state_name":"Itapúa","country_id":172,"country_code":"PY","country_name":"Paraguay","latitude":"-26.75702000","longitude":"-55.13777000","wikiDataId":"Q541522"},{"id":89805,"Name":"Obligado","state_id":2778,"state_code":"7","state_name":"Itapúa","country_id":172,"country_code":"PY","country_name":"Paraguay","latitude":"-27.03333000","longitude":"-55.63333000","wikiDataId":"Q541522"},{"id":89809,"Name":"Pirapó","state_id":2778,"state_code":"7","state_name":"Itapúa","country_id":172,"country_code":"PY","country_name":"Paraguay","latitude":"-26.86012000","longitude":"-55.54357000","wikiDataId":"Q135970"},{"id":89813,"Name":"Puerto Mayor Otaño","state_id":2778,"state_code":"7","state_name":"Itapúa","country_id":172,"country_code":"PY","country_name":"Paraguay","latitude":"-26.40000000","longitude":"-54.70000000","wikiDataId":"Q135970"},{"id":89821,"Name":"San Cosme y Damián","state_id":2778,"state_code":"7","state_name":"Itapúa","country_id":172,"country_code":"PY","country_name":"Paraguay","latitude":"-27.31741000","longitude":"-56.33087000","wikiDataId":"Q135983"},{"id":89827,"Name":"San Juan del Paraná","state_id":2778,"state_code":"7","state_name":"Itapúa","country_id":172,"country_code":"PY","country_name":"Paraguay","latitude":"-27.30168000","longitude":"-55.96509000","wikiDataId":"Q135983"},{"id":89832,"Name":"San Pedro del Paraná","state_id":2778,"state_code":"7","state_name":"Itapúa","country_id":172,"country_code":"PY","country_name":"Paraguay","latitude":"-26.83268000","longitude":"-56.20575000","wikiDataId":"Q135993"},{"id":89841,"Name":"Trinidad","state_id":2778,"state_code":"7","state_name":"Itapúa","country_id":172,"country_code":"PY","country_name":"Paraguay","latitude":"-27.11667000","longitude":"-55.78333000","wikiDataId":"Q1092820"}]