[{"id":76699,"Name":"Département de Gouré","state_id":69,"state_code":"7","state_name":"Zinder Region","country_id":160,"country_code":"NE","country_name":"Niger","latitude":"14.01618000","longitude":"10.14722000","wikiDataId":"Q1538708"},{"id":76700,"Name":"Département de Kantché","state_id":69,"state_code":"7","state_name":"Zinder Region","country_id":160,"country_code":"NE","country_name":"Niger","latitude":"13.40000000","longitude":"8.60000000","wikiDataId":"Q913147"},{"id":76713,"Name":"Département de Tânout","state_id":69,"state_code":"7","state_name":"Zinder Region","country_id":160,"country_code":"NE","country_name":"Niger","latitude":"14.75000000","longitude":"8.33333000","wikiDataId":"Q913289"},{"id":76717,"Name":"Gouré","state_id":69,"state_code":"7","state_name":"Zinder Region","country_id":160,"country_code":"NE","country_name":"Niger","latitude":"13.98350000","longitude":"10.27035000","wikiDataId":"Q766896"},{"id":76725,"Name":"Magaria","state_id":69,"state_code":"7","state_name":"Zinder Region","country_id":160,"country_code":"NE","country_name":"Niger","latitude":"12.99826000","longitude":"8.90991000","wikiDataId":"Q912554"},{"id":76727,"Name":"Matamey","state_id":69,"state_code":"7","state_name":"Zinder Region","country_id":160,"country_code":"NE","country_name":"Niger","latitude":"13.42309000","longitude":"8.47485000","wikiDataId":"Q664550"},{"id":76730,"Name":"Mirriah","state_id":69,"state_code":"7","state_name":"Zinder Region","country_id":160,"country_code":"NE","country_name":"Niger","latitude":"13.70727000","longitude":"9.15013000","wikiDataId":"Q664550"},{"id":76735,"Name":"Tanout","state_id":69,"state_code":"7","state_name":"Zinder Region","country_id":160,"country_code":"NE","country_name":"Niger","latitude":"14.97089000","longitude":"8.88786000","wikiDataId":"Q664550"},{"id":76743,"Name":"Zinder","state_id":69,"state_code":"7","state_name":"Zinder Region","country_id":160,"country_code":"NE","country_name":"Niger","latitude":"13.80716000","longitude":"8.98810000","wikiDataId":"Q204365"}]