[{"id":105194,"Name":"Amphoe Ban Kha","state_id":3499,"state_code":"70","state_name":"Ratchaburi","country_id":219,"country_code":"TH","country_name":"Thailand","latitude":"13.32374000","longitude":"99.37323000","wikiDataId":"Q475107"},{"id":105215,"Name":"Amphoe Ban Pong","state_id":3499,"state_code":"70","state_name":"Ratchaburi","country_id":219,"country_code":"TH","country_name":"Thailand","latitude":"13.81660000","longitude":"99.82147000","wikiDataId":"Q475169"},{"id":105237,"Name":"Amphoe Bang Phae","state_id":3499,"state_code":"70","state_name":"Ratchaburi","country_id":219,"country_code":"TH","country_name":"Thailand","latitude":"13.68333000","longitude":"99.98333000","wikiDataId":"Q389287"},{"id":105303,"Name":"Amphoe Chom Bueng","state_id":3499,"state_code":"70","state_name":"Ratchaburi","country_id":219,"country_code":"TH","country_name":"Thailand","latitude":"13.62520000","longitude":"99.51870000","wikiDataId":"Q475408"},{"id":105316,"Name":"Amphoe Damnoen Saduak","state_id":3499,"state_code":"70","state_name":"Ratchaburi","country_id":219,"country_code":"TH","country_name":"Thailand","latitude":"13.56537000","longitude":"99.97042000","wikiDataId":"Q475439"},{"id":105579,"Name":"Amphoe Mueang Ratchaburi","state_id":3499,"state_code":"70","state_name":"Ratchaburi","country_id":219,"country_code":"TH","country_name":"Thailand","latitude":"13.54559000","longitude":"99.77678000","wikiDataId":"Q476069"},{"id":105707,"Name":"Amphoe Pak Tho","state_id":3499,"state_code":"70","state_name":"Ratchaburi","country_id":219,"country_code":"TH","country_name":"Thailand","latitude":"13.38761000","longitude":"99.67700000","wikiDataId":"Q476337"},{"id":105759,"Name":"Amphoe Photharam","state_id":3499,"state_code":"70","state_name":"Ratchaburi","country_id":219,"country_code":"TH","country_name":"Thailand","latitude":"13.70707000","longitude":"99.75622000","wikiDataId":"Q476432"},{"id":106253,"Name":"Amphoe Suan Phueng","state_id":3499,"state_code":"70","state_name":"Ratchaburi","country_id":219,"country_code":"TH","country_name":"Thailand","latitude":"13.56361000","longitude":"99.31133000","wikiDataId":"Q476778"},{"id":106356,"Name":"Amphoe Wat Phleng","state_id":3499,"state_code":"70","state_name":"Ratchaburi","country_id":219,"country_code":"TH","country_name":"Thailand","latitude":"13.44705000","longitude":"99.86959000","wikiDataId":"Q477050"},{"id":106410,"Name":"Ban Pong","state_id":3499,"state_code":"70","state_name":"Ratchaburi","country_id":219,"country_code":"TH","country_name":"Thailand","latitude":"13.81629000","longitude":"99.87739000","wikiDataId":"Q340034"},{"id":106440,"Name":"Bang Phae","state_id":3499,"state_code":"70","state_name":"Ratchaburi","country_id":219,"country_code":"TH","country_name":"Thailand","latitude":"13.69157000","longitude":"99.92982000","wikiDataId":"Q28574210"},{"id":106478,"Name":"Chom Bueng","state_id":3499,"state_code":"70","state_name":"Ratchaburi","country_id":219,"country_code":"TH","country_name":"Thailand","latitude":"13.62000000","longitude":"99.59169000","wikiDataId":"Q28574152"},{"id":106485,"Name":"Damnoen Saduak","state_id":3499,"state_code":"70","state_name":"Ratchaburi","country_id":219,"country_code":"TH","country_name":"Thailand","latitude":"13.51825000","longitude":"99.95469000","wikiDataId":"Q16022987"},{"id":106641,"Name":"Photharam","state_id":3499,"state_code":"70","state_name":"Ratchaburi","country_id":219,"country_code":"TH","country_name":"Thailand","latitude":"13.69234000","longitude":"99.84969000","wikiDataId":"Q13025414"},{"id":106664,"Name":"Ratchaburi","state_id":3499,"state_code":"70","state_name":"Ratchaburi","country_id":219,"country_code":"TH","country_name":"Thailand","latitude":"13.53671000","longitude":"99.81712000","wikiDataId":"Q1207138"}]