[{"id":135254,"Name":"Acerno","state_id":1669,"state_code":"72","state_name":"Campania","country_id":107,"country_code":"IT","country_name":"Italy","latitude":"40.73771000","longitude":"15.05695000","wikiDataId":"Q3604172"},{"id":135255,"Name":"Acerra","state_id":1669,"state_code":"72","state_name":"Campania","country_id":107,"country_code":"IT","country_name":"Italy","latitude":"40.94477000","longitude":"14.37140000","wikiDataId":"Q3604172"},{"id":135294,"Name":"Afragola","state_id":1669,"state_code":"72","state_name":"Campania","country_id":107,"country_code":"IT","country_name":"Italy","latitude":"40.92298000","longitude":"14.30935000","wikiDataId":"Q2175750"},{"id":135298,"Name":"Agerola","state_id":1669,"state_code":"72","state_name":"Campania","country_id":107,"country_code":"IT","country_name":"Italy","latitude":"40.63771000","longitude":"14.53884000","wikiDataId":"Q18431725"},{"id":135319,"Name":"Agropoli","state_id":1669,"state_code":"72","state_name":"Campania","country_id":107,"country_code":"IT","country_name":"Italy","latitude":"40.34923000","longitude":"14.99067000","wikiDataId":"Q16112"},{"id":135328,"Name":"Aiello del Sabato","state_id":1669,"state_code":"72","state_name":"Campania","country_id":107,"country_code":"IT","country_name":"Italy","latitude":"40.88847000","longitude":"14.82123000","wikiDataId":"Q16112"},{"id":135330,"Name":"Ailano","state_id":1669,"state_code":"72","state_name":"Campania","country_id":107,"country_code":"IT","country_name":"Italy","latitude":"41.39001000","longitude":"14.20536000","wikiDataId":"Q16112"},{"id":135334,"Name":"Airola","state_id":1669,"state_code":"72","state_name":"Campania","country_id":107,"country_code":"IT","country_name":"Italy","latitude":"41.05871000","longitude":"14.55924000","wikiDataId":"Q18441902"},{"id":135350,"Name":"Albanella","state_id":1669,"state_code":"72","state_name":"Campania","country_id":107,"country_code":"IT","country_name":"Italy","latitude":"40.47943000","longitude":"15.11454000","wikiDataId":"Q18441902"},{"id":135399,"Name":"Alfano","state_id":1669,"state_code":"72","state_name":"Campania","country_id":107,"country_code":"IT","country_name":"Italy","latitude":"40.17687000","longitude":"15.42450000","wikiDataId":"Q18454404"},{"id":135411,"Name":"Alife","state_id":1669,"state_code":"72","state_name":"Campania","country_id":107,"country_code":"IT","country_name":"Italy","latitude":"41.32612000","longitude":"14.33403000","wikiDataId":"Q18454404"},{"id":135432,"Name":"Altavilla Irpina","state_id":1669,"state_code":"72","state_name":"Campania","country_id":107,"country_code":"IT","country_name":"Italy","latitude":"41.00619000","longitude":"14.78093000","wikiDataId":"Q18503836"},{"id":135435,"Name":"Altavilla Silentina","state_id":1669,"state_code":"72","state_name":"Campania","country_id":107,"country_code":"IT","country_name":"Italy","latitude":"40.53012000","longitude":"15.13153000","wikiDataId":"Q18503836"},{"id":135448,"Name":"Alvignano","state_id":1669,"state_code":"72","state_name":"Campania","country_id":107,"country_code":"IT","country_name":"Italy","latitude":"41.24427000","longitude":"14.33671000","wikiDataId":"Q3613147"},{"id":135456,"Name":"Amalfi","state_id":1669,"state_code":"72","state_name":"Campania","country_id":107,"country_code":"IT","country_name":"Italy","latitude":"40.63490000","longitude":"14.60238000","wikiDataId":"Q3613147"},{"id":135472,"Name":"Amodio-Massariola","state_id":1669,"state_code":"72","state_name":"Campania","country_id":107,"country_code":"IT","country_name":"Italy","latitude":"40.88872000","longitude":"14.09091000","wikiDataId":"Q18436866"},{"id":135473,"Name":"Amorosi","state_id":1669,"state_code":"72","state_name":"Campania","country_id":107,"country_code":"IT","country_name":"Italy","latitude":"41.20273000","longitude":"14.46598000","wikiDataId":"Q18436866"},{"id":135475,"Name":"Anacapri","state_id":1669,"state_code":"72","state_name":"Campania","country_id":107,"country_code":"IT","country_name":"Italy","latitude":"40.55170000","longitude":"14.21225000","wikiDataId":"Q18436866"},{"id":135490,"Name":"Andretta-Mattinella","state_id":1669,"state_code":"72","state_name":"Campania","country_id":107,"country_code":"IT","country_name":"Italy","latitude":"40.93742000","longitude":"15.32485000","wikiDataId":"Q18434451"},{"id":135500,"Name":"Angri","state_id":1669,"state_code":"72","state_name":"Campania","country_id":107,"country_code":"IT","country_name":"Italy","latitude":"40.73815000","longitude":"14.57070000","wikiDataId":"Q18448265"},{"id":135508,"Name":"Annunziata","state_id":1669,"state_code":"72","state_name":"Campania","country_id":107,"country_code":"IT","country_name":"Italy","latitude":"41.12100000","longitude":"14.36518000","wikiDataId":"Q18436435"},{"id":135515,"Name":"Antessano","state_id":1669,"state_code":"72","state_name":"Campania","country_id":107,"country_code":"IT","country_name":"Italy","latitude":"40.73293000","longitude":"14.77744000","wikiDataId":"Q18437157"},{"id":135532,"Name":"Apice Vecchio","state_id":1669,"state_code":"72","state_name":"Campania","country_id":107,"country_code":"IT","country_name":"Italy","latitude":"41.12012000","longitude":"14.93104000","wikiDataId":"Q18435824"},{"id":135534,"Name":"Apollosa","state_id":1669,"state_code":"72","state_name":"Campania","country_id":107,"country_code":"IT","country_name":"Italy","latitude":"41.09156000","longitude":"14.69625000","wikiDataId":"Q18435824"},{"id":135543,"Name":"Aquara","state_id":1669,"state_code":"72","state_name":"Campania","country_id":107,"country_code":"IT","country_name":"Italy","latitude":"40.44391000","longitude":"15.25386000","wikiDataId":"Q18435824"},{"id":135546,"Name":"Aquilonia","state_id":1669,"state_code":"72","state_name":"Campania","country_id":107,"country_code":"IT","country_name":"Italy","latitude":"40.98688000","longitude":"15.47510000","wikiDataId":"Q18459571"},{"id":135587,"Name":"Arenella","state_id":1669,"state_code":"72","state_name":"Campania","country_id":107,"country_code":"IT","country_name":"Italy","latitude":"40.85734000","longitude":"14.22280000","wikiDataId":"Q18454415"},{"id":135599,"Name":"Ariano","state_id":1669,"state_code":"72","state_name":"Campania","country_id":107,"country_code":"IT","country_name":"Italy","latitude":"40.65668000","longitude":"15.02481000","wikiDataId":"Q18437163"},{"id":135600,"Name":"Ariano Irpino-Martiri","state_id":1669,"state_code":"72","state_name":"Campania","country_id":107,"country_code":"IT","country_name":"Italy","latitude":"41.16024000","longitude":"15.10625000","wikiDataId":"Q18437163"},{"id":135603,"Name":"Arienzo","state_id":1669,"state_code":"72","state_name":"Campania","country_id":107,"country_code":"IT","country_name":"Italy","latitude":"41.02734000","longitude":"14.49770000","wikiDataId":"Q18437163"},{"id":135606,"Name":"Ariola","state_id":1669,"state_code":"72","state_name":"Campania","country_id":107,"country_code":"IT","country_name":"Italy","latitude":"40.62795000","longitude":"15.43453000","wikiDataId":"Q18437165"},{"id":135623,"Name":"Arola-Preazzano","state_id":1669,"state_code":"72","state_name":"Campania","country_id":107,"country_code":"IT","country_name":"Italy","latitude":"40.63333000","longitude":"14.43333000","wikiDataId":"Q18436872"},{"id":135626,"Name":"Arpaia","state_id":1669,"state_code":"72","state_name":"Campania","country_id":107,"country_code":"IT","country_name":"Italy","latitude":"41.03678000","longitude":"14.55175000","wikiDataId":"Q18436872"},{"id":135627,"Name":"Arpaise","state_id":1669,"state_code":"72","state_name":"Campania","country_id":107,"country_code":"IT","country_name":"Italy","latitude":"41.02977000","longitude":"14.74387000","wikiDataId":"Q18436872"},{"id":135629,"Name":"Arpino","state_id":1669,"state_code":"72","state_name":"Campania","country_id":107,"country_code":"IT","country_name":"Italy","latitude":"40.88882000","longitude":"14.32015000","wikiDataId":"Q18436874"},{"id":135649,"Name":"Arzano","state_id":1669,"state_code":"72","state_name":"Campania","country_id":107,"country_code":"IT","country_name":"Italy","latitude":"40.90959000","longitude":"14.26519000","wikiDataId":"Q18436874"},{"id":135653,"Name":"Ascea","state_id":1669,"state_code":"72","state_name":"Campania","country_id":107,"country_code":"IT","country_name":"Italy","latitude":"40.14082000","longitude":"15.18583000","wikiDataId":"Q53150"},{"id":135674,"Name":"Atena Lucana","state_id":1669,"state_code":"72","state_name":"Campania","country_id":107,"country_code":"IT","country_name":"Italy","latitude":"40.45464000","longitude":"15.55633000","wikiDataId":"Q3625263"},{"id":135678,"Name":"Atrani","state_id":1669,"state_code":"72","state_name":"Campania","country_id":107,"country_code":"IT","country_name":"Italy","latitude":"40.63617000","longitude":"14.60933000","wikiDataId":"Q18452704"},{"id":135680,"Name":"Atripalda","state_id":1669,"state_code":"72","state_name":"Campania","country_id":107,"country_code":"IT","country_name":"Italy","latitude":"40.91867000","longitude":"14.82721000","wikiDataId":"Q18452704"},{"id":135686,"Name":"Auletta","state_id":1669,"state_code":"72","state_name":"Campania","country_id":107,"country_code":"IT","country_name":"Italy","latitude":"40.56116000","longitude":"15.42313000","wikiDataId":"Q18452704"},{"id":135699,"Name":"Avella","state_id":1669,"state_code":"72","state_name":"Campania","country_id":107,"country_code":"IT","country_name":"Italy","latitude":"40.95995000","longitude":"14.60087000","wikiDataId":"Q18328180"},{"id":135700,"Name":"Avellino","state_id":1669,"state_code":"72","state_name":"Campania","country_id":107,"country_code":"IT","country_name":"Italy","latitude":"40.91494000","longitude":"14.79103000","wikiDataId":"Q18328180"},{"id":135702,"Name":"Aversa","state_id":1669,"state_code":"72","state_name":"Campania","country_id":107,"country_code":"IT","country_name":"Italy","latitude":"40.97259000","longitude":"14.20745000","wikiDataId":"Q18328180"},{"id":135715,"Name":"Avvocata","state_id":1669,"state_code":"72","state_name":"Campania","country_id":107,"country_code":"IT","country_name":"Italy","latitude":"40.85432000","longitude":"14.24325000","wikiDataId":"Q18448272"},{"id":135729,"Name":"Bacoli","state_id":1669,"state_code":"72","state_name":"Campania","country_id":107,"country_code":"IT","country_name":"Italy","latitude":"40.79672000","longitude":"14.07349000","wikiDataId":"Q18448272"},{"id":135762,"Name":"Bagnoli","state_id":1669,"state_code":"72","state_name":"Campania","country_id":107,"country_code":"IT","country_name":"Italy","latitude":"40.81322000","longitude":"14.16807000","wikiDataId":"Q799950"},{"id":135763,"Name":"Bagnoli Irpino","state_id":1669,"state_code":"72","state_name":"Campania","country_id":107,"country_code":"IT","country_name":"Italy","latitude":"40.83103000","longitude":"15.07173000","wikiDataId":"Q799950"},{"id":135777,"Name":"Baia","state_id":1669,"state_code":"72","state_name":"Campania","country_id":107,"country_code":"IT","country_name":"Italy","latitude":"41.30366000","longitude":"14.25016000","wikiDataId":"Q18436446"},{"id":135778,"Name":"Baiano","state_id":1669,"state_code":"72","state_name":"Campania","country_id":107,"country_code":"IT","country_name":"Italy","latitude":"40.95142000","longitude":"14.61650000","wikiDataId":"Q18436446"},{"id":135805,"Name":"Banzano","state_id":1669,"state_code":"72","state_name":"Campania","country_id":107,"country_code":"IT","country_name":"Italy","latitude":"40.84338000","longitude":"14.80182000","wikiDataId":"Q18434512"},{"id":135812,"Name":"Barano d'Ischia","state_id":1669,"state_code":"72","state_name":"Campania","country_id":107,"country_code":"IT","country_name":"Italy","latitude":"40.71472000","longitude":"13.92522000","wikiDataId":"Q18494885"},{"id":135865,"Name":"Baronissi","state_id":1669,"state_code":"72","state_name":"Campania","country_id":107,"country_code":"IT","country_name":"Italy","latitude":"40.74817000","longitude":"14.77380000","wikiDataId":"Q18429210"},{"id":135867,"Name":"Barra","state_id":1669,"state_code":"72","state_name":"Campania","country_id":107,"country_code":"IT","country_name":"Italy","latitude":"40.84255000","longitude":"14.31849000","wikiDataId":"Q808771"},{"id":135883,"Name":"Baselice","state_id":1669,"state_code":"72","state_name":"Campania","country_id":107,"country_code":"IT","country_name":"Italy","latitude":"41.39296000","longitude":"14.97363000","wikiDataId":"Q3635515"},{"id":135909,"Name":"Battipaglia","state_id":1669,"state_code":"72","state_name":"Campania","country_id":107,"country_code":"IT","country_name":"Italy","latitude":"40.60861000","longitude":"14.98209000","wikiDataId":"Q18484109"},{"id":135945,"Name":"Bellizzi","state_id":1669,"state_code":"72","state_name":"Campania","country_id":107,"country_code":"IT","country_name":"Italy","latitude":"40.61981000","longitude":"14.94685000","wikiDataId":"Q18491452"},{"id":135947,"Name":"Bellona","state_id":1669,"state_code":"72","state_name":"Campania","country_id":107,"country_code":"IT","country_name":"Italy","latitude":"41.16052000","longitude":"14.23313000","wikiDataId":"Q18498108"},{"id":135948,"Name":"Bellosguardo","state_id":1669,"state_code":"72","state_name":"Campania","country_id":107,"country_code":"IT","country_name":"Italy","latitude":"40.42222000","longitude":"15.31219000","wikiDataId":"Q18498108"},{"id":135959,"Name":"Beltiglio-San Giovanni","state_id":1669,"state_code":"72","state_name":"Campania","country_id":107,"country_code":"IT","country_name":"Italy","latitude":"41.06239000","longitude":"14.75273000","wikiDataId":"Q18435839"},{"id":135976,"Name":"Benevento","state_id":1669,"state_code":"72","state_name":"Campania","country_id":107,"country_code":"IT","country_name":"Italy","latitude":"41.13070000","longitude":"14.77816000","wikiDataId":"Q18491454"},{"id":136058,"Name":"Bisaccia","state_id":1669,"state_code":"72","state_name":"Campania","country_id":107,"country_code":"IT","country_name":"Italy","latitude":"41.00923000","longitude":"15.37699000","wikiDataId":"Q18503920"},{"id":136059,"Name":"Bisaccia Nuova","state_id":1669,"state_code":"72","state_name":"Campania","country_id":107,"country_code":"IT","country_name":"Italy","latitude":"41.00960000","longitude":"15.35546000","wikiDataId":"Q18434573"},{"id":136071,"Name":"Bivio Mortola","state_id":1669,"state_code":"72","state_name":"Campania","country_id":107,"country_code":"IT","country_name":"Italy","latitude":"41.39557000","longitude":"13.89663000","wikiDataId":"Q18436450"},{"id":136073,"Name":"Bivio Santa Cecilia","state_id":1669,"state_code":"72","state_name":"Campania","country_id":107,"country_code":"IT","country_name":"Italy","latitude":"40.52224000","longitude":"15.00018000","wikiDataId":"Q18437192"},{"id":136134,"Name":"Bonea","state_id":1669,"state_code":"72","state_name":"Campania","country_id":107,"country_code":"IT","country_name":"Italy","latitude":"41.07312000","longitude":"14.61683000","wikiDataId":"Q18464487"},{"id":136139,"Name":"Bonito","state_id":1669,"state_code":"72","state_name":"Campania","country_id":107,"country_code":"IT","country_name":"Italy","latitude":"41.09857000","longitude":"15.00071000","wikiDataId":"Q18503987"},{"id":136170,"Name":"Borgo","state_id":1669,"state_code":"72","state_name":"Campania","country_id":107,"country_code":"IT","country_name":"Italy","latitude":"40.84022000","longitude":"14.78364000","wikiDataId":"Q18434592"},{"id":136247,"Name":"Boscoreale","state_id":1669,"state_code":"72","state_name":"Campania","country_id":107,"country_code":"IT","country_name":"Italy","latitude":"40.77274000","longitude":"14.48118000","wikiDataId":"Q18502900"},{"id":136248,"Name":"Boscotrecase","state_id":1669,"state_code":"72","state_name":"Campania","country_id":107,"country_code":"IT","country_name":"Italy","latitude":"40.77296000","longitude":"14.46185000","wikiDataId":"Q18502900"},{"id":136282,"Name":"Bracigliano","state_id":1669,"state_code":"72","state_name":"Campania","country_id":107,"country_code":"IT","country_name":"Italy","latitude":"40.81880000","longitude":"14.70772000","wikiDataId":"Q1118253"},{"id":136322,"Name":"Brezza","state_id":1669,"state_code":"72","state_name":"Campania","country_id":107,"country_code":"IT","country_name":"Italy","latitude":"41.11073000","longitude":"14.11201000","wikiDataId":"Q18436455"},{"id":136375,"Name":"Brusciano","state_id":1669,"state_code":"72","state_name":"Campania","country_id":107,"country_code":"IT","country_name":"Italy","latitude":"40.92237000","longitude":"14.42386000","wikiDataId":"Q3645550"},{"id":136386,"Name":"Bucciano","state_id":1669,"state_code":"72","state_name":"Campania","country_id":107,"country_code":"IT","country_name":"Italy","latitude":"41.07756000","longitude":"14.56898000","wikiDataId":"Q18438069"},{"id":136388,"Name":"Buccino","state_id":1669,"state_code":"72","state_name":"Campania","country_id":107,"country_code":"IT","country_name":"Italy","latitude":"40.63670000","longitude":"15.38116000","wikiDataId":"Q18438069"},{"id":136405,"Name":"Buonabitacolo","state_id":1669,"state_code":"72","state_name":"Campania","country_id":107,"country_code":"IT","country_name":"Italy","latitude":"40.26855000","longitude":"15.62119000","wikiDataId":"Q18478626"},{"id":136406,"Name":"Buonalbergo","state_id":1669,"state_code":"72","state_name":"Campania","country_id":107,"country_code":"IT","country_name":"Italy","latitude":"41.22236000","longitude":"14.97799000","wikiDataId":"Q18478626"},{"id":136466,"Name":"Caggiano","state_id":1669,"state_code":"72","state_name":"Campania","country_id":107,"country_code":"IT","country_name":"Italy","latitude":"40.56240000","longitude":"15.49629000","wikiDataId":"Q3649521"},{"id":136474,"Name":"Caianello","state_id":1669,"state_code":"72","state_name":"Campania","country_id":107,"country_code":"IT","country_name":"Italy","latitude":"41.30509000","longitude":"14.08516000","wikiDataId":"Q3649521"},{"id":136475,"Name":"Caiazzo","state_id":1669,"state_code":"72","state_name":"Campania","country_id":107,"country_code":"IT","country_name":"Italy","latitude":"41.18435000","longitude":"14.35946000","wikiDataId":"Q3649521"},{"id":136481,"Name":"Cairano","state_id":1669,"state_code":"72","state_name":"Campania","country_id":107,"country_code":"IT","country_name":"Italy","latitude":"40.89552000","longitude":"15.37069000","wikiDataId":"Q18452728"},{"id":136484,"Name":"Caivano","state_id":1669,"state_code":"72","state_name":"Campania","country_id":107,"country_code":"IT","country_name":"Italy","latitude":"40.95753000","longitude":"14.30591000","wikiDataId":"Q18452728"},{"id":136486,"Name":"Calabritto","state_id":1669,"state_code":"72","state_name":"Campania","country_id":107,"country_code":"IT","country_name":"Italy","latitude":"40.78342000","longitude":"15.22285000","wikiDataId":"Q1026145"},{"id":136529,"Name":"Calitri","state_id":1669,"state_code":"72","state_name":"Campania","country_id":107,"country_code":"IT","country_name":"Italy","latitude":"40.92569000","longitude":"15.40393000","wikiDataId":"Q2329271"},{"id":136551,"Name":"Calvanico","state_id":1669,"state_code":"72","state_name":"Campania","country_id":107,"country_code":"IT","country_name":"Italy","latitude":"40.77616000","longitude":"14.82697000","wikiDataId":"Q18503049"},{"id":136557,"Name":"Calvi","state_id":1669,"state_code":"72","state_name":"Campania","country_id":107,"country_code":"IT","country_name":"Italy","latitude":"41.07162000","longitude":"14.86524000","wikiDataId":"Q18503049"},{"id":136558,"Name":"Calvi Risorta","state_id":1669,"state_code":"72","state_name":"Campania","country_id":107,"country_code":"IT","country_name":"Italy","latitude":"41.21598000","longitude":"14.13092000","wikiDataId":"Q18503049"},{"id":136564,"Name":"Calvizzano","state_id":1669,"state_code":"72","state_name":"Campania","country_id":107,"country_code":"IT","country_name":"Italy","latitude":"40.90782000","longitude":"14.18581000","wikiDataId":"Q18429611"},{"id":136585,"Name":"Camerota","state_id":1669,"state_code":"72","state_name":"Campania","country_id":107,"country_code":"IT","country_name":"Italy","latitude":"40.03262000","longitude":"15.37048000","wikiDataId":"Q18502811"},{"id":136586,"Name":"Camigliano","state_id":1669,"state_code":"72","state_name":"Campania","country_id":107,"country_code":"IT","country_name":"Italy","latitude":"41.18116000","longitude":"14.20978000","wikiDataId":"Q18502811"},{"id":136599,"Name":"Campagna","state_id":1669,"state_code":"72","state_name":"Campania","country_id":107,"country_code":"IT","country_name":"Italy","latitude":"40.66661000","longitude":"15.10638000","wikiDataId":"Q18465414"},{"id":136608,"Name":"Campanarello","state_id":1669,"state_code":"72","state_name":"Campania","country_id":107,"country_code":"IT","country_name":"Italy","latitude":"41.04717000","longitude":"14.91418000","wikiDataId":"Q18434717"},{"id":136658,"Name":"Campolattaro","state_id":1669,"state_code":"72","state_name":"Campania","country_id":107,"country_code":"IT","country_name":"Italy","latitude":"41.28693000","longitude":"14.73043000","wikiDataId":"Q18461038"},{"id":136661,"Name":"Campoli del Monte Taburno","state_id":1669,"state_code":"72","state_name":"Campania","country_id":107,"country_code":"IT","country_name":"Italy","latitude":"41.13074000","longitude":"14.64649000","wikiDataId":"Q16536116"},{"id":136672,"Name":"Campora","state_id":1669,"state_code":"72","state_name":"Campania","country_id":107,"country_code":"IT","country_name":"Italy","latitude":"40.30541000","longitude":"15.29236000","wikiDataId":"Q18505155"},{"id":136680,"Name":"Camposano","state_id":1669,"state_code":"72","state_name":"Campania","country_id":107,"country_code":"IT","country_name":"Italy","latitude":"40.95242000","longitude":"14.52991000","wikiDataId":"Q37672"},{"id":136695,"Name":"Cancello-Arnone","state_id":1669,"state_code":"72","state_name":"Campania","country_id":107,"country_code":"IT","country_name":"Italy","latitude":"41.07340000","longitude":"14.02542000","wikiDataId":"Q16536208"},{"id":136703,"Name":"Candida","state_id":1669,"state_code":"72","state_name":"Campania","country_id":107,"country_code":"IT","country_name":"Italy","latitude":"40.94148000","longitude":"14.87230000","wikiDataId":"Q18501043"},{"id":136718,"Name":"Cannalonga","state_id":1669,"state_code":"72","state_name":"Campania","country_id":107,"country_code":"IT","country_name":"Italy","latitude":"40.24461000","longitude":"15.29325000","wikiDataId":"Q18426515"},{"id":136756,"Name":"Capaccio","state_id":1669,"state_code":"72","state_name":"Campania","country_id":107,"country_code":"IT","country_name":"Italy","latitude":"40.42435000","longitude":"15.07981000","wikiDataId":"Q30023629"},{"id":136757,"Name":"Capaccio Scalo","state_id":1669,"state_code":"72","state_name":"Campania","country_id":107,"country_code":"IT","country_name":"Italy","latitude":"40.45531000","longitude":"15.00891000","wikiDataId":"Q3656639"},{"id":136766,"Name":"Capezzano Inferiore","state_id":1669,"state_code":"72","state_name":"Campania","country_id":107,"country_code":"IT","country_name":"Italy","latitude":"40.70067000","longitude":"14.77301000","wikiDataId":"Q18437232"},{"id":136767,"Name":"Capezzano-Cologna","state_id":1669,"state_code":"72","state_name":"Campania","country_id":107,"country_code":"IT","country_name":"Italy","latitude":"40.71518000","longitude":"14.77364000","wikiDataId":"Q18437233"},{"id":136775,"Name":"Capitignano","state_id":1669,"state_code":"72","state_name":"Campania","country_id":107,"country_code":"IT","country_name":"Italy","latitude":"40.71851000","longitude":"14.90465000","wikiDataId":"Q18437235"},{"id":136782,"Name":"Capodrise","state_id":1669,"state_code":"72","state_name":"Campania","country_id":107,"country_code":"IT","country_name":"Italy","latitude":"41.04268000","longitude":"14.30607000","wikiDataId":"Q18496863"},{"id":136787,"Name":"Caposele","state_id":1669,"state_code":"72","state_name":"Campania","country_id":107,"country_code":"IT","country_name":"Italy","latitude":"40.81553000","longitude":"15.22337000","wikiDataId":"Q18496863"},{"id":136809,"Name":"Capri","state_id":1669,"state_code":"72","state_name":"Campania","country_id":107,"country_code":"IT","country_name":"Italy","latitude":"40.55073000","longitude":"14.24263000","wikiDataId":"Q18446560"},{"id":136816,"Name":"Capriati A Volturno","state_id":1669,"state_code":"72","state_name":"Campania","country_id":107,"country_code":"IT","country_name":"Italy","latitude":"41.46801000","longitude":"14.14602000","wikiDataId":"Q2642726"},{"id":136818,"Name":"Capriglia","state_id":1669,"state_code":"72","state_name":"Campania","country_id":107,"country_code":"IT","country_name":"Italy","latitude":"40.73216000","longitude":"14.76035000","wikiDataId":"Q2286295"},{"id":136819,"Name":"Capriglia Irpina","state_id":1669,"state_code":"72","state_name":"Campania","country_id":107,"country_code":"IT","country_name":"Italy","latitude":"40.96032000","longitude":"14.77724000","wikiDataId":"Q2286295"},{"id":136825,"Name":"Capua","state_id":1669,"state_code":"72","state_name":"Campania","country_id":107,"country_code":"IT","country_name":"Italy","latitude":"41.10519000","longitude":"14.21269000","wikiDataId":"Q18509327"},{"id":136832,"Name":"Carano","state_id":1669,"state_code":"72","state_name":"Campania","country_id":107,"country_code":"IT","country_name":"Italy","latitude":"41.20526000","longitude":"13.90972000","wikiDataId":"Q583609"},{"id":136847,"Name":"Carbonara di Nola","state_id":1669,"state_code":"72","state_name":"Campania","country_id":107,"country_code":"IT","country_name":"Italy","latitude":"40.87441000","longitude":"14.57884000","wikiDataId":"Q583609"},{"id":136862,"Name":"Cardito","state_id":1669,"state_code":"72","state_name":"Campania","country_id":107,"country_code":"IT","country_name":"Italy","latitude":"40.94590000","longitude":"14.29952000","wikiDataId":"Q18473181"},{"id":136875,"Name":"Carife","state_id":1669,"state_code":"72","state_name":"Campania","country_id":107,"country_code":"IT","country_name":"Italy","latitude":"41.02667000","longitude":"15.21044000","wikiDataId":"Q18473181"},{"id":136876,"Name":"Carifi-Torello-Priscoli","state_id":1669,"state_code":"72","state_name":"Campania","country_id":107,"country_code":"IT","country_name":"Italy","latitude":"40.79136000","longitude":"14.73212000","wikiDataId":"Q18437250"},{"id":136879,"Name":"Carinaro","state_id":1669,"state_code":"72","state_name":"Campania","country_id":107,"country_code":"IT","country_name":"Italy","latitude":"40.98291000","longitude":"14.21963000","wikiDataId":"Q18437250"},{"id":136881,"Name":"Carinola","state_id":1669,"state_code":"72","state_name":"Campania","country_id":107,"country_code":"IT","country_name":"Italy","latitude":"41.18775000","longitude":"13.98240000","wikiDataId":"Q18467565"},{"id":136956,"Name":"Casagiove","state_id":1669,"state_code":"72","state_name":"Campania","country_id":107,"country_code":"IT","country_name":"Italy","latitude":"41.07124000","longitude":"14.31163000","wikiDataId":"Q3661381"},{"id":136960,"Name":"Casal di Principe","state_id":1669,"state_code":"72","state_name":"Campania","country_id":107,"country_code":"IT","country_name":"Italy","latitude":"41.00996000","longitude":"14.13013000","wikiDataId":"Q3661381"},{"id":136959,"Name":"Casal Velino","state_id":1669,"state_code":"72","state_name":"Campania","country_id":107,"country_code":"IT","country_name":"Italy","latitude":"40.19034000","longitude":"15.11137000","wikiDataId":"Q3661381"},{"id":136966,"Name":"Casalbore","state_id":1669,"state_code":"72","state_name":"Campania","country_id":107,"country_code":"IT","country_name":"Italy","latitude":"41.23373000","longitude":"15.00752000","wikiDataId":"Q18423990"},{"id":136968,"Name":"Casalbuono","state_id":1669,"state_code":"72","state_name":"Campania","country_id":107,"country_code":"IT","country_name":"Italy","latitude":"40.21425000","longitude":"15.68717000","wikiDataId":"Q18423990"},{"id":136971,"Name":"Casalduni","state_id":1669,"state_code":"72","state_name":"Campania","country_id":107,"country_code":"IT","country_name":"Italy","latitude":"41.26080000","longitude":"14.69532000","wikiDataId":"Q18488132"},{"id":136972,"Name":"Casale","state_id":1669,"state_code":"72","state_name":"Campania","country_id":107,"country_code":"IT","country_name":"Italy","latitude":"41.21972000","longitude":"14.00231000","wikiDataId":"Q18436495"},{"id":136987,"Name":"Casaletto Spartano","state_id":1669,"state_code":"72","state_name":"Campania","country_id":107,"country_code":"IT","country_name":"Italy","latitude":"40.15134000","longitude":"15.62058000","wikiDataId":"Q18442111"},{"id":136994,"Name":"Casali-San Potito","state_id":1669,"state_code":"72","state_name":"Campania","country_id":107,"country_code":"IT","country_name":"Italy","latitude":"40.76390000","longitude":"14.67501000","wikiDataId":"Q18437266"},{"id":137004,"Name":"Casalnuovo di Napoli","state_id":1669,"state_code":"72","state_name":"Campania","country_id":107,"country_code":"IT","country_name":"Italy","latitude":"40.90969000","longitude":"14.34205000","wikiDataId":"Q3661449"},{"id":137009,"Name":"Casaluce","state_id":1669,"state_code":"72","state_name":"Campania","country_id":107,"country_code":"IT","country_name":"Italy","latitude":"40.99785000","longitude":"14.19671000","wikiDataId":"Q3661449"},{"id":137015,"Name":"Casamarciano","state_id":1669,"state_code":"72","state_name":"Campania","country_id":107,"country_code":"IT","country_name":"Italy","latitude":"40.93191000","longitude":"14.55324000","wikiDataId":"Q3661449"},{"id":137018,"Name":"Casamicciola Terme","state_id":1669,"state_code":"72","state_name":"Campania","country_id":107,"country_code":"IT","country_name":"Italy","latitude":"40.74661000","longitude":"13.91202000","wikiDataId":"Q3661466"},{"id":137019,"Name":"Casandrino","state_id":1669,"state_code":"72","state_name":"Campania","country_id":107,"country_code":"IT","country_name":"Italy","latitude":"40.92845000","longitude":"14.24744000","wikiDataId":"Q3661466"},{"id":137021,"Name":"Casanova","state_id":1669,"state_code":"72","state_name":"Campania","country_id":107,"country_code":"IT","country_name":"Italy","latitude":"41.19254000","longitude":"13.96344000","wikiDataId":"Q18436501"},{"id":137026,"Name":"Casapesenna","state_id":1669,"state_code":"72","state_name":"Campania","country_id":107,"country_code":"IT","country_name":"Italy","latitude":"40.99151000","longitude":"14.13613000","wikiDataId":"Q18436501"},{"id":137029,"Name":"Casapulla","state_id":1669,"state_code":"72","state_name":"Campania","country_id":107,"country_code":"IT","country_name":"Italy","latitude":"41.07665000","longitude":"14.28927000","wikiDataId":"Q18436501"},{"id":137031,"Name":"Casarea","state_id":1669,"state_code":"72","state_name":"Campania","country_id":107,"country_code":"IT","country_name":"Italy","latitude":"40.88828000","longitude":"14.36349000","wikiDataId":"Q18436901"},{"id":137041,"Name":"Casavatore","state_id":1669,"state_code":"72","state_name":"Campania","country_id":107,"country_code":"IT","country_name":"Italy","latitude":"40.89921000","longitude":"14.27663000","wikiDataId":"Q18491153"},{"id":137044,"Name":"Cascano","state_id":1669,"state_code":"72","state_name":"Campania","country_id":107,"country_code":"IT","country_name":"Italy","latitude":"41.23232000","longitude":"13.96927000","wikiDataId":"Q3661528"},{"id":137063,"Name":"Caselle in Pittari","state_id":1669,"state_code":"72","state_name":"Campania","country_id":107,"country_code":"IT","country_name":"Italy","latitude":"40.17319000","longitude":"15.54311000","wikiDataId":"Q18501464"},{"id":137065,"Name":"Caserta","state_id":1669,"state_code":"72","state_name":"Campania","country_id":107,"country_code":"IT","country_name":"Italy","latitude":"41.07262000","longitude":"14.33231000","wikiDataId":"Q18492558"},{"id":137077,"Name":"Casola","state_id":1669,"state_code":"72","state_name":"Campania","country_id":107,"country_code":"IT","country_name":"Italy","latitude":"41.09513000","longitude":"14.38172000","wikiDataId":"Q18436514"},{"id":137079,"Name":"Casola di Napoli","state_id":1669,"state_code":"72","state_name":"Campania","country_id":107,"country_code":"IT","country_name":"Italy","latitude":"40.69780000","longitude":"14.53006000","wikiDataId":"Q18436514"},{"id":137089,"Name":"Casoria","state_id":1669,"state_code":"72","state_name":"Campania","country_id":107,"country_code":"IT","country_name":"Italy","latitude":"40.90751000","longitude":"14.29300000","wikiDataId":"Q13212147"},{"id":137096,"Name":"Cassano Irpino","state_id":1669,"state_code":"72","state_name":"Campania","country_id":107,"country_code":"IT","country_name":"Italy","latitude":"40.87042000","longitude":"15.02595000","wikiDataId":"Q13212147"},{"id":137129,"Name":"Castel Baronia","state_id":1669,"state_code":"72","state_name":"Campania","country_id":107,"country_code":"IT","country_name":"Italy","latitude":"41.04832000","longitude":"15.18884000","wikiDataId":"Q2580352"},{"id":137132,"Name":"Castel Campagnano","state_id":1669,"state_code":"72","state_name":"Campania","country_id":107,"country_code":"IT","country_name":"Italy","latitude":"41.18240000","longitude":"14.45300000","wikiDataId":"Q2580352"},{"id":137174,"Name":"Castel di Sasso","state_id":1669,"state_code":"72","state_name":"Campania","country_id":107,"country_code":"IT","country_name":"Italy","latitude":"41.19242000","longitude":"14.27773000","wikiDataId":"Q18461236"},{"id":137146,"Name":"Castel Morrone","state_id":1669,"state_code":"72","state_name":"Campania","country_id":107,"country_code":"IT","country_name":"Italy","latitude":"41.12102000","longitude":"14.35473000","wikiDataId":"Q18454463"},{"id":137150,"Name":"Castel San Giorgio","state_id":1669,"state_code":"72","state_name":"Campania","country_id":107,"country_code":"IT","country_name":"Italy","latitude":"40.78198000","longitude":"14.70090000","wikiDataId":"Q18454463"},{"id":137152,"Name":"Castel San Lorenzo","state_id":1669,"state_code":"72","state_name":"Campania","country_id":107,"country_code":"IT","country_name":"Italy","latitude":"40.41979000","longitude":"15.22523000","wikiDataId":"Q18454463"},{"id":137161,"Name":"Castel Volturno","state_id":1669,"state_code":"72","state_name":"Campania","country_id":107,"country_code":"IT","country_name":"Italy","latitude":"41.03288000","longitude":"13.94354000","wikiDataId":"Q18454463"},{"id":137185,"Name":"Castelcivita","state_id":1669,"state_code":"72","state_name":"Campania","country_id":107,"country_code":"IT","country_name":"Italy","latitude":"40.49367000","longitude":"15.23354000","wikiDataId":"Q3662204"},{"id":137196,"Name":"Castelfranci","state_id":1669,"state_code":"72","state_name":"Campania","country_id":107,"country_code":"IT","country_name":"Italy","latitude":"40.93066000","longitude":"15.04331000","wikiDataId":"Q3662204"},{"id":137201,"Name":"Castelfranco in Miscano","state_id":1669,"state_code":"72","state_name":"Campania","country_id":107,"country_code":"IT","country_name":"Italy","latitude":"41.30072000","longitude":"15.08607000","wikiDataId":"Q52072"},{"id":137213,"Name":"Castellammare di Stabia","state_id":1669,"state_code":"72","state_name":"Campania","country_id":107,"country_code":"IT","country_name":"Italy","latitude":"40.70211000","longitude":"14.48685000","wikiDataId":"Q18426594"},{"id":137257,"Name":"Castello del Matese","state_id":1669,"state_code":"72","state_name":"Campania","country_id":107,"country_code":"IT","country_name":"Italy","latitude":"41.36672000","longitude":"14.37773000","wikiDataId":"Q18478844"},{"id":137261,"Name":"Castello di Cisterna","state_id":1669,"state_code":"72","state_name":"Campania","country_id":107,"country_code":"IT","country_name":"Italy","latitude":"40.91594000","longitude":"14.41117000","wikiDataId":"Q18478844"},{"id":137288,"Name":"Castelnuovo Cilento","state_id":1669,"state_code":"72","state_name":"Campania","country_id":107,"country_code":"IT","country_name":"Italy","latitude":"40.21846000","longitude":"15.17802000","wikiDataId":"Q18506114"},{"id":137300,"Name":"Castelnuovo di Conza","state_id":1669,"state_code":"72","state_name":"Campania","country_id":107,"country_code":"IT","country_name":"Italy","latitude":"40.82062000","longitude":"15.31875000","wikiDataId":"Q3663015"},{"id":137305,"Name":"Castelpagano","state_id":1669,"state_code":"72","state_name":"Campania","country_id":107,"country_code":"IT","country_name":"Italy","latitude":"41.40177000","longitude":"14.80711000","wikiDataId":"Q3663015"},{"id":137309,"Name":"Castelpoto","state_id":1669,"state_code":"72","state_name":"Campania","country_id":107,"country_code":"IT","country_name":"Italy","latitude":"41.14066000","longitude":"14.70069000","wikiDataId":"Q3663015"},{"id":137324,"Name":"Castelvenere","state_id":1669,"state_code":"72","state_name":"Campania","country_id":107,"country_code":"IT","country_name":"Italy","latitude":"41.23445000","longitude":"14.54750000","wikiDataId":"Q2163325"},{"id":137327,"Name":"Castelvetere in Val Fortore","state_id":1669,"state_code":"72","state_name":"Campania","country_id":107,"country_code":"IT","country_name":"Italy","latitude":"41.44257000","longitude":"14.94118000","wikiDataId":"Q2163325"},{"id":137328,"Name":"Castelvetere sul Calore","state_id":1669,"state_code":"72","state_name":"Campania","country_id":107,"country_code":"IT","country_name":"Italy","latitude":"40.92980000","longitude":"14.98640000","wikiDataId":"Q2163325"},{"id":137352,"Name":"Castiglione del Genovesi","state_id":1669,"state_code":"72","state_name":"Campania","country_id":107,"country_code":"IT","country_name":"Italy","latitude":"40.72367000","longitude":"14.84796000","wikiDataId":"Q18457021"},{"id":137400,"Name":"Cautano","state_id":1669,"state_code":"72","state_name":"Campania","country_id":107,"country_code":"IT","country_name":"Italy","latitude":"41.15009000","longitude":"14.64425000","wikiDataId":"Q18432160"},{"id":137401,"Name":"Cava DÃ¨ Tirreni","state_id":1669,"state_code":"72","state_name":"Campania","country_id":107,"country_code":"IT","country_name":"Italy","latitude":"40.69954000","longitude":"14.70773000","wikiDataId":"Q18432160"},{"id":137475,"Name":"Celle di Bulgheria","state_id":1669,"state_code":"72","state_name":"Campania","country_id":107,"country_code":"IT","country_name":"Italy","latitude":"40.09540000","longitude":"15.40324000","wikiDataId":"Q18496305"},{"id":137482,"Name":"Cellole","state_id":1669,"state_code":"72","state_name":"Campania","country_id":107,"country_code":"IT","country_name":"Italy","latitude":"41.20338000","longitude":"13.85332000","wikiDataId":"Q18496305"},{"id":137499,"Name":"Centola","state_id":1669,"state_code":"72","state_name":"Campania","country_id":107,"country_code":"IT","country_name":"Italy","latitude":"40.06980000","longitude":"15.31191000","wikiDataId":"Q3664473"},{"id":137503,"Name":"Centro Urbano","state_id":1669,"state_code":"72","state_name":"Campania","country_id":107,"country_code":"IT","country_name":"Italy","latitude":"40.81986000","longitude":"15.31953000","wikiDataId":"Q18437307"},{"id":137508,"Name":"Ceppaloni","state_id":1669,"state_code":"72","state_name":"Campania","country_id":107,"country_code":"IT","country_name":"Italy","latitude":"41.04523000","longitude":"14.76102000","wikiDataId":"Q13100637"},{"id":137517,"Name":"Ceraso","state_id":1669,"state_code":"72","state_name":"Campania","country_id":107,"country_code":"IT","country_name":"Italy","latitude":"40.19430000","longitude":"15.25606000","wikiDataId":"Q18432173"},{"id":137528,"Name":"Cercola","state_id":1669,"state_code":"72","state_name":"Campania","country_id":107,"country_code":"IT","country_name":"Italy","latitude":"40.86043000","longitude":"14.35733000","wikiDataId":"Q18492542"},{"id":137566,"Name":"Cerreto Sannita","state_id":1669,"state_code":"72","state_name":"Campania","country_id":107,"country_code":"IT","country_name":"Italy","latitude":"41.28296000","longitude":"14.56147000","wikiDataId":"Q18427252"},{"id":137595,"Name":"Cervinara","state_id":1669,"state_code":"72","state_name":"Campania","country_id":107,"country_code":"IT","country_name":"Italy","latitude":"41.02042000","longitude":"14.61444000","wikiDataId":"Q2914373"},{"id":137596,"Name":"Cervino","state_id":1669,"state_code":"72","state_name":"Campania","country_id":107,"country_code":"IT","country_name":"Italy","latitude":"41.04001000","longitude":"14.42403000","wikiDataId":"Q2914373"},{"id":137600,"Name":"Cesa","state_id":1669,"state_code":"72","state_name":"Campania","country_id":107,"country_code":"IT","country_name":"Italy","latitude":"40.96287000","longitude":"14.23081000","wikiDataId":"Q18436531"},{"id":137613,"Name":"Cesinali","state_id":1669,"state_code":"72","state_name":"Campania","country_id":107,"country_code":"IT","country_name":"Italy","latitude":"40.89711000","longitude":"14.82774000","wikiDataId":"Q18503199"},{"id":137620,"Name":"Cetara","state_id":1669,"state_code":"72","state_name":"Campania","country_id":107,"country_code":"IT","country_name":"Italy","latitude":"40.64756000","longitude":"14.70091000","wikiDataId":"Q18503199"},{"id":137638,"Name":"Chiaia","state_id":1669,"state_code":"72","state_name":"Campania","country_id":107,"country_code":"IT","country_name":"Italy","latitude":"40.83255000","longitude":"14.22677000","wikiDataId":"Q18495325"},{"id":137639,"Name":"Chiaiano","state_id":1669,"state_code":"72","state_name":"Campania","country_id":107,"country_code":"IT","country_name":"Italy","latitude":"40.88101000","longitude":"14.20759000","wikiDataId":"Q18495325"},{"id":137642,"Name":"Chianche","state_id":1669,"state_code":"72","state_name":"Campania","country_id":107,"country_code":"IT","country_name":"Italy","latitude":"41.04632000","longitude":"14.78904000","wikiDataId":"Q18495325"},{"id":137693,"Name":"Chiusano di San Domenico","state_id":1669,"state_code":"72","state_name":"Campania","country_id":107,"country_code":"IT","country_name":"Italy","latitude":"40.93312000","longitude":"14.91634000","wikiDataId":"Q2586177"},{"id":137709,"Name":"Cicciano","state_id":1669,"state_code":"72","state_name":"Campania","country_id":107,"country_code":"IT","country_name":"Italy","latitude":"40.96402000","longitude":"14.53487000","wikiDataId":"Q18496335"},{"id":137710,"Name":"Cicerale","state_id":1669,"state_code":"72","state_name":"Campania","country_id":107,"country_code":"IT","country_name":"Italy","latitude":"40.34404000","longitude":"15.12959000","wikiDataId":"Q18496335"},{"id":137726,"Name":"Cimitile","state_id":1669,"state_code":"72","state_name":"Campania","country_id":107,"country_code":"IT","country_name":"Italy","latitude":"40.94231000","longitude":"14.52558000","wikiDataId":"Q3676842"},{"id":137743,"Name":"Ciorlano","state_id":1669,"state_code":"72","state_name":"Campania","country_id":107,"country_code":"IT","country_name":"Italy","latitude":"41.45022000","longitude":"14.15832000","wikiDataId":"Q18490817"},{"id":137746,"Name":"Circello","state_id":1669,"state_code":"72","state_name":"Campania","country_id":107,"country_code":"IT","country_name":"Italy","latitude":"41.35455000","longitude":"14.80910000","wikiDataId":"Q18492580"},{"id":137864,"Name":"Colle Sannita","state_id":1669,"state_code":"72","state_name":"Campania","country_id":107,"country_code":"IT","country_name":"Italy","latitude":"41.36374000","longitude":"14.83450000","wikiDataId":"Q18454527"},{"id":137902,"Name":"Colliano","state_id":1669,"state_code":"72","state_name":"Campania","country_id":107,"country_code":"IT","country_name":"Italy","latitude":"40.72293000","longitude":"15.28969000","wikiDataId":"Q18454548"},{"id":137944,"Name":"Comiziano","state_id":1669,"state_code":"72","state_name":"Campania","country_id":107,"country_code":"IT","country_name":"Italy","latitude":"40.95163000","longitude":"14.55124000","wikiDataId":"Q18426684"},{"id":137954,"Name":"Conca dei Marini","state_id":1669,"state_code":"72","state_name":"Campania","country_id":107,"country_code":"IT","country_name":"Italy","latitude":"40.61754000","longitude":"14.57311000","wikiDataId":"Q3685939"},{"id":137955,"Name":"Conca della Campania","state_id":1669,"state_code":"72","state_name":"Campania","country_id":107,"country_code":"IT","country_name":"Italy","latitude":"41.33174000","longitude":"13.99142000","wikiDataId":"Q3685939"},{"id":137979,"Name":"Contrada","state_id":1669,"state_code":"72","state_name":"Campania","country_id":107,"country_code":"IT","country_name":"Italy","latitude":"40.86811000","longitude":"14.77747000","wikiDataId":"Q818317"},{"id":137981,"Name":"Controne","state_id":1669,"state_code":"72","state_name":"Campania","country_id":107,"country_code":"IT","country_name":"Italy","latitude":"40.51018000","longitude":"15.20404000","wikiDataId":"Q818317"},{"id":137982,"Name":"Contursi Terme","state_id":1669,"state_code":"72","state_name":"Campania","country_id":107,"country_code":"IT","country_name":"Italy","latitude":"40.65026000","longitude":"15.24163000","wikiDataId":"Q818317"},{"id":137985,"Name":"Coperchia","state_id":1669,"state_code":"72","state_name":"Campania","country_id":107,"country_code":"IT","country_name":"Italy","latitude":"40.72005000","longitude":"14.76654000","wikiDataId":"Q3690987"},{"id":137993,"Name":"Corbara","state_id":1669,"state_code":"72","state_name":"Campania","country_id":107,"country_code":"IT","country_name":"Italy","latitude":"40.72278000","longitude":"14.59187000","wikiDataId":"Q3693359"},{"id":138018,"Name":"Corleto Monforte","state_id":1669,"state_code":"72","state_name":"Campania","country_id":107,"country_code":"IT","country_name":"Italy","latitude":"40.43756000","longitude":"15.38013000","wikiDataId":"Q18429714"},{"id":138114,"Name":"Country Park","state_id":1669,"state_code":"72","state_name":"Campania","country_id":107,"country_code":"IT","country_name":"Italy","latitude":"40.88234000","longitude":"14.07786000","wikiDataId":"Q18436923"},{"id":138155,"Name":"Crispano","state_id":1669,"state_code":"72","state_name":"Campania","country_id":107,"country_code":"IT","country_name":"Italy","latitude":"40.95251000","longitude":"14.28993000","wikiDataId":"Q18429284"},{"id":138179,"Name":"Cuccaro Vetere","state_id":1669,"state_code":"72","state_name":"Campania","country_id":107,"country_code":"IT","country_name":"Italy","latitude":"40.16404000","longitude":"15.30677000","wikiDataId":"Q18495127"},{"id":138209,"Name":"Curti","state_id":1669,"state_code":"72","state_name":"Campania","country_id":107,"country_code":"IT","country_name":"Italy","latitude":"41.07616000","longitude":"14.28039000","wikiDataId":"Q18446005"},{"id":138212,"Name":"Cusano Mutri","state_id":1669,"state_code":"72","state_name":"Campania","country_id":107,"country_code":"IT","country_name":"Italy","latitude":"41.33624000","longitude":"14.51013000","wikiDataId":"Q18446005"},{"id":138290,"Name":"Domicella","state_id":1669,"state_code":"72","state_name":"Campania","country_id":107,"country_code":"IT","country_name":"Italy","latitude":"40.88019000","longitude":"14.58716000","wikiDataId":"Q18503257"},{"id":138325,"Name":"Dragonea","state_id":1669,"state_code":"72","state_name":"Campania","country_id":107,"country_code":"IT","country_name":"Italy","latitude":"40.67917000","longitude":"14.71094000","wikiDataId":"Q2792537"},{"id":138326,"Name":"Dragoni","state_id":1669,"state_code":"72","state_name":"Campania","country_id":107,"country_code":"IT","country_name":"Italy","latitude":"41.27619000","longitude":"14.30368000","wikiDataId":"Q2792537"},{"id":138340,"Name":"Dugenta","state_id":1669,"state_code":"72","state_name":"Campania","country_id":107,"country_code":"IT","country_name":"Italy","latitude":"41.13468000","longitude":"14.45353000","wikiDataId":"Q18443054"},{"id":138345,"Name":"Durazzano","state_id":1669,"state_code":"72","state_name":"Campania","country_id":107,"country_code":"IT","country_name":"Italy","latitude":"41.06286000","longitude":"14.44947000","wikiDataId":"Q18473292"},{"id":138348,"Name":"Eboli","state_id":1669,"state_code":"72","state_name":"Campania","country_id":107,"country_code":"IT","country_name":"Italy","latitude":"40.61747000","longitude":"15.05693000","wikiDataId":"Q18503084"},{"id":138372,"Name":"Ercolano","state_id":1669,"state_code":"72","state_name":"Campania","country_id":107,"country_code":"IT","country_name":"Italy","latitude":"40.80783000","longitude":"14.35012000","wikiDataId":"Q18494261"},{"id":138411,"Name":"Faiano","state_id":1669,"state_code":"72","state_name":"Campania","country_id":107,"country_code":"IT","country_name":"Italy","latitude":"40.66254000","longitude":"14.90244000","wikiDataId":"Q3738393"},{"id":138412,"Name":"Faicchio","state_id":1669,"state_code":"72","state_name":"Campania","country_id":107,"country_code":"IT","country_name":"Italy","latitude":"41.27816000","longitude":"14.47740000","wikiDataId":"Q3738393"},{"id":138414,"Name":"Falciano del Massico","state_id":1669,"state_code":"72","state_name":"Campania","country_id":107,"country_code":"IT","country_name":"Italy","latitude":"41.16271000","longitude":"13.94812000","wikiDataId":"Q18496478"},{"id":138444,"Name":"Faraldo-Nocelleto","state_id":1669,"state_code":"72","state_name":"Campania","country_id":107,"country_code":"IT","country_name":"Italy","latitude":"40.77992000","longitude":"14.76363000","wikiDataId":"Q18437384"},{"id":138470,"Name":"Felitto","state_id":1669,"state_code":"72","state_name":"Campania","country_id":107,"country_code":"IT","country_name":"Italy","latitude":"40.37351000","longitude":"15.24306000","wikiDataId":"Q18446847"},{"id":138545,"Name":"Fisciano","state_id":1669,"state_code":"72","state_name":"Campania","country_id":107,"country_code":"IT","country_name":"Italy","latitude":"40.77175000","longitude":"14.79454000","wikiDataId":"Q2156103"},{"id":138567,"Name":"Flumeri","state_id":1669,"state_code":"72","state_name":"Campania","country_id":107,"country_code":"IT","country_name":"Italy","latitude":"41.07623000","longitude":"15.15072000","wikiDataId":"Q2044"},{"id":138573,"Name":"Foglianise","state_id":1669,"state_code":"72","state_name":"Campania","country_id":107,"country_code":"IT","country_name":"Italy","latitude":"41.16127000","longitude":"14.67112000","wikiDataId":"Q3746952"},{"id":138579,"Name":"Foiano di Val Fortore","state_id":1669,"state_code":"72","state_name":"Campania","country_id":107,"country_code":"IT","country_name":"Italy","latitude":"41.35283000","longitude":"14.97635000","wikiDataId":"Q18445985"},{"id":138595,"Name":"Fontanarosa","state_id":1669,"state_code":"72","state_name":"Campania","country_id":107,"country_code":"IT","country_name":"Italy","latitude":"41.01812000","longitude":"15.02055000","wikiDataId":"Q18498055"},{"id":138611,"Name":"Fontegreca","state_id":1669,"state_code":"72","state_name":"Campania","country_id":107,"country_code":"IT","country_name":"Italy","latitude":"41.45653000","longitude":"14.18385000","wikiDataId":"Q3747504"},{"id":138620,"Name":"Forchia","state_id":1669,"state_code":"72","state_name":"Campania","country_id":107,"country_code":"IT","country_name":"Italy","latitude":"41.03144000","longitude":"14.53573000","wikiDataId":"Q18446857"},{"id":138629,"Name":"Forino","state_id":1669,"state_code":"72","state_name":"Campania","country_id":107,"country_code":"IT","country_name":"Italy","latitude":"40.85829000","longitude":"14.73254000","wikiDataId":"Q18504665"},{"id":138630,"Name":"Forio","state_id":1669,"state_code":"72","state_name":"Campania","country_id":107,"country_code":"IT","country_name":"Italy","latitude":"40.73757000","longitude":"13.86003000","wikiDataId":"Q18504665"},{"id":138638,"Name":"Formicola","state_id":1669,"state_code":"72","state_name":"Campania","country_id":107,"country_code":"IT","country_name":"Italy","latitude":"41.21084000","longitude":"14.23462000","wikiDataId":"Q18440987"},{"id":138688,"Name":"Fragneto L'Abate","state_id":1669,"state_code":"72","state_name":"Campania","country_id":107,"country_code":"IT","country_name":"Italy","latitude":"41.25580000","longitude":"14.78382000","wikiDataId":"Q321506"},{"id":138689,"Name":"Fragneto Monforte","state_id":1669,"state_code":"72","state_name":"Campania","country_id":107,"country_code":"IT","country_name":"Italy","latitude":"41.24634000","longitude":"14.76342000","wikiDataId":"Q321506"},{"id":138701,"Name":"Franche","state_id":1669,"state_code":"72","state_name":"Campania","country_id":107,"country_code":"IT","country_name":"Italy","latitude":"40.67175000","longitude":"14.52139000","wikiDataId":"Q18436943"},{"id":138705,"Name":"Francolise","state_id":1669,"state_code":"72","state_name":"Campania","country_id":107,"country_code":"IT","country_name":"Italy","latitude":"41.18501000","longitude":"14.05672000","wikiDataId":"Q3751712"},{"id":138718,"Name":"Frasso Telesino","state_id":1669,"state_code":"72","state_name":"Campania","country_id":107,"country_code":"IT","country_name":"Italy","latitude":"41.15682000","longitude":"14.52783000","wikiDataId":"Q3751712"},{"id":138722,"Name":"Frattamaggiore","state_id":1669,"state_code":"72","state_name":"Campania","country_id":107,"country_code":"IT","country_name":"Italy","latitude":"40.94140000","longitude":"14.27588000","wikiDataId":"Q3752466"},{"id":138723,"Name":"Frattaminore","state_id":1669,"state_code":"72","state_name":"Campania","country_id":107,"country_code":"IT","country_name":"Italy","latitude":"40.95580000","longitude":"14.27201000","wikiDataId":"Q3752466"},{"id":138733,"Name":"Frigento","state_id":1669,"state_code":"72","state_name":"Campania","country_id":107,"country_code":"IT","country_name":"Italy","latitude":"41.01103000","longitude":"15.10026000","wikiDataId":"Q776285"},{"id":138734,"Name":"Frignano","state_id":1669,"state_code":"72","state_name":"Campania","country_id":107,"country_code":"IT","country_name":"Italy","latitude":"40.99811000","longitude":"14.17913000","wikiDataId":"Q776285"},{"id":138752,"Name":"Fuorigrotta","state_id":1669,"state_code":"72","state_name":"Campania","country_id":107,"country_code":"IT","country_name":"Italy","latitude":"40.83333000","longitude":"14.20000000","wikiDataId":"Q1054523"},{"id":138753,"Name":"Fuorni","state_id":1669,"state_code":"72","state_name":"Campania","country_id":107,"country_code":"IT","country_name":"Italy","latitude":"40.64063000","longitude":"14.84925000","wikiDataId":"Q18437413"},{"id":138758,"Name":"Furore","state_id":1669,"state_code":"72","state_name":"Campania","country_id":107,"country_code":"IT","country_name":"Italy","latitude":"40.62061000","longitude":"14.54904000","wikiDataId":"Q3754734"},{"id":138764,"Name":"Futani","state_id":1669,"state_code":"72","state_name":"Campania","country_id":107,"country_code":"IT","country_name":"Italy","latitude":"40.15156000","longitude":"15.32366000","wikiDataId":"Q18496531"},{"id":138816,"Name":"Gallo","state_id":1669,"state_code":"72","state_name":"Campania","country_id":107,"country_code":"IT","country_name":"Italy","latitude":"41.46499000","longitude":"14.22519000","wikiDataId":"Q18436593"},{"id":138817,"Name":"Gallo Matese","state_id":1669,"state_code":"72","state_name":"Campania","country_id":107,"country_code":"IT","country_name":"Italy","latitude":"41.46452000","longitude":"14.22502000","wikiDataId":"Q18436593"},{"id":138820,"Name":"Galluccio","state_id":1669,"state_code":"72","state_name":"Campania","country_id":107,"country_code":"IT","country_name":"Italy","latitude":"41.35232000","longitude":"13.95372000","wikiDataId":"Q18492832"},{"id":138928,"Name":"Gesualdo","state_id":1669,"state_code":"72","state_name":"Campania","country_id":107,"country_code":"IT","country_name":"Italy","latitude":"41.00554000","longitude":"15.07262000","wikiDataId":"Q101135"},{"id":138942,"Name":"Giano Vetusto","state_id":1669,"state_code":"72","state_name":"Campania","country_id":107,"country_code":"IT","country_name":"Italy","latitude":"41.20272000","longitude":"14.19342000","wikiDataId":"Q3762446"},{"id":138957,"Name":"Giffoni Valle Piana","state_id":1669,"state_code":"72","state_name":"Campania","country_id":107,"country_code":"IT","country_name":"Italy","latitude":"40.71811000","longitude":"14.94235000","wikiDataId":"Q18506368"},{"id":138965,"Name":"Ginestra degli Schiavoni","state_id":1669,"state_code":"72","state_name":"Campania","country_id":107,"country_code":"IT","country_name":"Italy","latitude":"41.27992000","longitude":"15.04374000","wikiDataId":"Q18486951"},{"id":138967,"Name":"Gioi","state_id":1669,"state_code":"72","state_name":"Campania","country_id":107,"country_code":"IT","country_name":"Italy","latitude":"40.28970000","longitude":"15.21806000","wikiDataId":"Q18486951"},{"id":138968,"Name":"Gioia Sannitica","state_id":1669,"state_code":"72","state_name":"Campania","country_id":107,"country_code":"IT","country_name":"Italy","latitude":"41.29965000","longitude":"14.44381000","wikiDataId":"Q18486951"},{"id":138988,"Name":"Giugliano in Campania","state_id":1669,"state_code":"72","state_name":"Campania","country_id":107,"country_code":"IT","country_name":"Italy","latitude":"40.92849000","longitude":"14.20197000","wikiDataId":"Q18503320"},{"id":138995,"Name":"Giungano","state_id":1669,"state_code":"72","state_name":"Campania","country_id":107,"country_code":"IT","country_name":"Italy","latitude":"40.39450000","longitude":"15.10792000","wikiDataId":"Q18453758"},{"id":139056,"Name":"Gragnano","state_id":1669,"state_code":"72","state_name":"Campania","country_id":107,"country_code":"IT","country_name":"Italy","latitude":"40.68907000","longitude":"14.52036000","wikiDataId":"Q18498460"},{"id":139084,"Name":"Grazzanise","state_id":1669,"state_code":"72","state_name":"Campania","country_id":107,"country_code":"IT","country_name":"Italy","latitude":"41.08970000","longitude":"14.09878000","wikiDataId":"Q18492879"},{"id":139086,"Name":"Greci","state_id":1669,"state_code":"72","state_name":"Campania","country_id":107,"country_code":"IT","country_name":"Italy","latitude":"41.25182000","longitude":"15.16915000","wikiDataId":"Q18492879"},{"id":139096,"Name":"Gricignano di Aversa","state_id":1669,"state_code":"72","state_name":"Campania","country_id":107,"country_code":"IT","country_name":"Italy","latitude":"40.97973000","longitude":"14.23087000","wikiDataId":"Q1399965"},{"id":139122,"Name":"Grottaminarda","state_id":1669,"state_code":"72","state_name":"Campania","country_id":107,"country_code":"IT","country_name":"Italy","latitude":"41.06972000","longitude":"15.05894000","wikiDataId":"Q18468288"},{"id":139129,"Name":"Grottola","state_id":1669,"state_code":"72","state_name":"Campania","country_id":107,"country_code":"IT","country_name":"Italy","latitude":"41.31708000","longitude":"14.04121000","wikiDataId":"Q18436603"},{"id":139131,"Name":"Grottolella","state_id":1669,"state_code":"72","state_name":"Campania","country_id":107,"country_code":"IT","country_name":"Italy","latitude":"40.97144000","longitude":"14.78894000","wikiDataId":"Q18436603"},{"id":139140,"Name":"Grumo Nevano","state_id":1669,"state_code":"72","state_name":"Campania","country_id":107,"country_code":"IT","country_name":"Italy","latitude":"40.93591000","longitude":"14.25983000","wikiDataId":"Q30026259"},{"id":139159,"Name":"Guardia Lombardi","state_id":1669,"state_code":"72","state_name":"Campania","country_id":107,"country_code":"IT","country_name":"Italy","latitude":"40.95177000","longitude":"15.20878000","wikiDataId":"Q18429326"},{"id":139162,"Name":"Guardia Sanframondi","state_id":1669,"state_code":"72","state_name":"Campania","country_id":107,"country_code":"IT","country_name":"Italy","latitude":"41.25640000","longitude":"14.59851000","wikiDataId":"Q18429326"},{"id":139227,"Name":"Ischia","state_id":1669,"state_code":"72","state_name":"Campania","country_id":107,"country_code":"IT","country_name":"Italy","latitude":"40.73793000","longitude":"13.94862000","wikiDataId":"Q6079171"},{"id":139228,"Name":"Ischia Porto","state_id":1669,"state_code":"72","state_name":"Campania","country_id":107,"country_code":"IT","country_name":"Italy","latitude":"40.73913000","longitude":"13.95100000","wikiDataId":"Q18436956"},{"id":139258,"Name":"Ispani","state_id":1669,"state_code":"72","state_name":"Campania","country_id":107,"country_code":"IT","country_name":"Italy","latitude":"40.08730000","longitude":"15.55827000","wikiDataId":"Q18457884"},{"id":139313,"Name":"Lacco Ameno","state_id":1669,"state_code":"72","state_name":"Campania","country_id":107,"country_code":"IT","country_name":"Italy","latitude":"40.74901000","longitude":"13.88718000","wikiDataId":"Q18443484"},{"id":139314,"Name":"Lacedonia","state_id":1669,"state_code":"72","state_name":"Campania","country_id":107,"country_code":"IT","country_name":"Italy","latitude":"41.05022000","longitude":"15.42169000","wikiDataId":"Q18443484"},{"id":139355,"Name":"Lancusi-Penta-Bolano","state_id":1669,"state_code":"72","state_name":"Campania","country_id":107,"country_code":"IT","country_name":"Italy","latitude":"40.76125000","longitude":"14.78524000","wikiDataId":"Q18437448"},{"id":139364,"Name":"Lanzara","state_id":1669,"state_code":"72","state_name":"Campania","country_id":107,"country_code":"IT","country_name":"Italy","latitude":"40.77473000","longitude":"14.67619000","wikiDataId":"Q1910856"},{"id":139368,"Name":"Lapio","state_id":1669,"state_code":"72","state_name":"Campania","country_id":107,"country_code":"IT","country_name":"Italy","latitude":"40.98293000","longitude":"14.94650000","wikiDataId":"Q1910856"},{"id":139396,"Name":"Laura","state_id":1669,"state_code":"72","state_name":"Campania","country_id":107,"country_code":"IT","country_name":"Italy","latitude":"40.43220000","longitude":"14.98886000","wikiDataId":"Q3827711"},{"id":139397,"Name":"Laureana Cilento","state_id":1669,"state_code":"72","state_name":"Campania","country_id":107,"country_code":"IT","country_name":"Italy","latitude":"40.30110000","longitude":"15.03876000","wikiDataId":"Q3827711"},{"id":139404,"Name":"Laurino","state_id":1669,"state_code":"72","state_name":"Campania","country_id":107,"country_code":"IT","country_name":"Italy","latitude":"40.33915000","longitude":"15.33810000","wikiDataId":"Q3827954"},{"id":139405,"Name":"Laurito","state_id":1669,"state_code":"72","state_name":"Campania","country_id":107,"country_code":"IT","country_name":"Italy","latitude":"40.16915000","longitude":"15.40741000","wikiDataId":"Q3827954"},{"id":139406,"Name":"Lauro","state_id":1669,"state_code":"72","state_name":"Campania","country_id":107,"country_code":"IT","country_name":"Italy","latitude":"40.87972000","longitude":"14.63013000","wikiDataId":"Q3827954"},{"id":139415,"Name":"Laviano","state_id":1669,"state_code":"72","state_name":"Campania","country_id":107,"country_code":"IT","country_name":"Italy","latitude":"40.78619000","longitude":"15.30791000","wikiDataId":"Q3828055"},{"id":139476,"Name":"Letino","state_id":1669,"state_code":"72","state_name":"Campania","country_id":107,"country_code":"IT","country_name":"Italy","latitude":"41.45302000","longitude":"14.25542000","wikiDataId":"Q3830940"},{"id":139478,"Name":"Lettere","state_id":1669,"state_code":"72","state_name":"Campania","country_id":107,"country_code":"IT","country_name":"Italy","latitude":"40.70491000","longitude":"14.54494000","wikiDataId":"Q3830940"},{"id":139492,"Name":"Liberi","state_id":1669,"state_code":"72","state_name":"Campania","country_id":107,"country_code":"IT","country_name":"Italy","latitude":"41.22648000","longitude":"14.28985000","wikiDataId":"Q384901"},{"id":139497,"Name":"Licinella-Torre di Paestum","state_id":1669,"state_code":"72","state_name":"Campania","country_id":107,"country_code":"IT","country_name":"Italy","latitude":"40.40656000","longitude":"14.99764000","wikiDataId":"Q18437457"},{"id":139499,"Name":"Licusati","state_id":1669,"state_code":"72","state_name":"Campania","country_id":107,"country_code":"IT","country_name":"Italy","latitude":"40.05410000","longitude":"15.36437000","wikiDataId":"Q2293201"},{"id":139516,"Name":"Limatola","state_id":1669,"state_code":"72","state_name":"Campania","country_id":107,"country_code":"IT","country_name":"Italy","latitude":"41.14012000","longitude":"14.39437000","wikiDataId":"Q18439419"},{"id":139532,"Name":"Lioni","state_id":1669,"state_code":"72","state_name":"Campania","country_id":107,"country_code":"IT","country_name":"Italy","latitude":"40.88083000","longitude":"15.18335000","wikiDataId":"Q3832885"},{"id":139546,"Name":"Liveri","state_id":1669,"state_code":"72","state_name":"Campania","country_id":107,"country_code":"IT","country_name":"Italy","latitude":"40.90406000","longitude":"14.56536000","wikiDataId":"Q18504234"},{"id":139662,"Name":"Luogosano","state_id":1669,"state_code":"72","state_name":"Campania","country_id":107,"country_code":"IT","country_name":"Italy","latitude":"40.98643000","longitude":"14.99206000","wikiDataId":"Q18429882"},{"id":139670,"Name":"Lusciano","state_id":1669,"state_code":"72","state_name":"Campania","country_id":107,"country_code":"IT","country_name":"Italy","latitude":"40.97001000","longitude":"14.19043000","wikiDataId":"Q18429882"},{"id":139679,"Name":"Lustra","state_id":1669,"state_code":"72","state_name":"Campania","country_id":107,"country_code":"IT","country_name":"Italy","latitude":"40.28830000","longitude":"15.06826000","wikiDataId":"Q18443561"},{"id":139683,"Name":"Luzzano","state_id":1669,"state_code":"72","state_name":"Campania","country_id":107,"country_code":"IT","country_name":"Italy","latitude":"41.06818000","longitude":"14.53611000","wikiDataId":"Q3840960"},{"id":139690,"Name":"Macchia","state_id":1669,"state_code":"72","state_name":"Campania","country_id":107,"country_code":"IT","country_name":"Italy","latitude":"40.65353000","longitude":"14.97879000","wikiDataId":"Q376481"},{"id":139694,"Name":"Maccoli-Perrillo","state_id":1669,"state_code":"72","state_name":"Campania","country_id":107,"country_code":"IT","country_name":"Italy","latitude":"41.08762000","longitude":"14.80585000","wikiDataId":"Q18436087"},{"id":139697,"Name":"Macerata Campania","state_id":1669,"state_code":"72","state_name":"Campania","country_id":107,"country_code":"IT","country_name":"Italy","latitude":"41.06327000","longitude":"14.27750000","wikiDataId":"Q18436087"},{"id":139706,"Name":"Maddaloni","state_id":1669,"state_code":"72","state_name":"Campania","country_id":107,"country_code":"IT","country_name":"Italy","latitude":"41.03578000","longitude":"14.38230000","wikiDataId":"Q18495873"},{"id":139728,"Name":"Magliano Vetere","state_id":1669,"state_code":"72","state_name":"Campania","country_id":107,"country_code":"IT","country_name":"Italy","latitude":"40.34701000","longitude":"15.23666000","wikiDataId":"Q3068279"},{"id":139749,"Name":"Maiori","state_id":1669,"state_code":"72","state_name":"Campania","country_id":107,"country_code":"IT","country_name":"Italy","latitude":"40.64848000","longitude":"14.64070000","wikiDataId":"Q18504926"},{"id":139759,"Name":"Malche-Santa Croce-Serroni","state_id":1669,"state_code":"72","state_name":"Campania","country_id":107,"country_code":"IT","country_name":"Italy","latitude":"40.70925000","longitude":"14.90668000","wikiDataId":"Q18437479"},{"id":139801,"Name":"Manocalzati","state_id":1669,"state_code":"72","state_name":"Campania","country_id":107,"country_code":"IT","country_name":"Italy","latitude":"40.94151000","longitude":"14.84767000","wikiDataId":"Q18458058"},{"id":139827,"Name":"Marano di Napoli","state_id":1669,"state_code":"72","state_name":"Campania","country_id":107,"country_code":"IT","country_name":"Italy","latitude":"40.89710000","longitude":"14.18824000","wikiDataId":"Q377395"},{"id":139847,"Name":"Marcianise","state_id":1669,"state_code":"72","state_name":"Campania","country_id":107,"country_code":"IT","country_name":"Italy","latitude":"41.03064000","longitude":"14.29868000","wikiDataId":"Q18504949"},{"id":139870,"Name":"Mariglianella","state_id":1669,"state_code":"72","state_name":"Campania","country_id":107,"country_code":"IT","country_name":"Italy","latitude":"40.92962000","longitude":"14.43703000","wikiDataId":"Q18491015"},{"id":139871,"Name":"Marigliano","state_id":1669,"state_code":"72","state_name":"Campania","country_id":107,"country_code":"IT","country_name":"Italy","latitude":"40.92480000","longitude":"14.45612000","wikiDataId":"Q18491015"},{"id":139878,"Name":"Marina di Camerota","state_id":1669,"state_code":"72","state_name":"Campania","country_id":107,"country_code":"IT","country_name":"Italy","latitude":"40.00356000","longitude":"15.36717000","wikiDataId":"Q1898350"},{"id":139882,"Name":"Marina di Casal Velino","state_id":1669,"state_code":"72","state_name":"Campania","country_id":107,"country_code":"IT","country_name":"Italy","latitude":"40.17665000","longitude":"15.12218000","wikiDataId":"Q16965"},{"id":139944,"Name":"Marzanello","state_id":1669,"state_code":"72","state_name":"Campania","country_id":107,"country_code":"IT","country_name":"Italy","latitude":"41.31447000","longitude":"14.11611000","wikiDataId":"Q18436637"},{"id":139946,"Name":"Marzano Appio","state_id":1669,"state_code":"72","state_name":"Campania","country_id":107,"country_code":"IT","country_name":"Italy","latitude":"41.31772000","longitude":"14.04502000","wikiDataId":"Q18436637"},{"id":139947,"Name":"Marzano di Nola","state_id":1669,"state_code":"72","state_name":"Campania","country_id":107,"country_code":"IT","country_name":"Italy","latitude":"40.90141000","longitude":"14.58359000","wikiDataId":"Q18436637"},{"id":139976,"Name":"Massa di Somma","state_id":1669,"state_code":"72","state_name":"Campania","country_id":107,"country_code":"IT","country_name":"Italy","latitude":"40.84551000","longitude":"14.37513000","wikiDataId":"Q95114"},{"id":139972,"Name":"Massa Lubrense","state_id":1669,"state_code":"72","state_name":"Campania","country_id":107,"country_code":"IT","country_name":"Italy","latitude":"40.60937000","longitude":"14.37202000","wikiDataId":"Q95114"},{"id":139985,"Name":"Masseria Vecchia Ovest","state_id":1669,"state_code":"72","state_name":"Campania","country_id":107,"country_code":"IT","country_name":"Italy","latitude":"40.88966000","longitude":"14.06573000","wikiDataId":"Q18436979"},{"id":139996,"Name":"Matinella","state_id":1669,"state_code":"72","state_name":"Campania","country_id":107,"country_code":"IT","country_name":"Italy","latitude":"40.50158000","longitude":"15.06692000","wikiDataId":"Q3851884"},{"id":140051,"Name":"Melito di Napoli","state_id":1669,"state_code":"72","state_name":"Campania","country_id":107,"country_code":"IT","country_name":"Italy","latitude":"40.91948000","longitude":"14.23104000","wikiDataId":"Q18464144"},{"id":140050,"Name":"Melito Irpino","state_id":1669,"state_code":"72","state_name":"Campania","country_id":107,"country_code":"IT","country_name":"Italy","latitude":"41.10312000","longitude":"15.05235000","wikiDataId":"Q18464144"},{"id":140053,"Name":"Melizzano","state_id":1669,"state_code":"72","state_name":"Campania","country_id":107,"country_code":"IT","country_name":"Italy","latitude":"41.16181000","longitude":"14.50554000","wikiDataId":"Q18464144"},{"id":140076,"Name":"Mercato","state_id":1669,"state_code":"72","state_name":"Campania","country_id":107,"country_code":"IT","country_name":"Italy","latitude":"40.71612000","longitude":"14.94010000","wikiDataId":"Q1921150"},{"id":140077,"Name":"Mercato San Severino","state_id":1669,"state_code":"72","state_name":"Campania","country_id":107,"country_code":"IT","country_name":"Italy","latitude":"40.78468000","longitude":"14.75369000","wikiDataId":"Q1921150"},{"id":140081,"Name":"Mercogliano","state_id":1669,"state_code":"72","state_name":"Campania","country_id":107,"country_code":"IT","country_name":"Italy","latitude":"40.92157000","longitude":"14.74491000","wikiDataId":"Q18498550"},{"id":140101,"Name":"Meta","state_id":1669,"state_code":"72","state_name":"Campania","country_id":107,"country_code":"IT","country_name":"Italy","latitude":"40.64081000","longitude":"14.41582000","wikiDataId":"Q541405"},{"id":140127,"Name":"Miano","state_id":1669,"state_code":"72","state_name":"Campania","country_id":107,"country_code":"IT","country_name":"Italy","latitude":"40.88816000","longitude":"14.25339000","wikiDataId":"Q1058685"},{"id":140141,"Name":"Mignano Monte Lungo","state_id":1669,"state_code":"72","state_name":"Campania","country_id":107,"country_code":"IT","country_name":"Italy","latitude":"41.40592000","longitude":"13.98552000","wikiDataId":"Q18502020"},{"id":140161,"Name":"Minori","state_id":1669,"state_code":"72","state_name":"Campania","country_id":107,"country_code":"IT","country_name":"Italy","latitude":"40.65030000","longitude":"14.62684000","wikiDataId":"Q18499364"},{"id":140167,"Name":"Mirabella Eclano","state_id":1669,"state_code":"72","state_name":"Campania","country_id":107,"country_code":"IT","country_name":"Italy","latitude":"41.04496000","longitude":"15.00022000","wikiDataId":"Q3858689"},{"id":140202,"Name":"Moiano","state_id":1669,"state_code":"72","state_name":"Campania","country_id":107,"country_code":"IT","country_name":"Italy","latitude":"41.07968000","longitude":"14.54431000","wikiDataId":"Q18452223"},{"id":140207,"Name":"Moio della Civitella-Pellare","state_id":1669,"state_code":"72","state_name":"Campania","country_id":107,"country_code":"IT","country_name":"Italy","latitude":"40.24710000","longitude":"15.26886000","wikiDataId":"Q2243749"},{"id":140216,"Name":"Molinara","state_id":1669,"state_code":"72","state_name":"Campania","country_id":107,"country_code":"IT","country_name":"Italy","latitude":"41.29728000","longitude":"14.90867000","wikiDataId":"Q493047"},{"id":140276,"Name":"Mondragone","state_id":1669,"state_code":"72","state_name":"Campania","country_id":107,"country_code":"IT","country_name":"Italy","latitude":"41.11399000","longitude":"13.89157000","wikiDataId":"Q17636589"},{"id":140313,"Name":"Montaguto","state_id":1669,"state_code":"72","state_name":"Campania","country_id":107,"country_code":"IT","country_name":"Italy","latitude":"41.24873000","longitude":"15.24845000","wikiDataId":"Q1985002"},{"id":140343,"Name":"Montano Antilia","state_id":1669,"state_code":"72","state_name":"Campania","country_id":107,"country_code":"IT","country_name":"Italy","latitude":"40.16264000","longitude":"15.36315000","wikiDataId":"Q18487688"},{"id":140385,"Name":"Monte di Procida","state_id":1669,"state_code":"72","state_name":"Campania","country_id":107,"country_code":"IT","country_name":"Italy","latitude":"40.79809000","longitude":"14.05023000","wikiDataId":"Q18453228"},{"id":140369,"Name":"Monte San Giacomo","state_id":1669,"state_code":"72","state_name":"Campania","country_id":107,"country_code":"IT","country_name":"Italy","latitude":"40.34411000","longitude":"15.54221000","wikiDataId":"Q18454858"},{"id":140395,"Name":"Montecalvario","state_id":1669,"state_code":"72","state_name":"Campania","country_id":107,"country_code":"IT","country_name":"Italy","latitude":"40.84436000","longitude":"14.24555000","wikiDataId":"Q18487145"},{"id":140396,"Name":"Montecalvo Irpino","state_id":1669,"state_code":"72","state_name":"Campania","country_id":107,"country_code":"IT","country_name":"Italy","latitude":"41.19616000","longitude":"15.03446000","wikiDataId":"Q18487145"},{"id":140420,"Name":"Montecorice","state_id":1669,"state_code":"72","state_name":"Campania","country_id":107,"country_code":"IT","country_name":"Italy","latitude":"40.23444000","longitude":"14.98504000","wikiDataId":"Q3862220"},{"id":140421,"Name":"Montecorvino Pugliano","state_id":1669,"state_code":"72","state_name":"Campania","country_id":107,"country_code":"IT","country_name":"Italy","latitude":"40.67921000","longitude":"14.94475000","wikiDataId":"Q3862220"},{"id":140422,"Name":"Montecorvino Rovella","state_id":1669,"state_code":"72","state_name":"Campania","country_id":107,"country_code":"IT","country_name":"Italy","latitude":"40.69180000","longitude":"14.97862000","wikiDataId":"Q3862220"},{"id":140426,"Name":"Montedecoro","state_id":1669,"state_code":"72","state_name":"Campania","country_id":107,"country_code":"IT","country_name":"Italy","latitude":"41.02772000","longitude":"14.41774000","wikiDataId":"Q18436663"},{"id":140429,"Name":"Montefalcione","state_id":1669,"state_code":"72","state_name":"Campania","country_id":107,"country_code":"IT","country_name":"Italy","latitude":"40.96173000","longitude":"14.88312000","wikiDataId":"Q18436663"},{"id":140432,"Name":"Montefalcone di Val Fortore","state_id":1669,"state_code":"72","state_name":"Campania","country_id":107,"country_code":"IT","country_name":"Italy","latitude":"41.32430000","longitude":"15.00898000","wikiDataId":"Q18436663"},{"id":140443,"Name":"Monteforte Cilento","state_id":1669,"state_code":"72","state_name":"Campania","country_id":107,"country_code":"IT","country_name":"Italy","latitude":"40.36481000","longitude":"15.19486000","wikiDataId":"Q18436663"},{"id":140444,"Name":"Monteforte Irpino","state_id":1669,"state_code":"72","state_name":"Campania","country_id":107,"country_code":"IT","country_name":"Italy","latitude":"40.90246000","longitude":"14.74400000","wikiDataId":"Q18436663"},{"id":140448,"Name":"Montefredane","state_id":1669,"state_code":"72","state_name":"Campania","country_id":107,"country_code":"IT","country_name":"Italy","latitude":"40.95978000","longitude":"14.81374000","wikiDataId":"Q18494838"},{"id":140449,"Name":"Montefusco","state_id":1669,"state_code":"72","state_name":"Campania","country_id":107,"country_code":"IT","country_name":"Italy","latitude":"41.03691000","longitude":"14.85498000","wikiDataId":"Q18494838"},{"id":140476,"Name":"Montella","state_id":1669,"state_code":"72","state_name":"Campania","country_id":107,"country_code":"IT","country_name":"Italy","latitude":"40.84372000","longitude":"15.01785000","wikiDataId":"Q18443845"},{"id":140487,"Name":"Montemarano","state_id":1669,"state_code":"72","state_name":"Campania","country_id":107,"country_code":"IT","country_name":"Italy","latitude":"40.91414000","longitude":"14.99766000","wikiDataId":"Q18443845"},{"id":140494,"Name":"Montemiletto","state_id":1669,"state_code":"72","state_name":"Campania","country_id":107,"country_code":"IT","country_name":"Italy","latitude":"41.01168000","longitude":"14.90034000","wikiDataId":"Q18498395"},{"id":140529,"Name":"Monterusciello","state_id":1669,"state_code":"72","state_name":"Campania","country_id":107,"country_code":"IT","country_name":"Italy","latitude":"40.86874000","longitude":"14.08276000","wikiDataId":"Q3862386"},{"id":140531,"Name":"Montesano sulla Marcellana","state_id":1669,"state_code":"72","state_name":"Campania","country_id":107,"country_code":"IT","country_name":"Italy","latitude":"40.27610000","longitude":"15.70390000","wikiDataId":"Q3862386"},{"id":140532,"Name":"Montesarchio","state_id":1669,"state_code":"72","state_name":"Campania","country_id":107,"country_code":"IT","country_name":"Italy","latitude":"41.06227000","longitude":"14.64096000","wikiDataId":"Q1051478"},{"id":140549,"Name":"Monteverde","state_id":1669,"state_code":"72","state_name":"Campania","country_id":107,"country_code":"IT","country_name":"Italy","latitude":"40.99858000","longitude":"15.53361000","wikiDataId":"Q18487695"},{"id":140558,"Name":"Monticelli","state_id":1669,"state_code":"72","state_name":"Campania","country_id":107,"country_code":"IT","country_name":"Italy","latitude":"40.65000000","longitude":"15.01667000","wikiDataId":"Q18437536"},{"id":140587,"Name":"Montoro Superiore","state_id":1669,"state_code":"72","state_name":"Campania","country_id":107,"country_code":"IT","country_name":"Italy","latitude":"40.81699000","longitude":"14.79841000","wikiDataId":"Q6906139"},{"id":140606,"Name":"Morcone","state_id":1669,"state_code":"72","state_name":"Campania","country_id":107,"country_code":"IT","country_name":"Italy","latitude":"41.34269000","longitude":"14.66889000","wikiDataId":"Q6906139"},{"id":140618,"Name":"Morigerati","state_id":1669,"state_code":"72","state_name":"Campania","country_id":107,"country_code":"IT","country_name":"Italy","latitude":"40.14056000","longitude":"15.55508000","wikiDataId":"Q6906139"},{"id":140631,"Name":"Morra de Sanctis","state_id":1669,"state_code":"72","state_name":"Campania","country_id":107,"country_code":"IT","country_name":"Italy","latitude":"40.92902000","longitude":"15.24285000","wikiDataId":"Q18493112"},{"id":140645,"Name":"Moschiano","state_id":1669,"state_code":"72","state_name":"Campania","country_id":107,"country_code":"IT","country_name":"Italy","latitude":"40.87311000","longitude":"14.65594000","wikiDataId":"Q18481264"},{"id":140679,"Name":"Mugnano del Cardinale","state_id":1669,"state_code":"72","state_name":"Campania","country_id":107,"country_code":"IT","country_name":"Italy","latitude":"40.94248000","longitude":"14.63610000","wikiDataId":"Q18490630"},{"id":140680,"Name":"Mugnano di Napoli","state_id":1669,"state_code":"72","state_name":"Campania","country_id":107,"country_code":"IT","country_name":"Italy","latitude":"40.90936000","longitude":"14.20984000","wikiDataId":"Q18490630"},{"id":140697,"Name":"Musci","state_id":1669,"state_code":"72","state_name":"Campania","country_id":107,"country_code":"IT","country_name":"Italy","latitude":"40.87861000","longitude":"14.36600000","wikiDataId":"Q18437000"},{"id":140713,"Name":"Naples","state_id":1669,"state_code":"72","state_name":"Campania","country_id":107,"country_code":"IT","country_name":"Italy","latitude":"40.85216000","longitude":"14.26811000","wikiDataId":"Q30028139"},{"id":140714,"Name":"Napoli","state_id":1669,"state_code":"72","state_name":"Campania","country_id":107,"country_code":"IT","country_name":"Italy","latitude":"40.88333000","longitude":"14.41667000","wikiDataId":"Q18241891"},{"id":140781,"Name":"Nocelleto","state_id":1669,"state_code":"72","state_name":"Campania","country_id":107,"country_code":"IT","country_name":"Italy","latitude":"41.17067000","longitude":"14.01565000","wikiDataId":"Q18436670"},{"id":140782,"Name":"Nocera Inferiore","state_id":1669,"state_code":"72","state_name":"Campania","country_id":107,"country_code":"IT","country_name":"Italy","latitude":"40.74540000","longitude":"14.64542000","wikiDataId":"Q18436670"},{"id":140784,"Name":"Nocera Superiore","state_id":1669,"state_code":"72","state_name":"Campania","country_id":107,"country_code":"IT","country_name":"Italy","latitude":"40.74248000","longitude":"14.67447000","wikiDataId":"Q18429380"},{"id":140797,"Name":"Nola","state_id":1669,"state_code":"72","state_name":"Campania","country_id":107,"country_code":"IT","country_name":"Italy","latitude":"40.92606000","longitude":"14.52816000","wikiDataId":"Q30028227"},{"id":140836,"Name":"Novi Velia","state_id":1669,"state_code":"72","state_name":"Campania","country_id":107,"country_code":"IT","country_name":"Italy","latitude":"40.22262000","longitude":"15.28600000","wikiDataId":"Q55831765"},{"id":140850,"Name":"Nuova Conza della Campania","state_id":1669,"state_code":"72","state_name":"Campania","country_id":107,"country_code":"IT","country_name":"Italy","latitude":"40.85860000","longitude":"15.33645000","wikiDataId":"Q2529258"},{"id":140861,"Name":"Nusco","state_id":1669,"state_code":"72","state_name":"Campania","country_id":107,"country_code":"IT","country_name":"Italy","latitude":"40.88820000","longitude":"15.09185000","wikiDataId":"Q18449899"},{"id":140883,"Name":"Ogliastro Cilento","state_id":1669,"state_code":"72","state_name":"Campania","country_id":107,"country_code":"IT","country_name":"Italy","latitude":"40.35113000","longitude":"15.04638000","wikiDataId":"Q18487724"},{"id":140891,"Name":"Olevano sul Tusciano","state_id":1669,"state_code":"72","state_name":"Campania","country_id":107,"country_code":"IT","country_name":"Italy","latitude":"40.65721000","longitude":"15.02305000","wikiDataId":"Q18487724"},{"id":140901,"Name":"Oliveto Citra","state_id":1669,"state_code":"72","state_name":"Campania","country_id":107,"country_code":"IT","country_name":"Italy","latitude":"40.69039000","longitude":"15.23346000","wikiDataId":"Q18448462"},{"id":140919,"Name":"Omignano","state_id":1669,"state_code":"72","state_name":"Campania","country_id":107,"country_code":"IT","country_name":"Italy","latitude":"40.24932000","longitude":"15.08406000","wikiDataId":"Q18498443"},{"id":140968,"Name":"Orria","state_id":1669,"state_code":"72","state_name":"Campania","country_id":107,"country_code":"IT","country_name":"Italy","latitude":"40.29971000","longitude":"15.17116000","wikiDataId":"Q3885522"},{"id":140979,"Name":"Orta di Atella","state_id":1669,"state_code":"72","state_name":"Campania","country_id":107,"country_code":"IT","country_name":"Italy","latitude":"40.96441000","longitude":"14.26854000","wikiDataId":"Q18452368"},{"id":141020,"Name":"Ospedaletto d'Alpinolo","state_id":1669,"state_code":"72","state_name":"Campania","country_id":107,"country_code":"IT","country_name":"Italy","latitude":"40.93906000","longitude":"14.74652000","wikiDataId":"Q18447903"},{"id":141048,"Name":"Ottati","state_id":1669,"state_code":"72","state_name":"Campania","country_id":107,"country_code":"IT","country_name":"Italy","latitude":"40.46291000","longitude":"15.31526000","wikiDataId":"Q18493275"},{"id":141050,"Name":"Ottaviano","state_id":1669,"state_code":"72","state_name":"Campania","country_id":107,"country_code":"IT","country_name":"Italy","latitude":"40.85193000","longitude":"14.47826000","wikiDataId":"Q3887155"},{"id":141088,"Name":"Padula","state_id":1669,"state_code":"72","state_name":"Campania","country_id":107,"country_code":"IT","country_name":"Italy","latitude":"40.33901000","longitude":"15.65634000","wikiDataId":"Q16585747"},{"id":141090,"Name":"Paduli","state_id":1669,"state_code":"72","state_name":"Campania","country_id":107,"country_code":"IT","country_name":"Italy","latitude":"41.16793000","longitude":"14.88688000","wikiDataId":"Q3970389"},{"id":141094,"Name":"Pagani","state_id":1669,"state_code":"72","state_name":"Campania","country_id":107,"country_code":"IT","country_name":"Italy","latitude":"40.74199000","longitude":"14.61448000","wikiDataId":"Q18438531"},{"id":58208,"Name":"Pagliarone","state_id":1669,"state_code":"72","state_name":"Campania","country_id":107,"country_code":"IT","country_name":"Italy","latitude":"40.63006000","longitude":"14.91325000","wikiDataId":"Q18437567"},{"id":58214,"Name":"Pago del Vallo di Lauro","state_id":1669,"state_code":"72","state_name":"Campania","country_id":107,"country_code":"IT","country_name":"Italy","latitude":"40.89721000","longitude":"14.60764000","wikiDataId":"Q18437567"},{"id":58213,"Name":"Pago Veiano","state_id":1669,"state_code":"72","state_name":"Campania","country_id":107,"country_code":"IT","country_name":"Italy","latitude":"41.24243000","longitude":"14.86497000","wikiDataId":"Q18437567"},{"id":58245,"Name":"Palinuro","state_id":1669,"state_code":"72","state_name":"Campania","country_id":107,"country_code":"IT","country_name":"Italy","latitude":"40.03681000","longitude":"15.28812000","wikiDataId":"Q769262"},{"id":58253,"Name":"Palma Campania","state_id":1669,"state_code":"72","state_name":"Campania","country_id":107,"country_code":"IT","country_name":"Italy","latitude":"40.86608000","longitude":"14.55170000","wikiDataId":"Q18489720"},{"id":58265,"Name":"Palomonte","state_id":1669,"state_code":"72","state_name":"Campania","country_id":107,"country_code":"IT","country_name":"Italy","latitude":"40.66251000","longitude":"15.29186000","wikiDataId":"Q3155454"},{"id":58281,"Name":"Pannarano","state_id":1669,"state_code":"72","state_name":"Campania","country_id":107,"country_code":"IT","country_name":"Italy","latitude":"41.01082000","longitude":"14.70293000","wikiDataId":"Q18433996"},{"id":58288,"Name":"Paolisi","state_id":1669,"state_code":"72","state_name":"Campania","country_id":107,"country_code":"IT","country_name":"Italy","latitude":"41.03731000","longitude":"14.57918000","wikiDataId":"Q3893502"},{"id":58303,"Name":"Parete","state_id":1669,"state_code":"72","state_name":"Campania","country_id":107,"country_code":"IT","country_name":"Italy","latitude":"40.95891000","longitude":"14.16193000","wikiDataId":"Q18447166"},{"id":58311,"Name":"Parolise","state_id":1669,"state_code":"72","state_name":"Campania","country_id":107,"country_code":"IT","country_name":"Italy","latitude":"40.93045000","longitude":"14.88172000","wikiDataId":"Q18475668"},{"id":58321,"Name":"Pascarola","state_id":1669,"state_code":"72","state_name":"Campania","country_id":107,"country_code":"IT","country_name":"Italy","latitude":"40.97643000","longitude":"14.30500000","wikiDataId":"Q18288832"},{"id":58332,"Name":"Passo di Mirabella-Pianopantano","state_id":1669,"state_code":"72","state_name":"Campania","country_id":107,"country_code":"IT","country_name":"Italy","latitude":"41.05468000","longitude":"15.01649000","wikiDataId":"Q18435572"},{"id":58339,"Name":"Pastorano","state_id":1669,"state_code":"72","state_name":"Campania","country_id":107,"country_code":"IT","country_name":"Italy","latitude":"41.18082000","longitude":"14.19823000","wikiDataId":"Q18461464"},{"id":58345,"Name":"Paternopoli","state_id":1669,"state_code":"72","state_name":"Campania","country_id":107,"country_code":"IT","country_name":"Italy","latitude":"40.97268000","longitude":"15.03242000","wikiDataId":"Q18461464"},{"id":58357,"Name":"Paupisi","state_id":1669,"state_code":"72","state_name":"Campania","country_id":107,"country_code":"IT","country_name":"Italy","latitude":"41.19662000","longitude":"14.66457000","wikiDataId":"Q18489737"},{"id":58395,"Name":"Pellezzano","state_id":1669,"state_code":"72","state_name":"Campania","country_id":107,"country_code":"IT","country_name":"Italy","latitude":"40.72521000","longitude":"14.75744000","wikiDataId":"Q686709"},{"id":58400,"Name":"Pendino","state_id":1669,"state_code":"72","state_name":"Campania","country_id":107,"country_code":"IT","country_name":"Italy","latitude":"40.84708000","longitude":"14.26321000","wikiDataId":"Q686709"},{"id":58418,"Name":"Perdifumo","state_id":1669,"state_code":"72","state_name":"Campania","country_id":107,"country_code":"IT","country_name":"Italy","latitude":"40.26694000","longitude":"15.01652000","wikiDataId":"Q18452390"},{"id":58426,"Name":"Perito","state_id":1669,"state_code":"72","state_name":"Campania","country_id":107,"country_code":"IT","country_name":"Italy","latitude":"40.29854000","longitude":"15.14746000","wikiDataId":"Q42801"},{"id":58444,"Name":"Pertosa","state_id":1669,"state_code":"72","state_name":"Campania","country_id":107,"country_code":"IT","country_name":"Italy","latitude":"40.54346000","longitude":"15.45009000","wikiDataId":"Q18452392"},{"id":58460,"Name":"Pesco Sannita","state_id":1669,"state_code":"72","state_name":"Campania","country_id":107,"country_code":"IT","country_name":"Italy","latitude":"41.23273000","longitude":"14.81122000","wikiDataId":"Q2784233"},{"id":58475,"Name":"Petina","state_id":1669,"state_code":"72","state_name":"Campania","country_id":107,"country_code":"IT","country_name":"Italy","latitude":"40.53211000","longitude":"15.37346000","wikiDataId":"Q2028109"},{"id":58488,"Name":"Petruro Irpino","state_id":1669,"state_code":"72","state_name":"Campania","country_id":107,"country_code":"IT","country_name":"Italy","latitude":"41.03192000","longitude":"14.79754000","wikiDataId":"Q775778"},{"id":58498,"Name":"Pezzano-Filetta","state_id":1669,"state_code":"72","state_name":"Campania","country_id":107,"country_code":"IT","country_name":"Italy","latitude":"40.69773000","longitude":"14.86971000","wikiDataId":"Q18437591"},{"id":58506,"Name":"Piaggine","state_id":1669,"state_code":"72","state_name":"Campania","country_id":107,"country_code":"IT","country_name":"Italy","latitude":"40.34498000","longitude":"15.37777000","wikiDataId":"Q207479"},{"id":58515,"Name":"Piana di Monte Verna","state_id":1669,"state_code":"72","state_name":"Campania","country_id":107,"country_code":"IT","country_name":"Italy","latitude":"41.16712000","longitude":"14.33373000","wikiDataId":"Q18444055"},{"id":58536,"Name":"Pianillo","state_id":1669,"state_code":"72","state_name":"Campania","country_id":107,"country_code":"IT","country_name":"Italy","latitude":"40.63416000","longitude":"14.54922000","wikiDataId":"Q18437029"},{"id":58537,"Name":"Piano","state_id":1669,"state_code":"72","state_name":"Campania","country_id":107,"country_code":"IT","country_name":"Italy","latitude":"40.82050000","longitude":"14.76005000","wikiDataId":"Q55068"},{"id":58545,"Name":"Piano di Sorrento","state_id":1669,"state_code":"72","state_name":"Campania","country_id":107,"country_code":"IT","country_name":"Italy","latitude":"40.62806000","longitude":"14.41729000","wikiDataId":"Q18488947"},{"id":58553,"Name":"Pianura","state_id":1669,"state_code":"72","state_name":"Campania","country_id":107,"country_code":"IT","country_name":"Italy","latitude":"40.85907000","longitude":"14.17314000","wikiDataId":"Q1101657"},{"id":58570,"Name":"Piazza del Galdo-Sant'Angelo","state_id":1669,"state_code":"72","state_name":"Campania","country_id":107,"country_code":"IT","country_name":"Italy","latitude":"40.77390000","longitude":"14.71696000","wikiDataId":"Q18437605"},{"id":58571,"Name":"Piazza di Pandola","state_id":1669,"state_code":"72","state_name":"Campania","country_id":107,"country_code":"IT","country_name":"Italy","latitude":"40.80748000","longitude":"14.77180000","wikiDataId":"Q3902471"},{"id":58568,"Name":"Piazza Roma","state_id":1669,"state_code":"72","state_name":"Campania","country_id":107,"country_code":"IT","country_name":"Italy","latitude":"40.70434000","longitude":"14.54300000","wikiDataId":"Q16590048"},{"id":58572,"Name":"Piazza-Tralia-Pendolo","state_id":1669,"state_code":"72","state_name":"Campania","country_id":107,"country_code":"IT","country_name":"Italy","latitude":"40.67351000","longitude":"14.50455000","wikiDataId":"Q18437032"},{"id":58574,"Name":"Piazzola","state_id":1669,"state_code":"72","state_name":"Campania","country_id":107,"country_code":"IT","country_name":"Italy","latitude":"40.87265000","longitude":"14.50016000","wikiDataId":"Q18437033"},{"id":58576,"Name":"Piazzolla","state_id":1669,"state_code":"72","state_name":"Campania","country_id":107,"country_code":"IT","country_name":"Italy","latitude":"40.88964000","longitude":"14.51579000","wikiDataId":"Q18437034"},{"id":58588,"Name":"Piedimonte","state_id":1669,"state_code":"72","state_name":"Campania","country_id":107,"country_code":"IT","country_name":"Italy","latitude":"41.18886000","longitude":"13.89856000","wikiDataId":"Q18436693"},{"id":58590,"Name":"Piedimonte Matese","state_id":1669,"state_code":"72","state_name":"Campania","country_id":107,"country_code":"IT","country_name":"Italy","latitude":"41.35082000","longitude":"14.36803000","wikiDataId":"Q18436693"},{"id":58596,"Name":"Piegolelle-San Bartolomeo","state_id":1669,"state_code":"72","state_name":"Campania","country_id":107,"country_code":"IT","country_name":"Italy","latitude":"40.68583000","longitude":"14.82312000","wikiDataId":"Q18437611"},{"id":58611,"Name":"Pietradefusi","state_id":1669,"state_code":"72","state_name":"Campania","country_id":107,"country_code":"IT","country_name":"Italy","latitude":"41.04316000","longitude":"14.88415000","wikiDataId":"Q1110618"},{"id":58616,"Name":"Pietramelara","state_id":1669,"state_code":"72","state_name":"Campania","country_id":107,"country_code":"IT","country_name":"Italy","latitude":"41.27086000","longitude":"14.18711000","wikiDataId":"Q1110618"},{"id":58624,"Name":"Pietraroja","state_id":1669,"state_code":"72","state_name":"Campania","country_id":107,"country_code":"IT","country_name":"Italy","latitude":"41.34782000","longitude":"14.54963000","wikiDataId":"Q18481879"},{"id":58626,"Name":"Pietrastornina","state_id":1669,"state_code":"72","state_name":"Campania","country_id":107,"country_code":"IT","country_name":"Italy","latitude":"40.99535000","longitude":"14.71833000","wikiDataId":"Q18481879"},{"id":58627,"Name":"Pietravairano","state_id":1669,"state_code":"72","state_name":"Campania","country_id":107,"country_code":"IT","country_name":"Italy","latitude":"41.32522000","longitude":"14.16592000","wikiDataId":"Q18481879"},{"id":58628,"Name":"Pietre","state_id":1669,"state_code":"72","state_name":"Campania","country_id":107,"country_code":"IT","country_name":"Italy","latitude":"40.70048000","longitude":"14.61993000","wikiDataId":"Q18437615"},{"id":58629,"Name":"Pietrelcina","state_id":1669,"state_code":"72","state_name":"Campania","country_id":107,"country_code":"IT","country_name":"Italy","latitude":"41.19942000","longitude":"14.84414000","wikiDataId":"Q18437615"},{"id":58662,"Name":"Pignataro Maggiore","state_id":1669,"state_code":"72","state_name":"Campania","country_id":107,"country_code":"IT","country_name":"Italy","latitude":"41.19006000","longitude":"14.16978000","wikiDataId":"Q18475942"},{"id":58670,"Name":"Pimonte","state_id":1669,"state_code":"72","state_name":"Campania","country_id":107,"country_code":"IT","country_name":"Italy","latitude":"40.67361000","longitude":"14.50984000","wikiDataId":"Q18442975"},{"id":58706,"Name":"Piscinola","state_id":1669,"state_code":"72","state_name":"Campania","country_id":107,"country_code":"IT","country_name":"Italy","latitude":"40.89299000","longitude":"14.23394000","wikiDataId":"Q2096936"},{"id":58707,"Name":"Pisciotta","state_id":1669,"state_code":"72","state_name":"Campania","country_id":107,"country_code":"IT","country_name":"Italy","latitude":"40.10890000","longitude":"15.23456000","wikiDataId":"Q2096936"},{"id":58769,"Name":"Poggiomarino","state_id":1669,"state_code":"72","state_name":"Campania","country_id":107,"country_code":"IT","country_name":"Italy","latitude":"40.80114000","longitude":"14.54066000","wikiDataId":"Q2604595"},{"id":58770,"Name":"Poggioreale","state_id":1669,"state_code":"72","state_name":"Campania","country_id":107,"country_code":"IT","country_name":"Italy","latitude":"40.86543000","longitude":"14.28877000","wikiDataId":"Q2604595"},{"id":58788,"Name":"Policastro Bussentino","state_id":1669,"state_code":"72","state_name":"Campania","country_id":107,"country_code":"IT","country_name":"Italy","latitude":"40.07511000","longitude":"15.52165000","wikiDataId":"Q610420"},{"id":58795,"Name":"Polla","state_id":1669,"state_code":"72","state_name":"Campania","country_id":107,"country_code":"IT","country_name":"Italy","latitude":"40.51433000","longitude":"15.49715000","wikiDataId":"Q610420"},{"id":58797,"Name":"Pollena Trocchia","state_id":1669,"state_code":"72","state_name":"Campania","country_id":107,"country_code":"IT","country_name":"Italy","latitude":"40.85134000","longitude":"14.37911000","wikiDataId":"Q610420"},{"id":58799,"Name":"Pollica","state_id":1669,"state_code":"72","state_name":"Campania","country_id":107,"country_code":"IT","country_name":"Italy","latitude":"40.19070000","longitude":"15.05716000","wikiDataId":"Q610420"},{"id":58807,"Name":"Polvica","state_id":1669,"state_code":"72","state_name":"Campania","country_id":107,"country_code":"IT","country_name":"Italy","latitude":"40.69484000","longitude":"14.64019000","wikiDataId":"Q18437630"},{"id":58816,"Name":"Pomigliano d'Arco","state_id":1669,"state_code":"72","state_name":"Campania","country_id":107,"country_code":"IT","country_name":"Italy","latitude":"40.90975000","longitude":"14.38316000","wikiDataId":"Q3907798"},{"id":58817,"Name":"Pompei","state_id":1669,"state_code":"72","state_name":"Campania","country_id":107,"country_code":"IT","country_name":"Italy","latitude":"40.74574000","longitude":"14.49698000","wikiDataId":"Q3907798"},{"id":58832,"Name":"Ponte","state_id":1669,"state_code":"72","state_name":"Campania","country_id":107,"country_code":"IT","country_name":"Italy","latitude":"41.21554000","longitude":"14.69826000","wikiDataId":"Q18490465"},{"id":58863,"Name":"Pontecagnano","state_id":1669,"state_code":"72","state_name":"Campania","country_id":107,"country_code":"IT","country_name":"Italy","latitude":"40.64448000","longitude":"14.87628000","wikiDataId":"Q18437639"},