[{"id":106933,"Name":"Chebika","state_id":2569,"state_code":"72","state_name":"Tozeur Governorate","country_id":224,"country_code":"TN","country_name":"Tunisia","latitude":"34.31909000","longitude":"7.93519000","wikiDataId":"Q2961924"},{"id":106935,"Name":"Degache","state_id":2569,"state_code":"72","state_name":"Tozeur Governorate","country_id":224,"country_code":"TN","country_name":"Tunisia","latitude":"33.97606000","longitude":"8.20810000","wikiDataId":"Q2499386"},{"id":107001,"Name":"Nefta","state_id":2569,"state_code":"72","state_name":"Tozeur Governorate","country_id":224,"country_code":"TN","country_name":"Tunisia","latitude":"33.87309000","longitude":"7.87765000","wikiDataId":"Q1026298"},{"id":107033,"Name":"Tamaghzah","state_id":2569,"state_code":"72","state_name":"Tozeur Governorate","country_id":224,"country_code":"TN","country_name":"Tunisia","latitude":"34.38849000","longitude":"7.94313000","wikiDataId":"Q2746043"},{"id":107038,"Name":"Tozeur","state_id":2569,"state_code":"72","state_name":"Tozeur Governorate","country_id":224,"country_code":"TN","country_name":"Tunisia","latitude":"33.91968000","longitude":"8.13352000","wikiDataId":"Q504661"}]