[{"id":31643,"Name":"Kuressaare","state_id":3561,"state_code":"74","state_name":"Saare County","country_id":69,"country_code":"EE","country_name":"Estonia","latitude":"58.24806000","longitude":"22.50389000","wikiDataId":"Q188179"},{"id":31649,"Name":"Liiva","state_id":3561,"state_code":"74","state_name":"Saare County","country_id":69,"country_code":"EE","country_name":"Estonia","latitude":"58.60194000","longitude":"23.24694000","wikiDataId":"Q2670409"},{"id":31660,"Name":"Muhu vald","state_id":3561,"state_code":"74","state_name":"Saare County","country_id":69,"country_code":"EE","country_name":"Estonia","latitude":"58.58486000","longitude":"23.25609000","wikiDataId":"Q634654"},{"id":31670,"Name":"Orissaare","state_id":3561,"state_code":"74","state_name":"Saare County","country_id":69,"country_code":"EE","country_name":"Estonia","latitude":"58.55917000","longitude":"23.08262000","wikiDataId":"Q3139373"},{"id":31696,"Name":"Ruhnu","state_id":3561,"state_code":"74","state_name":"Saare County","country_id":69,"country_code":"EE","country_name":"Estonia","latitude":"57.80028000","longitude":"23.24833000","wikiDataId":"Q2006948"},{"id":31697,"Name":"Ruhnu vald","state_id":3561,"state_code":"74","state_name":"Saare County","country_id":69,"country_code":"EE","country_name":"Estonia","latitude":"57.80309000","longitude":"23.24250000","wikiDataId":"Q604504"},{"id":31723,"Name":"Tehumardi","state_id":3561,"state_code":"74","state_name":"Saare County","country_id":69,"country_code":"EE","country_name":"Estonia","latitude":"58.18027000","longitude":"22.24646000","wikiDataId":"Q3451173"}]