[{"id":107179,"Name":"Ardahan","state_id":2185,"state_code":"75","state_name":"Ardahan","country_id":225,"country_code":"TR","country_name":"Turkey","latitude":"41.10871000","longitude":"42.70222000","wikiDataId":"Q202188"},{"id":108853,"Name":"Çıldır İlçesi","state_id":2185,"state_code":"75","state_name":"Ardahan","country_id":225,"country_code":"TR","country_name":"Turkey","latitude":"41.13783000","longitude":"43.14169000","wikiDataId":"Q272985"},{"id":107444,"Name":"Damal","state_id":2185,"state_code":"75","state_name":"Ardahan","country_id":225,"country_code":"TR","country_name":"Turkey","latitude":"41.34145000","longitude":"42.83680000","wikiDataId":"Q518586"},{"id":107692,"Name":"Göle","state_id":2185,"state_code":"75","state_name":"Ardahan","country_id":225,"country_code":"TR","country_name":"Turkey","latitude":"40.78746000","longitude":"42.60603000","wikiDataId":"Q1020643"},{"id":107788,"Name":"Hanak","state_id":2185,"state_code":"75","state_name":"Ardahan","country_id":225,"country_code":"TR","country_name":"Turkey","latitude":"41.23344000","longitude":"42.84037000","wikiDataId":"Q2417071"},{"id":108347,"Name":"Posof","state_id":2185,"state_code":"75","state_name":"Ardahan","country_id":225,"country_code":"TR","country_name":"Turkey","latitude":"41.51111000","longitude":"42.72917000","wikiDataId":"Q945388"}]