[{"id":67491,"Name":"Nerašte","state_id":654,"state_code":"75","state_name":"Tearce Municipality","country_id":129,"country_code":"MK","country_name":"Macedonia","latitude":"42.10711000","longitude":"21.10810000","wikiDataId":"Q20932467"},{"id":67500,"Name":"Orashac","state_id":654,"state_code":"75","state_name":"Tearce Municipality","country_id":129,"country_code":"MK","country_name":"Macedonia","latitude":"42.06250000","longitude":"21.79972000","wikiDataId":"Q20932502"},{"id":67511,"Name":"Pršovce","state_id":654,"state_code":"75","state_name":"Tearce Municipality","country_id":129,"country_code":"MK","country_name":"Macedonia","latitude":"42.08336000","longitude":"21.05994000","wikiDataId":"Q1991722"},{"id":67527,"Name":"Slatino","state_id":654,"state_code":"75","state_name":"Tearce Municipality","country_id":129,"country_code":"MK","country_name":"Macedonia","latitude":"42.06784000","longitude":"21.03902000","wikiDataId":"Q20936134"},{"id":67542,"Name":"Tearce","state_id":654,"state_code":"75","state_name":"Tearce Municipality","country_id":129,"country_code":"MK","country_name":"Macedonia","latitude":"42.07666000","longitude":"21.05310000","wikiDataId":"Q653186"}]