[{"id":107145,"Name":"Altınova","state_id":2218,"state_code":"77","state_name":"Yalova","country_id":225,"country_code":"TR","country_name":"Turkey","latitude":"40.69495000","longitude":"29.50986000","wikiDataId":"Q3233272"},{"id":107187,"Name":"Armutlu İlçesi","state_id":2218,"state_code":"77","state_name":"Yalova","country_id":225,"country_code":"TR","country_name":"Turkey","latitude":"40.52919000","longitude":"28.83871000","wikiDataId":"Q689620"},{"id":108831,"Name":"Çiftlikköy","state_id":2218,"state_code":"77","state_name":"Yalova","country_id":225,"country_code":"TR","country_name":"Turkey","latitude":"40.66028000","longitude":"29.32361000","wikiDataId":"Q272835"},{"id":108856,"Name":"Çınarcık","state_id":2218,"state_code":"77","state_name":"Yalova","country_id":225,"country_code":"TR","country_name":"Turkey","latitude":"40.64538000","longitude":"29.12450000","wikiDataId":"Q272992"},{"id":107862,"Name":"Kadıköy","state_id":2218,"state_code":"77","state_name":"Yalova","country_id":225,"country_code":"TR","country_name":"Turkey","latitude":"40.62015000","longitude":"29.22536000","wikiDataId":"Q6345862"},{"id":107955,"Name":"Kaytazdere","state_id":2218,"state_code":"77","state_name":"Yalova","country_id":225,"country_code":"TR","country_name":"Turkey","latitude":"40.68225000","longitude":"29.53236000","wikiDataId":"Q6380706"},{"id":108099,"Name":"Kılıç","state_id":2218,"state_code":"77","state_name":"Yalova","country_id":225,"country_code":"TR","country_name":"Turkey","latitude":"40.63306000","longitude":"29.39472000","wikiDataId":"Q639240"},{"id":108006,"Name":"Kocadere","state_id":2218,"state_code":"77","state_name":"Yalova","country_id":225,"country_code":"TR","country_name":"Turkey","latitude":"40.63000000","longitude":"29.03000000","wikiDataId":"Q1858999"},{"id":108026,"Name":"Koruköy","state_id":2218,"state_code":"77","state_name":"Yalova","country_id":225,"country_code":"TR","country_name":"Turkey","latitude":"40.65435000","longitude":"29.16289000","wikiDataId":"Q6432728"},{"id":108549,"Name":"Taşköprü","state_id":2218,"state_code":"77","state_name":"Yalova","country_id":225,"country_code":"TR","country_name":"Turkey","latitude":"40.67361000","longitude":"29.39111000","wikiDataId":"Q7690521"},{"id":108572,"Name":"Termal İlçesi","state_id":2218,"state_code":"77","state_name":"Yalova","country_id":225,"country_code":"TR","country_name":"Turkey","latitude":"40.61381000","longitude":"29.18049000","wikiDataId":"Q2665536"},{"id":108665,"Name":"Yalova","state_id":2218,"state_code":"77","state_name":"Yalova","country_id":225,"country_code":"TR","country_name":"Turkey","latitude":"40.65501000","longitude":"29.27693000","wikiDataId":"Q2577943"}]