[{"id":107110,"Name":"Akçakoca","state_id":2202,"state_code":"81","state_name":"Düzce","country_id":225,"country_code":"TR","country_name":"Turkey","latitude":"41.08663000","longitude":"31.11623000","wikiDataId":"Q424700"},{"id":108833,"Name":"Çilimli İlçesi","state_id":2202,"state_code":"81","state_name":"Düzce","country_id":225,"country_code":"TR","country_name":"Turkey","latitude":"40.90267000","longitude":"31.05913000","wikiDataId":"Q2900960"},{"id":107438,"Name":"Cumayeri İlçesi","state_id":2202,"state_code":"81","state_name":"Düzce","country_id":225,"country_code":"TR","country_name":"Turkey","latitude":"40.88176000","longitude":"30.94094000","wikiDataId":"Q2349440"},{"id":107542,"Name":"Düzce","state_id":2202,"state_code":"81","state_name":"Düzce","country_id":225,"country_code":"TR","country_name":"Turkey","latitude":"40.83889000","longitude":"31.16389000","wikiDataId":"Q206885"},{"id":107704,"Name":"Gölyaka İlçesi","state_id":2202,"state_code":"81","state_name":"Düzce","country_id":225,"country_code":"TR","country_name":"Turkey","latitude":"40.78644000","longitude":"31.00276000","wikiDataId":"Q2901102"},{"id":107739,"Name":"Gümüşova İlçesi","state_id":2202,"state_code":"81","state_name":"Düzce","country_id":225,"country_code":"TR","country_name":"Turkey","latitude":"40.85640000","longitude":"30.94935000","wikiDataId":"Q2671034"},{"id":107953,"Name":"Kaynaşlı İlçesi","state_id":2202,"state_code":"81","state_name":"Düzce","country_id":225,"country_code":"TR","country_name":"Turkey","latitude":"40.77908000","longitude":"31.31135000","wikiDataId":"Q2901058"},{"id":108748,"Name":"Yığılca İlçesi","state_id":2202,"state_code":"81","state_name":"Düzce","country_id":225,"country_code":"TR","country_name":"Turkey","latitude":"40.96497000","longitude":"31.45672000","wikiDataId":"Q2674064"}]