[{"id":105182,"Name":"Amphoe Ao Luek","state_id":3478,"state_code":"81","state_name":"Krabi","country_id":219,"country_code":"TH","country_name":"Thailand","latitude":"8.38526000","longitude":"98.75378000","wikiDataId":"Q475070"},{"id":105396,"Name":"Amphoe Khao Phanom","state_id":3478,"state_code":"81","state_name":"Krabi","country_id":219,"country_code":"TH","country_name":"Thailand","latitude":"8.26953000","longitude":"99.11813000","wikiDataId":"Q475663"},{"id":105411,"Name":"Amphoe Khlong Thom","state_id":3478,"state_code":"81","state_name":"Krabi","country_id":219,"country_code":"TH","country_name":"Thailand","latitude":"7.91470000","longitude":"99.19935000","wikiDataId":"Q475709"},{"id":105442,"Name":"Amphoe Ko Lanta","state_id":3478,"state_code":"81","state_name":"Krabi","country_id":219,"country_code":"TH","country_name":"Thailand","latitude":"7.71267000","longitude":"99.07813000","wikiDataId":"Q475797"},{"id":105477,"Name":"Amphoe Lam Thap","state_id":3478,"state_code":"81","state_name":"Krabi","country_id":219,"country_code":"TH","country_name":"Thailand","latitude":"8.04799000","longitude":"99.33543000","wikiDataId":"Q24426"},{"id":105546,"Name":"Amphoe Mueang Krabi","state_id":3478,"state_code":"81","state_name":"Krabi","country_id":219,"country_code":"TH","country_name":"Thailand","latitude":"8.15947000","longitude":"98.86661000","wikiDataId":"Q2248586"},{"id":105689,"Name":"Amphoe Nuea Khlong","state_id":3478,"state_code":"81","state_name":"Krabi","country_id":219,"country_code":"TH","country_name":"Thailand","latitude":"8.06058000","longitude":"99.04039000","wikiDataId":"Q476298"},{"id":105789,"Name":"Amphoe Plai Phraya","state_id":3478,"state_code":"81","state_name":"Krabi","country_id":219,"country_code":"TH","country_name":"Thailand","latitude":"8.54087000","longitude":"98.83671000","wikiDataId":"Q476510"},{"id":106381,"Name":"Ao Luek","state_id":3478,"state_code":"81","state_name":"Krabi","country_id":219,"country_code":"TH","country_name":"Thailand","latitude":"8.37803000","longitude":"98.72117000","wikiDataId":"Q18711717"},{"id":106534,"Name":"Ko Lanta","state_id":3478,"state_code":"81","state_name":"Krabi","country_id":219,"country_code":"TH","country_name":"Thailand","latitude":"7.53362000","longitude":"99.08647000","wikiDataId":"Q28731220"},{"id":106540,"Name":"Krabi","state_id":3478,"state_code":"81","state_name":"Krabi","country_id":219,"country_code":"TH","country_name":"Thailand","latitude":"8.07257000","longitude":"98.91052000","wikiDataId":"Q1000353"},{"id":106605,"Name":"Nuea Khlong","state_id":3478,"state_code":"81","state_name":"Krabi","country_id":219,"country_code":"TH","country_name":"Thailand","latitude":"8.07143000","longitude":"98.99933000","wikiDataId":"Q28731238"},{"id":106676,"Name":"Saladan","state_id":3478,"state_code":"81","state_name":"Krabi","country_id":219,"country_code":"TH","country_name":"Thailand","latitude":"7.61342000","longitude":"99.03651000","wikiDataId":"Q1012639"}]