[{"id":135246,"Name":"Acate","state_id":1709,"state_code":"82","state_name":"Sicily","country_id":107,"country_code":"IT","country_name":"Italy","latitude":"37.02318000","longitude":"14.49302000","wikiDataId":"Q3321966"},{"id":135256,"Name":"Aci Bonaccorsi","state_id":1709,"state_code":"82","state_name":"Sicily","country_id":107,"country_code":"IT","country_name":"Italy","latitude":"37.59640000","longitude":"15.10724000","wikiDataId":"Q3604172"},{"id":135257,"Name":"Aci Castello","state_id":1709,"state_code":"82","state_name":"Sicily","country_id":107,"country_code":"IT","country_name":"Italy","latitude":"37.55564000","longitude":"15.14535000","wikiDataId":"Q3604172"},{"id":135258,"Name":"Aci Catena","state_id":1709,"state_code":"82","state_name":"Sicily","country_id":107,"country_code":"IT","country_name":"Italy","latitude":"37.60614000","longitude":"15.14165000","wikiDataId":"Q3604172"},{"id":135259,"Name":"Aci Sant'Antonio","state_id":1709,"state_code":"82","state_name":"Sicily","country_id":107,"country_code":"IT","country_name":"Italy","latitude":"37.60499000","longitude":"15.12294000","wikiDataId":"Q3604172"},{"id":135260,"Name":"Aci Trezza","state_id":1709,"state_code":"82","state_name":"Sicily","country_id":107,"country_code":"IT","country_name":"Italy","latitude":"37.56385000","longitude":"15.16136000","wikiDataId":"Q341300"},{"id":135262,"Name":"Acireale","state_id":1709,"state_code":"82","state_name":"Sicily","country_id":107,"country_code":"IT","country_name":"Italy","latitude":"37.60886000","longitude":"15.16577000","wikiDataId":"Q3604570"},{"id":135263,"Name":"Acitrezza","state_id":1709,"state_code":"82","state_name":"Sicily","country_id":107,"country_code":"IT","country_name":"Italy","latitude":"37.55960000","longitude":"15.15990000","wikiDataId":"Q18461170"},{"id":135279,"Name":"Acquaviva Platani","state_id":1709,"state_code":"82","state_name":"Sicily","country_id":107,"country_code":"IT","country_name":"Italy","latitude":"37.57174000","longitude":"13.70156000","wikiDataId":"Q2175750"},{"id":135282,"Name":"Acquedolci","state_id":1709,"state_code":"82","state_name":"Sicily","country_id":107,"country_code":"IT","country_name":"Italy","latitude":"38.05708000","longitude":"14.58550000","wikiDataId":"Q2175750"},{"id":135287,"Name":"Adrano","state_id":1709,"state_code":"82","state_name":"Sicily","country_id":107,"country_code":"IT","country_name":"Italy","latitude":"37.66358000","longitude":"14.83283000","wikiDataId":"Q2175750"},{"id":135300,"Name":"Agira","state_id":1709,"state_code":"82","state_name":"Sicily","country_id":107,"country_code":"IT","country_name":"Italy","latitude":"37.65580000","longitude":"14.51972000","wikiDataId":"Q18431725"},{"id":135302,"Name":"Agliandroni-Paternella","state_id":1709,"state_code":"82","state_name":"Sicily","country_id":107,"country_code":"IT","country_name":"Italy","latitude":"38.13280000","longitude":"13.06884000","wikiDataId":"Q18467195"},{"id":135318,"Name":"Agrigento","state_id":1709,"state_code":"82","state_name":"Sicily","country_id":107,"country_code":"IT","country_name":"Italy","latitude":"37.45000000","longitude":"13.50000000","wikiDataId":"Q16112"},{"id":135324,"Name":"Aidone","state_id":1709,"state_code":"82","state_name":"Sicily","country_id":107,"country_code":"IT","country_name":"Italy","latitude":"37.41468000","longitude":"14.44542000","wikiDataId":"Q16112"},{"id":135389,"Name":"Alcamo","state_id":1709,"state_code":"82","state_name":"Sicily","country_id":107,"country_code":"IT","country_name":"Italy","latitude":"37.97790000","longitude":"12.96473000","wikiDataId":"Q18454404"},{"id":135390,"Name":"Alcara Li Fusi","state_id":1709,"state_code":"82","state_name":"Sicily","country_id":107,"country_code":"IT","country_name":"Italy","latitude":"38.02143000","longitude":"14.70142000","wikiDataId":"Q18454404"},{"id":135396,"Name":"Alessandria della Rocca","state_id":1709,"state_code":"82","state_name":"Sicily","country_id":107,"country_code":"IT","country_name":"Italy","latitude":"37.56767000","longitude":"13.45343000","wikiDataId":"Q18454404"},{"id":135454,"Name":"Alì","state_id":1709,"state_code":"82","state_name":"Sicily","country_id":107,"country_code":"IT","country_name":"Italy","latitude":"38.02678000","longitude":"15.41910000","wikiDataId":"Q3613147"},{"id":135455,"Name":"Alì Terme","state_id":1709,"state_code":"82","state_name":"Sicily","country_id":107,"country_code":"IT","country_name":"Italy","latitude":"38.00506000","longitude":"15.42269000","wikiDataId":"Q3613147"},{"id":135406,"Name":"Alia","state_id":1709,"state_code":"82","state_name":"Sicily","country_id":107,"country_code":"IT","country_name":"Italy","latitude":"37.77867000","longitude":"13.71391000","wikiDataId":"Q18454404"},{"id":135412,"Name":"Alimena","state_id":1709,"state_code":"82","state_name":"Sicily","country_id":107,"country_code":"IT","country_name":"Italy","latitude":"37.69310000","longitude":"14.11369000","wikiDataId":"Q18454404"},{"id":135413,"Name":"Aliminusa","state_id":1709,"state_code":"82","state_name":"Sicily","country_id":107,"country_code":"IT","country_name":"Italy","latitude":"37.86395000","longitude":"13.78126000","wikiDataId":"Q18454404"},{"id":135433,"Name":"Altavilla Milicia","state_id":1709,"state_code":"82","state_name":"Sicily","country_id":107,"country_code":"IT","country_name":"Italy","latitude":"38.03800000","longitude":"13.54947000","wikiDataId":"Q18503836"},{"id":135444,"Name":"Altofonte","state_id":1709,"state_code":"82","state_name":"Sicily","country_id":107,"country_code":"IT","country_name":"Italy","latitude":"38.04298000","longitude":"13.29434000","wikiDataId":"Q3613147"},{"id":135519,"Name":"Antillo","state_id":1709,"state_code":"82","state_name":"Sicily","country_id":107,"country_code":"IT","country_name":"Italy","latitude":"37.97937000","longitude":"15.24029000","wikiDataId":"Q18437157"},{"id":135550,"Name":"Aragona","state_id":1709,"state_code":"82","state_name":"Sicily","country_id":107,"country_code":"IT","country_name":"Italy","latitude":"37.39904000","longitude":"13.61974000","wikiDataId":"Q3621160"},{"id":135669,"Name":"Assoro","state_id":1709,"state_code":"82","state_name":"Sicily","country_id":107,"country_code":"IT","country_name":"Italy","latitude":"37.62210000","longitude":"14.41810000","wikiDataId":"Q3625263"},{"id":135685,"Name":"Augusta","state_id":1709,"state_code":"82","state_name":"Sicily","country_id":107,"country_code":"IT","country_name":"Italy","latitude":"37.24065000","longitude":"15.22121000","wikiDataId":"Q18452704"},{"id":135713,"Name":"Avola","state_id":1709,"state_code":"82","state_name":"Sicily","country_id":107,"country_code":"IT","country_name":"Italy","latitude":"36.90840000","longitude":"15.13937000","wikiDataId":"Q18448272"},{"id":135747,"Name":"Bagheria","state_id":1709,"state_code":"82","state_name":"Sicily","country_id":107,"country_code":"IT","country_name":"Italy","latitude":"38.07892000","longitude":"13.51237000","wikiDataId":"Q18440466"},{"id":135787,"Name":"Balestrate","state_id":1709,"state_code":"82","state_name":"Sicily","country_id":107,"country_code":"IT","country_name":"Italy","latitude":"38.05125000","longitude":"13.00724000","wikiDataId":"Q18436446"},{"id":135834,"Name":"Barcellona Pozzo di Gotto","state_id":1709,"state_code":"82","state_name":"Sicily","country_id":107,"country_code":"IT","country_name":"Italy","latitude":"38.14772000","longitude":"15.21469000","wikiDataId":"Q3634777"},{"id":135868,"Name":"Barrafranca","state_id":1709,"state_code":"82","state_name":"Sicily","country_id":107,"country_code":"IT","country_name":"Italy","latitude":"37.37850000","longitude":"14.20270000","wikiDataId":"Q808771"},{"id":135885,"Name":"Basicò","state_id":1709,"state_code":"82","state_name":"Sicily","country_id":107,"country_code":"IT","country_name":"Italy","latitude":"38.06077000","longitude":"15.06263000","wikiDataId":"Q3635515"},{"id":135911,"Name":"Baucina","state_id":1709,"state_code":"82","state_name":"Sicily","country_id":107,"country_code":"IT","country_name":"Italy","latitude":"37.92521000","longitude":"13.53636000","wikiDataId":"Q18484109"},{"id":135953,"Name":"Belmonte Mezzagno","state_id":1709,"state_code":"82","state_name":"Sicily","country_id":107,"country_code":"IT","country_name":"Italy","latitude":"38.04653000","longitude":"13.39207000","wikiDataId":"Q18498108"},{"id":135957,"Name":"Belpasso","state_id":1709,"state_code":"82","state_name":"Sicily","country_id":107,"country_code":"IT","country_name":"Italy","latitude":"37.59192000","longitude":"14.97985000","wikiDataId":"Q18498108"},{"id":135960,"Name":"Belvedere","state_id":1709,"state_code":"82","state_name":"Sicily","country_id":107,"country_code":"IT","country_name":"Italy","latitude":"37.08839000","longitude":"15.21314000","wikiDataId":"Q3637887"},{"id":135966,"Name":"Belvedere-Piano Tavola","state_id":1709,"state_code":"82","state_name":"Sicily","country_id":107,"country_code":"IT","country_name":"Italy","latitude":"37.52955000","longitude":"14.98786000","wikiDataId":"Q18461204"},{"id":136028,"Name":"Biancavilla","state_id":1709,"state_code":"82","state_name":"Sicily","country_id":107,"country_code":"IT","country_name":"Italy","latitude":"37.64442000","longitude":"14.86685000","wikiDataId":"Q3639404"},{"id":136060,"Name":"Bisacquino","state_id":1709,"state_code":"82","state_name":"Sicily","country_id":107,"country_code":"IT","country_name":"Italy","latitude":"37.70352000","longitude":"13.26051000","wikiDataId":"Q18434573"},{"id":136075,"Name":"Bivona","state_id":1709,"state_code":"82","state_name":"Sicily","country_id":107,"country_code":"IT","country_name":"Italy","latitude":"37.61797000","longitude":"13.43895000","wikiDataId":"Q18454425"},{"id":136083,"Name":"Blufi","state_id":1709,"state_code":"82","state_name":"Sicily","country_id":107,"country_code":"IT","country_name":"Italy","latitude":"37.75205000","longitude":"14.07296000","wikiDataId":"Q18454425"},{"id":136110,"Name":"Bolognetta","state_id":1709,"state_code":"82","state_name":"Sicily","country_id":107,"country_code":"IT","country_name":"Italy","latitude":"37.97120000","longitude":"13.45627000","wikiDataId":"Q18478734"},{"id":136120,"Name":"Bompensiere","state_id":1709,"state_code":"82","state_name":"Sicily","country_id":107,"country_code":"IT","country_name":"Italy","latitude":"37.47240000","longitude":"13.78140000","wikiDataId":"Q15124"},{"id":136121,"Name":"Bompietro","state_id":1709,"state_code":"82","state_name":"Sicily","country_id":107,"country_code":"IT","country_name":"Italy","latitude":"37.74394000","longitude":"14.09470000","wikiDataId":"Q15124"},{"id":136157,"Name":"Borgetto","state_id":1709,"state_code":"82","state_name":"Sicily","country_id":107,"country_code":"IT","country_name":"Italy","latitude":"38.04664000","longitude":"13.14071000","wikiDataId":"Q18429587"},{"id":136349,"Name":"Brolo","state_id":1709,"state_code":"82","state_name":"Sicily","country_id":107,"country_code":"IT","country_name":"Italy","latitude":"38.15623000","longitude":"14.82799000","wikiDataId":"Q18504046"},{"id":136353,"Name":"Bronte","state_id":1709,"state_code":"82","state_name":"Sicily","country_id":107,"country_code":"IT","country_name":"Italy","latitude":"37.78863000","longitude":"14.83377000","wikiDataId":"Q18488889"},{"id":136361,"Name":"Brucoli","state_id":1709,"state_code":"82","state_name":"Sicily","country_id":107,"country_code":"IT","country_name":"Italy","latitude":"37.28191000","longitude":"15.18836000","wikiDataId":"Q952146"},{"id":136384,"Name":"Buccheri","state_id":1709,"state_code":"82","state_name":"Sicily","country_id":107,"country_code":"IT","country_name":"Italy","latitude":"37.12494000","longitude":"14.85222000","wikiDataId":"Q18438069"},{"id":136412,"Name":"Burgio","state_id":1709,"state_code":"82","state_name":"Sicily","country_id":107,"country_code":"IT","country_name":"Italy","latitude":"37.60094000","longitude":"13.28826000","wikiDataId":"Q18502918"},{"id":136423,"Name":"Buscemi","state_id":1709,"state_code":"82","state_name":"Sicily","country_id":107,"country_code":"IT","country_name":"Italy","latitude":"37.08604000","longitude":"14.88499000","wikiDataId":"Q18446439"},{"id":136425,"Name":"Buseto Palizzolo","state_id":1709,"state_code":"82","state_name":"Sicily","country_id":107,"country_code":"IT","country_name":"Italy","latitude":"38.00339000","longitude":"12.70911000","wikiDataId":"Q3013233"},{"id":136436,"Name":"Butera","state_id":1709,"state_code":"82","state_name":"Sicily","country_id":107,"country_code":"IT","country_name":"Italy","latitude":"37.19100000","longitude":"14.18232000","wikiDataId":"Q12360475"},{"id":136451,"Name":"Caccamo","state_id":1709,"state_code":"82","state_name":"Sicily","country_id":107,"country_code":"IT","country_name":"Italy","latitude":"37.93357000","longitude":"13.66808000","wikiDataId":"Q18440594"},{"id":136489,"Name":"Calamonaci","state_id":1709,"state_code":"82","state_name":"Sicily","country_id":107,"country_code":"IT","country_name":"Italy","latitude":"37.52566000","longitude":"13.29053000","wikiDataId":"Q1026145"},{"id":136493,"Name":"Calascibetta","state_id":1709,"state_code":"82","state_name":"Sicily","country_id":107,"country_code":"IT","country_name":"Italy","latitude":"37.59024000","longitude":"14.27180000","wikiDataId":"Q1026145"},{"id":136496,"Name":"Calatabiano","state_id":1709,"state_code":"82","state_name":"Sicily","country_id":107,"country_code":"IT","country_name":"Italy","latitude":"37.82049000","longitude":"15.23069000","wikiDataId":"Q18426488"},{"id":136497,"Name":"Calatafimi","state_id":1709,"state_code":"82","state_name":"Sicily","country_id":107,"country_code":"IT","country_name":"Italy","latitude":"37.91440000","longitude":"12.86364000","wikiDataId":"Q18471755"},{"id":136540,"Name":"Caltabellotta","state_id":1709,"state_code":"82","state_name":"Sicily","country_id":107,"country_code":"IT","country_name":"Italy","latitude":"37.57543000","longitude":"13.21632000","wikiDataId":"Q18478648"},{"id":136541,"Name":"Caltagirone","state_id":1709,"state_code":"82","state_name":"Sicily","country_id":107,"country_code":"IT","country_name":"Italy","latitude":"37.23785000","longitude":"14.51551000","wikiDataId":"Q18478648"},{"id":136543,"Name":"Caltanissetta","state_id":1709,"state_code":"82","state_name":"Sicily","country_id":107,"country_code":"IT","country_name":"Italy","latitude":"37.49025000","longitude":"14.06216000","wikiDataId":"Q18503049"},{"id":136544,"Name":"Caltavuturo","state_id":1709,"state_code":"82","state_name":"Sicily","country_id":107,"country_code":"IT","country_name":"Italy","latitude":"37.82040000","longitude":"13.89158000","wikiDataId":"Q18503049"},{"id":136571,"Name":"Camastra","state_id":1709,"state_code":"82","state_name":"Sicily","country_id":107,"country_code":"IT","country_name":"Italy","latitude":"37.25380000","longitude":"13.79211000","wikiDataId":"Q3651123"},{"id":136594,"Name":"Cammarata","state_id":1709,"state_code":"82","state_name":"Sicily","country_id":107,"country_code":"IT","country_name":"Italy","latitude":"37.63361000","longitude":"13.62722000","wikiDataId":"Q18453662"},{"id":136609,"Name":"Campanella-Gianforma","state_id":1709,"state_code":"82","state_name":"Sicily","country_id":107,"country_code":"IT","country_name":"Italy","latitude":"36.92630000","longitude":"14.83360000","wikiDataId":"Q18469409"},{"id":136639,"Name":"Campobello di Licata","state_id":1709,"state_code":"82","state_name":"Sicily","country_id":107,"country_code":"IT","country_name":"Italy","latitude":"37.25759000","longitude":"13.91811000","wikiDataId":"Q18453665"},{"id":136640,"Name":"Campobello di Mazara","state_id":1709,"state_code":"82","state_name":"Sicily","country_id":107,"country_code":"IT","country_name":"Italy","latitude":"37.63464000","longitude":"12.74946000","wikiDataId":"Q18453665"},{"id":136650,"Name":"Campofelice di Fitalia","state_id":1709,"state_code":"82","state_name":"Sicily","country_id":107,"country_code":"IT","country_name":"Italy","latitude":"37.82686000","longitude":"13.48572000","wikiDataId":"Q3654723"},{"id":136651,"Name":"Campofelice di Roccella","state_id":1709,"state_code":"82","state_name":"Sicily","country_id":107,"country_code":"IT","country_name":"Italy","latitude":"37.99270000","longitude":"13.87648000","wikiDataId":"Q3654723"},{"id":136654,"Name":"Campofiorito","state_id":1709,"state_code":"82","state_name":"Sicily","country_id":107,"country_code":"IT","country_name":"Italy","latitude":"37.75374000","longitude":"13.26875000","wikiDataId":"Q18488916"},{"id":136656,"Name":"Campofranco","state_id":1709,"state_code":"82","state_name":"Sicily","country_id":107,"country_code":"IT","country_name":"Italy","latitude":"37.51208000","longitude":"13.71213000","wikiDataId":"Q18461038"},{"id":136674,"Name":"Camporeale","state_id":1709,"state_code":"82","state_name":"Sicily","country_id":107,"country_code":"IT","country_name":"Italy","latitude":"37.88612000","longitude":"13.10107000","wikiDataId":"Q37672"},{"id":136677,"Name":"Camporotondo Etneo","state_id":1709,"state_code":"82","state_name":"Sicily","country_id":107,"country_code":"IT","country_name":"Italy","latitude":"37.56565000","longitude":"15.00319000","wikiDataId":"Q37672"},{"id":136690,"Name":"Canalicchio","state_id":1709,"state_code":"82","state_name":"Sicily","country_id":107,"country_code":"IT","country_name":"Italy","latitude":"37.54097000","longitude":"15.09645000","wikiDataId":"Q2583458"},{"id":136712,"Name":"Canicattì","state_id":1709,"state_code":"82","state_name":"Sicily","country_id":107,"country_code":"IT","country_name":"Italy","latitude":"37.35842000","longitude":"13.84786000","wikiDataId":"Q18501043"},{"id":136711,"Name":"Canicattini Bagni","state_id":1709,"state_code":"82","state_name":"Sicily","country_id":107,"country_code":"IT","country_name":"Italy","latitude":"37.03171000","longitude":"15.06388000","wikiDataId":"Q18501043"},{"id":136721,"Name":"Canneto","state_id":1709,"state_code":"82","state_name":"Sicily","country_id":107,"country_code":"IT","country_name":"Italy","latitude":"38.49505000","longitude":"14.96037000","wikiDataId":"Q3655409"},{"id":136725,"Name":"Cannizzaro-Favara","state_id":1709,"state_code":"82","state_name":"Sicily","country_id":107,"country_code":"IT","country_name":"Italy","latitude":"38.06163000","longitude":"13.27167000","wikiDataId":"Q18467538"},{"id":136758,"Name":"Capaci","state_id":1709,"state_code":"82","state_name":"Sicily","country_id":107,"country_code":"IT","country_name":"Italy","latitude":"38.17107000","longitude":"13.23930000","wikiDataId":"Q3656639"},{"id":136776,"Name":"Capizzi","state_id":1709,"state_code":"82","state_name":"Sicily","country_id":107,"country_code":"IT","country_name":"Italy","latitude":"37.84788000","longitude":"14.47976000","wikiDataId":"Q18437235"},{"id":136778,"Name":"Capo d'Orlando","state_id":1709,"state_code":"82","state_name":"Sicily","country_id":107,"country_code":"IT","country_name":"Italy","latitude":"38.14262000","longitude":"14.73292000","wikiDataId":"Q3657166"},{"id":136810,"Name":"Capri Leone","state_id":1709,"state_code":"82","state_name":"Sicily","country_id":107,"country_code":"IT","country_name":"Italy","latitude":"38.08682000","longitude":"14.72959000","wikiDataId":"Q18446560"},{"id":136880,"Name":"Carini","state_id":1709,"state_code":"82","state_name":"Sicily","country_id":107,"country_code":"IT","country_name":"Italy","latitude":"38.13240000","longitude":"13.18274000","wikiDataId":"Q18467565"},{"id":136886,"Name":"Carlentini","state_id":1709,"state_code":"82","state_name":"Sicily","country_id":107,"country_code":"IT","country_name":"Italy","latitude":"37.28071000","longitude":"15.01020000","wikiDataId":"Q18467565"},{"id":136900,"Name":"Caronia","state_id":1709,"state_code":"82","state_name":"Sicily","country_id":107,"country_code":"IT","country_name":"Italy","latitude":"38.02381000","longitude":"14.44142000","wikiDataId":"Q18465915"},{"id":136931,"Name":"Carrozziere","state_id":1709,"state_code":"82","state_name":"Sicily","country_id":107,"country_code":"IT","country_name":"Italy","latitude":"37.03760000","longitude":"15.27195000","wikiDataId":"Q18470604"},{"id":136932,"Name":"Carruba","state_id":1709,"state_code":"82","state_name":"Sicily","country_id":107,"country_code":"IT","country_name":"Italy","latitude":"37.69062000","longitude":"15.18815000","wikiDataId":"Q2562846"},{"id":136933,"Name":"Carrubazza-Motta","state_id":1709,"state_code":"82","state_name":"Sicily","country_id":107,"country_code":"IT","country_name":"Italy","latitude":"37.55323000","longitude":"15.10819000","wikiDataId":"Q18461230"},{"id":136950,"Name":"Casa Santa","state_id":1709,"state_code":"82","state_name":"Sicily","country_id":107,"country_code":"IT","country_name":"Italy","latitude":"38.02514000","longitude":"12.54840000","wikiDataId":"Q3661163"},{"id":137010,"Name":"Casalvecchio Siculo","state_id":1709,"state_code":"82","state_name":"Sicily","country_id":107,"country_code":"IT","country_name":"Italy","latitude":"37.95850000","longitude":"15.32371000","wikiDataId":"Q3661449"},{"id":137102,"Name":"Cassaro","state_id":1709,"state_code":"82","state_name":"Sicily","country_id":107,"country_code":"IT","country_name":"Italy","latitude":"37.10571000","longitude":"14.94697000","wikiDataId":"Q13212147"},{"id":137103,"Name":"Cassibile","state_id":1709,"state_code":"82","state_name":"Sicily","country_id":107,"country_code":"IT","country_name":"Italy","latitude":"36.97862000","longitude":"15.20061000","wikiDataId":"Q1012526"},{"id":137125,"Name":"Castanea delle Furie","state_id":1709,"state_code":"82","state_name":"Sicily","country_id":107,"country_code":"IT","country_name":"Italy","latitude":"38.26165000","longitude":"15.52178000","wikiDataId":"Q2580352"},{"id":137170,"Name":"Castel di Judica","state_id":1709,"state_code":"82","state_name":"Sicily","country_id":107,"country_code":"IT","country_name":"Italy","latitude":"37.49475000","longitude":"14.64744000","wikiDataId":"Q18461236"},{"id":137172,"Name":"Castel di Lucio","state_id":1709,"state_code":"82","state_name":"Sicily","country_id":107,"country_code":"IT","country_name":"Italy","latitude":"37.88698000","longitude":"14.31116000","wikiDataId":"Q18461236"},{"id":137183,"Name":"Castelbuono","state_id":1709,"state_code":"82","state_name":"Sicily","country_id":107,"country_code":"IT","country_name":"Italy","latitude":"37.92530000","longitude":"14.08665000","wikiDataId":"Q18473264"},{"id":137188,"Name":"Casteldaccia","state_id":1709,"state_code":"82","state_name":"Sicily","country_id":107,"country_code":"IT","country_name":"Italy","latitude":"38.05121000","longitude":"13.53041000","wikiDataId":"Q3662204"},{"id":137209,"Name":"Castell'Umberto","state_id":1709,"state_code":"82","state_name":"Sicily","country_id":107,"country_code":"IT","country_name":"Italy","latitude":"38.08626000","longitude":"14.80686000","wikiDataId":"Q52072"},{"id":137212,"Name":"Castellammare del Golfo","state_id":1709,"state_code":"82","state_name":"Sicily","country_id":107,"country_code":"IT","country_name":"Italy","latitude":"38.02653000","longitude":"12.88183000","wikiDataId":"Q18426594"},{"id":137216,"Name":"Castellana Sicula","state_id":1709,"state_code":"82","state_name":"Sicily","country_id":107,"country_code":"IT","country_name":"Italy","latitude":"37.78686000","longitude":"14.03906000","wikiDataId":"Q18426594"},{"id":137268,"Name":"Castelluzzo","state_id":1709,"state_code":"82","state_name":"Sicily","country_id":107,"country_code":"IT","country_name":"Italy","latitude":"38.10096000","longitude":"12.73599000","wikiDataId":"Q18471990"},{"id":137275,"Name":"Castelmola","state_id":1709,"state_code":"82","state_name":"Sicily","country_id":107,"country_code":"IT","country_name":"Italy","latitude":"37.85829000","longitude":"15.27713000","wikiDataId":"Q3663000"},{"id":137318,"Name":"Casteltermini","state_id":1709,"state_code":"82","state_name":"Sicily","country_id":107,"country_code":"IT","country_name":"Italy","latitude":"37.53874000","longitude":"13.64601000","wikiDataId":"Q3663015"},{"id":137329,"Name":"Castelvetrano","state_id":1709,"state_code":"82","state_name":"Sicily","country_id":107,"country_code":"IT","country_name":"Italy","latitude":"37.68081000","longitude":"12.79194000","wikiDataId":"Q2163325"},{"id":137357,"Name":"Castiglione di Sicilia","state_id":1709,"state_code":"82","state_name":"Sicily","country_id":107,"country_code":"IT","country_name":"Italy","latitude":"37.88150000","longitude":"15.12156000","wikiDataId":"Q18457021"},{"id":137380,"Name":"Castrofilippo","state_id":1709,"state_code":"82","state_name":"Sicily","country_id":107,"country_code":"IT","country_name":"Italy","latitude":"37.35046000","longitude":"13.75001000","wikiDataId":"Q2249764"},{"id":137385,"Name":"Castronuovo di Sicilia","state_id":1709,"state_code":"82","state_name":"Sicily","country_id":107,"country_code":"IT","country_name":"Italy","latitude":"37.67894000","longitude":"13.60346000","wikiDataId":"Q18467637"},{"id":137387,"Name":"Castroreale","state_id":1709,"state_code":"82","state_name":"Sicily","country_id":107,"country_code":"IT","country_name":"Italy","latitude":"38.09857000","longitude":"15.21012000","wikiDataId":"Q18467637"},{"id":137391,"Name":"Catania","state_id":1709,"state_code":"82","state_name":"Sicily","country_id":107,"country_code":"IT","country_name":"Italy","latitude":"37.47169000","longitude":"14.84731000","wikiDataId":"Q20991246"},{"id":137394,"Name":"Catenanuova","state_id":1709,"state_code":"82","state_name":"Sicily","country_id":107,"country_code":"IT","country_name":"Italy","latitude":"37.56876000","longitude":"14.69076000","wikiDataId":"Q18490788"},{"id":137397,"Name":"Cattolica Eraclea","state_id":1709,"state_code":"82","state_name":"Sicily","country_id":107,"country_code":"IT","country_name":"Italy","latitude":"37.44069000","longitude":"13.39265000","wikiDataId":"Q18490788"},{"id":137403,"Name":"Cava d'Aliga","state_id":1709,"state_code":"82","state_name":"Sicily","country_id":107,"country_code":"IT","country_name":"Italy","latitude":"36.72964000","longitude":"14.69031000","wikiDataId":"Q2588419"},{"id":137458,"Name":"Cefalà Diana","state_id":1709,"state_code":"82","state_name":"Sicily","country_id":107,"country_code":"IT","country_name":"Italy","latitude":"37.91565000","longitude":"13.46325000","wikiDataId":"Q18473176"},{"id":137459,"Name":"Cefalù","state_id":1709,"state_code":"82","state_name":"Sicily","country_id":107,"country_code":"IT","country_name":"Italy","latitude":"38.03856000","longitude":"14.02285000","wikiDataId":"Q18473176"},{"id":137504,"Name":"Centuripe","state_id":1709,"state_code":"82","state_name":"Sicily","country_id":107,"country_code":"IT","country_name":"Italy","latitude":"37.62336000","longitude":"14.74049000","wikiDataId":"Q18437307"},{"id":137511,"Name":"Cerami","state_id":1709,"state_code":"82","state_name":"Sicily","country_id":107,"country_code":"IT","country_name":"Italy","latitude":"37.80953000","longitude":"14.50660000","wikiDataId":"Q13100637"},{"id":137529,"Name":"Cerda","state_id":1709,"state_code":"82","state_name":"Sicily","country_id":107,"country_code":"IT","country_name":"Italy","latitude":"37.90578000","longitude":"13.81496000","wikiDataId":"Q18492542"},{"id":137598,"Name":"Cerza","state_id":1709,"state_code":"82","state_name":"Sicily","country_id":107,"country_code":"IT","country_name":"Italy","latitude":"37.54297000","longitude":"15.10510000","wikiDataId":"Q18461251"},{"id":137609,"Name":"Cesarò","state_id":1709,"state_code":"82","state_name":"Sicily","country_id":107,"country_code":"IT","country_name":"Italy","latitude":"37.84476000","longitude":"14.71308000","wikiDataId":"Q18503199"},{"id":137643,"Name":"Chianchitta-Pallio","state_id":1709,"state_code":"82","state_name":"Sicily","country_id":107,"country_code":"IT","country_name":"Italy","latitude":"37.82108000","longitude":"15.25317000","wikiDataId":"Q18462642"},{"id":137644,"Name":"Chianchitta-Trappitello","state_id":1709,"state_code":"82","state_name":"Sicily","country_id":107,"country_code":"IT","country_name":"Italy","latitude":"37.82984000","longitude":"15.25077000","wikiDataId":"Q18462653"},{"id":137648,"Name":"Chiaramonte Gulfi","state_id":1709,"state_code":"82","state_name":"Sicily","country_id":107,"country_code":"IT","country_name":"Italy","latitude":"37.03050000","longitude":"14.70302000","wikiDataId":"Q18462653"},{"id":137687,"Name":"Chiusa Sclafani","state_id":1709,"state_code":"82","state_name":"Sicily","country_id":107,"country_code":"IT","country_name":"Italy","latitude":"37.67692000","longitude":"13.27074000","wikiDataId":"Q2586177"},{"id":137700,"Name":"Ciaculli","state_id":1709,"state_code":"82","state_name":"Sicily","country_id":107,"country_code":"IT","country_name":"Italy","latitude":"38.07530000","longitude":"13.40719000","wikiDataId":"Q2972191"},{"id":137702,"Name":"Cianciana","state_id":1709,"state_code":"82","state_name":"Sicily","country_id":107,"country_code":"IT","country_name":"Italy","latitude":"37.51896000","longitude":"13.43349000","wikiDataId":"Q2972191"},{"id":137705,"Name":"Ciavolo","state_id":1709,"state_code":"82","state_name":"Sicily","country_id":107,"country_code":"IT","country_name":"Italy","latitude":"37.77943000","longitude":"12.53774000","wikiDataId":"Q18472027"},{"id":137724,"Name":"Ciminna","state_id":1709,"state_code":"82","state_name":"Sicily","country_id":107,"country_code":"IT","country_name":"Italy","latitude":"37.89765000","longitude":"13.55966000","wikiDataId":"Q3676842"},{"id":137735,"Name":"Cinisi","state_id":1709,"state_code":"82","state_name":"Sicily","country_id":107,"country_code":"IT","country_name":"Italy","latitude":"38.16082000","longitude":"13.10099000","wikiDataId":"Q3676842"},{"id":137771,"Name":"Città Giardino","state_id":1709,"state_code":"82","state_name":"Sicily","country_id":107,"country_code":"IT","country_name":"Italy","latitude":"37.10444000","longitude":"15.21172000","wikiDataId":"Q590156"},{"id":137894,"Name":"Collesano","state_id":1709,"state_code":"82","state_name":"Sicily","country_id":107,"country_code":"IT","country_name":"Italy","latitude":"37.91809000","longitude":"13.93702000","wikiDataId":"Q16542958"},{"id":137942,"Name":"Comiso","state_id":1709,"state_code":"82","state_name":"Sicily","country_id":107,"country_code":"IT","country_name":"Italy","latitude":"36.94893000","longitude":"14.60731000","wikiDataId":"Q18426684"},{"id":137943,"Name":"Comitini","state_id":1709,"state_code":"82","state_name":"Sicily","country_id":107,"country_code":"IT","country_name":"Italy","latitude":"37.40735000","longitude":"13.64530000","wikiDataId":"Q18426684"},{"id":137965,"Name":"Condrò","state_id":1709,"state_code":"82","state_name":"Sicily","country_id":107,"country_code":"IT","country_name":"Italy","latitude":"38.17375000","longitude":"15.32660000","wikiDataId":"Q3685939"},{"id":137977,"Name":"Contessa Entellina","state_id":1709,"state_code":"82","state_name":"Sicily","country_id":107,"country_code":"IT","country_name":"Italy","latitude":"37.73005000","longitude":"13.18425000","wikiDataId":"Q818317"},{"id":138017,"Name":"Corleone","state_id":1709,"state_code":"82","state_name":"Sicily","country_id":107,"country_code":"IT","country_name":"Italy","latitude":"37.81338000","longitude":"13.30170000","wikiDataId":"Q18429714"},{"id":138216,"Name":"Custonaci","state_id":1709,"state_code":"82","state_name":"Sicily","country_id":107,"country_code":"IT","country_name":"Italy","latitude":"38.07931000","longitude":"12.68571000","wikiDataId":"Q3699734"},{"id":138242,"Name":"Delia","state_id":1709,"state_code":"82","state_name":"Sicily","country_id":107,"country_code":"IT","country_name":"Italy","latitude":"37.35796000","longitude":"13.92867000","wikiDataId":"Q18438304"},{"id":138300,"Name":"Donnalucata","state_id":1709,"state_code":"82","state_name":"Sicily","country_id":107,"country_code":"IT","country_name":"Italy","latitude":"36.76117000","longitude":"14.64022000","wikiDataId":"Q379107"},{"id":138360,"Name":"Enna","state_id":1709,"state_code":"82","state_name":"Sicily","country_id":107,"country_code":"IT","country_name":"Italy","latitude":"37.58333000","longitude":"14.43333000","wikiDataId":"Q16166"},{"id":138374,"Name":"Erice","state_id":1709,"state_code":"82","state_name":"Sicily","country_id":107,"country_code":"IT","country_name":"Italy","latitude":"38.03785000","longitude":"12.58778000","wikiDataId":"Q18490379"},{"id":138389,"Name":"Evangelisti-Rubino","state_id":1709,"state_code":"82","state_name":"Sicily","country_id":107,"country_code":"IT","country_name":"Italy","latitude":"37.98412000","longitude":"15.17324000","wikiDataId":"Q18462884"},{"id":138417,"Name":"Falcone","state_id":1709,"state_code":"82","state_name":"Sicily","country_id":107,"country_code":"IT","country_name":"Italy","latitude":"38.11698000","longitude":"15.07965000","wikiDataId":"Q18496478"},{"id":138450,"Name":"Faro Superiore","state_id":1709,"state_code":"82","state_name":"Sicily","country_id":107,"country_code":"IT","country_name":"Italy","latitude":"38.26794000","longitude":"15.58268000","wikiDataId":"Q2442711"},{"id":138459,"Name":"Favara","state_id":1709,"state_code":"82","state_name":"Sicily","country_id":107,"country_code":"IT","country_name":"Italy","latitude":"37.31754000","longitude":"13.66226000","wikiDataId":"Q2442711"},{"id":138462,"Name":"Favignana","state_id":1709,"state_code":"82","state_name":"Sicily","country_id":107,"country_code":"IT","country_name":"Italy","latitude":"37.92951000","longitude":"12.32958000","wikiDataId":"Q18443108"},{"id":138481,"Name":"Ferla","state_id":1709,"state_code":"82","state_name":"Sicily","country_id":107,"country_code":"IT","country_name":"Italy","latitude":"37.11978000","longitude":"14.93881000","wikiDataId":"Q18498384"},{"id":138503,"Name":"Ficarazzi","state_id":1709,"state_code":"82","state_name":"Sicily","country_id":107,"country_code":"IT","country_name":"Italy","latitude":"38.09229000","longitude":"13.46390000","wikiDataId":"Q18457570"},{"id":138505,"Name":"Ficarra","state_id":1709,"state_code":"82","state_name":"Sicily","country_id":107,"country_code":"IT","country_name":"Italy","latitude":"38.10849000","longitude":"14.82990000","wikiDataId":"Q18457570"},{"id":138534,"Name":"Finale","state_id":1709,"state_code":"82","state_name":"Sicily","country_id":107,"country_code":"IT","country_name":"Italy","latitude":"38.01891000","longitude":"14.16151000","wikiDataId":"Q2156103"},{"id":138551,"Name":"Fiumedinisi","state_id":1709,"state_code":"82","state_name":"Sicily","country_id":107,"country_code":"IT","country_name":"Italy","latitude":"38.02596000","longitude":"15.38099000","wikiDataId":"Q2530264"},{"id":138553,"Name":"Fiumefreddo Sicilia","state_id":1709,"state_code":"82","state_name":"Sicily","country_id":107,"country_code":"IT","country_name":"Italy","latitude":"37.79146000","longitude":"15.20919000","wikiDataId":"Q2530264"},{"id":138564,"Name":"Floresta","state_id":1709,"state_code":"82","state_name":"Sicily","country_id":107,"country_code":"IT","country_name":"Italy","latitude":"37.98779000","longitude":"14.91096000","wikiDataId":"Q2044"},{"id":138565,"Name":"Floridia","state_id":1709,"state_code":"82","state_name":"Sicily","country_id":107,"country_code":"IT","country_name":"Italy","latitude":"37.08343000","longitude":"15.15332000","wikiDataId":"Q2044"},{"id":138587,"Name":"Fondachelli-Fantina","state_id":1709,"state_code":"82","state_name":"Sicily","country_id":107,"country_code":"IT","country_name":"Italy","latitude":"37.98476000","longitude":"15.17519000","wikiDataId":"Q3747112"},{"id":138664,"Name":"Forza d'Agrò","state_id":1709,"state_code":"82","state_name":"Sicily","country_id":107,"country_code":"IT","country_name":"Italy","latitude":"37.91539000","longitude":"15.33409000","wikiDataId":"Q3748429"},{"id":138698,"Name":"Francavilla di Sicilia","state_id":1709,"state_code":"82","state_name":"Sicily","country_id":107,"country_code":"IT","country_name":"Italy","latitude":"37.90197000","longitude":"15.13821000","wikiDataId":"Q321506"},{"id":138703,"Name":"Francofonte","state_id":1709,"state_code":"82","state_name":"Sicily","country_id":107,"country_code":"IT","country_name":"Italy","latitude":"37.22477000","longitude":"14.87488000","wikiDataId":"Q18436943"},{"id":138727,"Name":"Frazzanò","state_id":1709,"state_code":"82","state_name":"Sicily","country_id":107,"country_code":"IT","country_name":"Italy","latitude":"38.07202000","longitude":"14.74407000","wikiDataId":"Q18504170"},{"id":138748,"Name":"Fulgatore-Torretta","state_id":1709,"state_code":"82","state_name":"Sicily","country_id":107,"country_code":"IT","country_name":"Italy","latitude":"37.94977000","longitude":"12.69303000","wikiDataId":"Q18472303"},{"id":138756,"Name":"Furci Siculo","state_id":1709,"state_code":"82","state_name":"Sicily","country_id":107,"country_code":"IT","country_name":"Italy","latitude":"37.96159000","longitude":"15.37763000","wikiDataId":"Q3754734"},{"id":138757,"Name":"Furnari","state_id":1709,"state_code":"82","state_name":"Sicily","country_id":107,"country_code":"IT","country_name":"Italy","latitude":"38.10436000","longitude":"15.12358000","wikiDataId":"Q3754734"},{"id":138775,"Name":"Gaggi","state_id":1709,"state_code":"82","state_name":"Sicily","country_id":107,"country_code":"IT","country_name":"Italy","latitude":"37.85995000","longitude":"15.22126000","wikiDataId":"Q18490204"},{"id":138782,"Name":"Gagliano Castelferrato","state_id":1709,"state_code":"82","state_name":"Sicily","country_id":107,"country_code":"IT","country_name":"Italy","latitude":"37.70967000","longitude":"14.53524000","wikiDataId":"Q18441004"},{"id":138794,"Name":"Galati Mamertino","state_id":1709,"state_code":"82","state_name":"Sicily","country_id":107,"country_code":"IT","country_name":"Italy","latitude":"38.03176000","longitude":"14.77145000","wikiDataId":"Q18449329"},{"id":138819,"Name":"Gallodoro","state_id":1709,"state_code":"82","state_name":"Sicily","country_id":107,"country_code":"IT","country_name":"Italy","latitude":"37.90206000","longitude":"15.29359000","wikiDataId":"Q18492832"},{"id":138840,"Name":"Gangi","state_id":1709,"state_code":"82","state_name":"Sicily","country_id":107,"country_code":"IT","country_name":"Italy","latitude":"37.79565000","longitude":"14.20437000","wikiDataId":"Q2161598"},{"id":138889,"Name":"Gela","state_id":1709,"state_code":"82","state_name":"Sicily","country_id":107,"country_code":"IT","country_name":"Italy","latitude":"37.07381000","longitude":"14.24038000","wikiDataId":"Q18504757"},{"id":138908,"Name":"Geraci Siculo","state_id":1709,"state_code":"82","state_name":"Sicily","country_id":107,"country_code":"IT","country_name":"Italy","latitude":"37.85901000","longitude":"14.15333000","wikiDataId":"Q18453753"},{"id":138937,"Name":"Giacalone","state_id":1709,"state_code":"82","state_name":"Sicily","country_id":107,"country_code":"IT","country_name":"Italy","latitude":"38.03276000","longitude":"13.23695000","wikiDataId":"Q3761859"},{"id":138940,"Name":"Giammoro","state_id":1709,"state_code":"82","state_name":"Sicily","country_id":107,"country_code":"IT","country_name":"Italy","latitude":"38.20372000","longitude":"15.30666000","wikiDataId":"Q3762446"},{"id":138944,"Name":"Giardina Gallotti","state_id":1709,"state_code":"82","state_name":"Sicily","country_id":107,"country_code":"IT","country_name":"Italy","latitude":"37.35073000","longitude":"13.52272000","wikiDataId":"Q3763793"},{"id":138945,"Name":"Giardinello","state_id":1709,"state_code":"82","state_name":"Sicily","country_id":107,"country_code":"IT","country_name":"Italy","latitude":"38.08706000","longitude":"13.15648000","wikiDataId":"Q3763793"},{"id":138946,"Name":"Giardini-Naxos","state_id":1709,"state_code":"82","state_name":"Sicily","country_id":107,"country_code":"IT","country_name":"Italy","latitude":"37.82755000","longitude":"15.26713000","wikiDataId":"Q3763793"},{"id":138948,"Name":"Giarratana","state_id":1709,"state_code":"82","state_name":"Sicily","country_id":107,"country_code":"IT","country_name":"Italy","latitude":"37.04741000","longitude":"14.79454000","wikiDataId":"Q3763793"},{"id":138949,"Name":"Giarre","state_id":1709,"state_code":"82","state_name":"Sicily","country_id":107,"country_code":"IT","country_name":"Italy","latitude":"37.72440000","longitude":"15.18165000","wikiDataId":"Q3763793"},{"id":138973,"Name":"Gioiosa Marea","state_id":1709,"state_code":"82","state_name":"Sicily","country_id":107,"country_code":"IT","country_name":"Italy","latitude":"38.17373000","longitude":"14.89932000","wikiDataId":"Q18486951"},{"id":138989,"Name":"Giuliana","state_id":1709,"state_code":"82","state_name":"Sicily","country_id":107,"country_code":"IT","country_name":"Italy","latitude":"37.67280000","longitude":"13.23737000","wikiDataId":"Q18503320"},{"id":139004,"Name":"Gliaca","state_id":1709,"state_code":"82","state_name":"Sicily","country_id":107,"country_code":"IT","country_name":"Italy","latitude":"38.16317000","longitude":"14.84768000","wikiDataId":"Q18463432"},{"id":139010,"Name":"Godrano","state_id":1709,"state_code":"82","state_name":"Sicily","country_id":107,"country_code":"IT","country_name":"Italy","latitude":"37.90310000","longitude":"13.42823000","wikiDataId":"Q2326372"},{"id":139058,"Name":"Grammichele","state_id":1709,"state_code":"82","state_name":"Sicily","country_id":107,"country_code":"IT","country_name":"Italy","latitude":"37.21326000","longitude":"14.63311000","wikiDataId":"Q18498460"},{"id":139066,"Name":"Graniti","state_id":1709,"state_code":"82","state_name":"Sicily","country_id":107,"country_code":"IT","country_name":"Italy","latitude":"37.88986000","longitude":"15.22459000","wikiDataId":"Q2293125"},{"id":139076,"Name":"Gratteri","state_id":1709,"state_code":"82","state_name":"Sicily","country_id":107,"country_code":"IT","country_name":"Italy","latitude":"37.96607000","longitude":"13.97314000","wikiDataId":"Q2298140"},{"id":139082,"Name":"Gravina di Catania","state_id":1709,"state_code":"82","state_name":"Sicily","country_id":107,"country_code":"IT","country_name":"Italy","latitude":"37.56085000","longitude":"15.06292000","wikiDataId":"Q18492879"},{"id":139125,"Name":"Grotte","state_id":1709,"state_code":"82","state_name":"Sicily","country_id":107,"country_code":"IT","country_name":"Italy","latitude":"37.40346000","longitude":"13.69889000","wikiDataId":"Q18468288"},{"id":139149,"Name":"Gualtieri Sicaminò","state_id":1709,"state_code":"82","state_name":"Sicily","country_id":107,"country_code":"IT","country_name":"Italy","latitude":"38.16267000","longitude":"15.31699000","wikiDataId":"Q18453762"},{"id":139177,"Name":"Guidomandri Marina","state_id":1709,"state_code":"82","state_name":"Sicily","country_id":107,"country_code":"IT","country_name":"Italy","latitude":"38.04528000","longitude":"15.46303000","wikiDataId":"Q18463487"},{"id":139235,"Name":"Isnello","state_id":1709,"state_code":"82","state_name":"Sicily","country_id":107,"country_code":"IT","country_name":"Italy","latitude":"37.94324000","longitude":"14.00724000","wikiDataId":"Q18436956"},{"id":139249,"Name":"Isola delle Femmine","state_id":1709,"state_code":"82","state_name":"Sicily","country_id":107,"country_code":"IT","country_name":"Italy","latitude":"38.19123000","longitude":"13.24691000","wikiDataId":"Q16566532"},{"id":139259,"Name":"Ispica","state_id":1709,"state_code":"82","state_name":"Sicily","country_id":107,"country_code":"IT","country_name":"Italy","latitude":"36.78622000","longitude":"14.90530000","wikiDataId":"Q18457884"},{"id":139267,"Name":"Itala","state_id":1709,"state_code":"82","state_name":"Sicily","country_id":107,"country_code":"IT","country_name":"Italy","latitude":"38.05144000","longitude":"15.43706000","wikiDataId":"Q1118172"},{"id":139282,"Name":"Joppolo Giancaxio","state_id":1709,"state_code":"82","state_name":"Sicily","country_id":107,"country_code":"IT","country_name":"Italy","latitude":"37.38681000","longitude":"13.55586000","wikiDataId":"Q1118172"},{"id":139284,"Name":"Kamma","state_id":1709,"state_code":"82","state_name":"Sicily","country_id":107,"country_code":"IT","country_name":"Italy","latitude":"36.79701000","longitude":"12.03617000","wikiDataId":"Q18472368"},{"id":139349,"Name":"Lampedusa","state_id":1709,"state_code":"82","state_name":"Sicily","country_id":107,"country_code":"IT","country_name":"Italy","latitude":"35.50142000","longitude":"12.60964000","wikiDataId":"Q18496588"},{"id":139372,"Name":"Larderia","state_id":1709,"state_code":"82","state_name":"Sicily","country_id":107,"country_code":"IT","country_name":"Italy","latitude":"38.14101000","longitude":"15.50287000","wikiDataId":"Q3827060"},{"id":139379,"Name":"Lascari","state_id":1709,"state_code":"82","state_name":"Sicily","country_id":107,"country_code":"IT","country_name":"Italy","latitude":"38.00067000","longitude":"13.94053000","wikiDataId":"Q3827060"},{"id":139416,"Name":"Lavinaio-Monterosso","state_id":1709,"state_code":"82","state_name":"Sicily","country_id":107,"country_code":"IT","country_name":"Italy","latitude":"37.64097000","longitude":"15.10462000","wikiDataId":"Q18461392"},{"id":139444,"Name":"Leni","state_id":1709,"state_code":"82","state_name":"Sicily","country_id":107,"country_code":"IT","country_name":"Italy","latitude":"38.55534000","longitude":"14.82497000","wikiDataId":"Q18487625"},{"id":139454,"Name":"Lentini","state_id":1709,"state_code":"82","state_name":"Sicily","country_id":107,"country_code":"IT","country_name":"Italy","latitude":"37.28556000","longitude":"14.99737000","wikiDataId":"Q18447022"},{"id":139457,"Name":"Leonforte","state_id":1709,"state_code":"82","state_name":"Sicily","country_id":107,"country_code":"IT","country_name":"Italy","latitude":"37.64197000","longitude":"14.39766000","wikiDataId":"Q18474412"},{"id":139463,"Name":"Lercara Friddi","state_id":1709,"state_code":"82","state_name":"Sicily","country_id":107,"country_code":"IT","country_name":"Italy","latitude":"37.74657000","longitude":"13.60391000","wikiDataId":"Q18448167"},{"id":139477,"Name":"Letojanni","state_id":1709,"state_code":"82","state_name":"Sicily","country_id":107,"country_code":"IT","country_name":"Italy","latitude":"37.88050000","longitude":"15.30735000","wikiDataId":"Q3830940"},{"id":139493,"Name":"Librizzi","state_id":1709,"state_code":"82","state_name":"Sicily","country_id":107,"country_code":"IT","country_name":"Italy","latitude":"38.09719000","longitude":"14.95909000","wikiDataId":"Q384901"},{"id":139494,"Name":"Licata","state_id":1709,"state_code":"82","state_name":"Sicily","country_id":107,"country_code":"IT","country_name":"Italy","latitude":"37.10267000","longitude":"13.93972000","wikiDataId":"Q384901"},{"id":139498,"Name":"Licodia Eubea","state_id":1709,"state_code":"82","state_name":"Sicily","country_id":107,"country_code":"IT","country_name":"Italy","latitude":"37.15674000","longitude":"14.70555000","wikiDataId":"Q18437457"},{"id":139522,"Name":"Limina","state_id":1709,"state_code":"82","state_name":"Sicily","country_id":107,"country_code":"IT","country_name":"Italy","latitude":"37.94076000","longitude":"15.27119000","wikiDataId":"Q18441267"},{"id":139530,"Name":"Linera","state_id":1709,"state_code":"82","state_name":"Sicily","country_id":107,"country_code":"IT","country_name":"Italy","latitude":"37.66380000","longitude":"15.13653000","wikiDataId":"Q3832885"},{"id":139531,"Name":"Linguaglossa","state_id":1709,"state_code":"82","state_name":"Sicily","country_id":107,"country_code":"IT","country_name":"Italy","latitude":"37.84243000","longitude":"15.13774000","wikiDataId":"Q3832885"},{"id":139533,"Name":"Lipari","state_id":1709,"state_code":"82","state_name":"Sicily","country_id":107,"country_code":"IT","country_name":"Italy","latitude":"38.46743000","longitude":"14.95398000","wikiDataId":"Q3832885"},{"id":139595,"Name":"Longi","state_id":1709,"state_code":"82","state_name":"Sicily","country_id":107,"country_code":"IT","country_name":"Italy","latitude":"38.02617000","longitude":"14.75306000","wikiDataId":"Q18506453"},{"id":139630,"Name":"Lucca Sicula","state_id":1709,"state_code":"82","state_name":"Sicily","country_id":107,"country_code":"IT","country_name":"Italy","latitude":"37.57783000","longitude":"13.30579000","wikiDataId":"Q18509842"},{"id":139763,"Name":"Maletto","state_id":1709,"state_code":"82","state_name":"Sicily","country_id":107,"country_code":"IT","country_name":"Italy","latitude":"37.82914000","longitude":"14.86403000","wikiDataId":"Q18437479"},{"id":139764,"Name":"Malfa","state_id":1709,"state_code":"82","state_name":"Sicily","country_id":107,"country_code":"IT","country_name":"Italy","latitude":"38.57730000","longitude":"14.83598000","wikiDataId":"Q18437479"},{"id":139776,"Name":"Malvagna","state_id":1709,"state_code":"82","state_name":"Sicily","country_id":107,"country_code":"IT","country_name":"Italy","latitude":"37.91752000","longitude":"15.05548000","wikiDataId":"Q3843959"},{"id":139783,"Name":"Mandanici","state_id":1709,"state_code":"82","state_name":"Sicily","country_id":107,"country_code":"IT","country_name":"Italy","latitude":"38.00356000","longitude":"15.31669000","wikiDataId":"Q3843959"},{"id":139799,"Name":"Maniace","state_id":1709,"state_code":"82","state_name":"Sicily","country_id":107,"country_code":"IT","country_name":"Italy","latitude":"37.88306000","longitude":"14.79808000","wikiDataId":"Q18458058"},{"id":139833,"Name":"Marausa","state_id":1709,"state_code":"82","state_name":"Sicily","country_id":107,"country_code":"IT","country_name":"Italy","latitude":"37.94166000","longitude":"12.50948000","wikiDataId":"Q14224116"},{"id":139869,"Name":"Marianopoli","state_id":1709,"state_code":"82","state_name":"Sicily","country_id":107,"country_code":"IT","country_name":"Italy","latitude":"37.59840000","longitude":"13.91520000","wikiDataId":"Q18491015"},{"id":139880,"Name":"Marina di Caronia","state_id":1709,"state_code":"82","state_name":"Sicily","country_id":107,"country_code":"IT","country_name":"Italy","latitude":"38.03545000","longitude":"14.44182000","wikiDataId":"Q3848099"},{"id":139893,"Name":"Marina di Ragusa","state_id":1709,"state_code":"82","state_name":"Sicily","country_id":107,"country_code":"IT","country_name":"Italy","latitude":"36.78575000","longitude":"14.55474000","wikiDataId":"Q1012515"},{"id":139898,"Name":"Marinella","state_id":1709,"state_code":"82","state_name":"Sicily","country_id":107,"country_code":"IT","country_name":"Italy","latitude":"37.59475000","longitude":"12.84434000","wikiDataId":"Q3293265"},{"id":139899,"Name":"Marineo","state_id":1709,"state_code":"82","state_name":"Sicily","country_id":107,"country_code":"IT","country_name":"Italy","latitude":"37.95185000","longitude":"13.41781000","wikiDataId":"Q3293265"},{"id":139919,"Name":"Marsala","state_id":1709,"state_code":"82","state_name":"Sicily","country_id":107,"country_code":"IT","country_name":"Italy","latitude":"37.79920000","longitude":"12.43670000","wikiDataId":"Q18444890"},{"id":139952,"Name":"Mascali","state_id":1709,"state_code":"82","state_name":"Sicily","country_id":107,"country_code":"IT","country_name":"Italy","latitude":"37.75794000","longitude":"15.19662000","wikiDataId":"Q18436637"},{"id":139953,"Name":"Mascalucia","state_id":1709,"state_code":"82","state_name":"Sicily","country_id":107,"country_code":"IT","country_name":"Italy","latitude":"37.57465000","longitude":"15.04964000","wikiDataId":"Q18436637"},{"id":140002,"Name":"Maugeri","state_id":1709,"state_code":"82","state_name":"Sicily","country_id":107,"country_code":"IT","country_name":"Italy","latitude":"37.58608000","longitude":"15.11785000","wikiDataId":"Q18461421"},{"id":140004,"Name":"Mazara del Vallo","state_id":1709,"state_code":"82","state_name":"Sicily","country_id":107,"country_code":"IT","country_name":"Italy","latitude":"37.65535000","longitude":"12.58986000","wikiDataId":"Q3853218"},{"id":140003,"Name":"Mazara II","state_id":1709,"state_code":"82","state_name":"Sicily","country_id":107,"country_code":"IT","country_name":"Italy","latitude":"37.68146000","longitude":"12.60074000","wikiDataId":"Q3853218"},{"id":140007,"Name":"Mazzarino","state_id":1709,"state_code":"82","state_name":"Sicily","country_id":107,"country_code":"IT","country_name":"Italy","latitude":"37.30188000","longitude":"14.20959000","wikiDataId":"Q3853218"},{"id":140009,"Name":"Mazzarrà Sant'Andrea","state_id":1709,"state_code":"82","state_name":"Sicily","country_id":107,"country_code":"IT","country_name":"Italy","latitude":"38.08969000","longitude":"15.13535000","wikiDataId":"Q3853218"},{"id":140008,"Name":"Mazzarrone","state_id":1709,"state_code":"82","state_name":"Sicily","country_id":107,"country_code":"IT","country_name":"Italy","latitude":"37.08834000","longitude":"14.56128000","wikiDataId":"Q3853218"},{"id":140044,"Name":"Melia","state_id":1709,"state_code":"82","state_name":"Sicily","country_id":107,"country_code":"IT","country_name":"Italy","latitude":"37.90384000","longitude":"15.27499000","wikiDataId":"Q18464144"},{"id":140047,"Name":"Melilli","state_id":1709,"state_code":"82","state_name":"Sicily","country_id":107,"country_code":"IT","country_name":"Italy","latitude":"37.17821000","longitude":"15.13020000","wikiDataId":"Q18464144"},{"id":140064,"Name":"Menfi","state_id":1709,"state_code":"82","state_name":"Sicily","country_id":107,"country_code":"IT","country_name":"Italy","latitude":"37.60409000","longitude":"12.96889000","wikiDataId":"Q18464144"},{"id":140090,"Name":"Merì","state_id":1709,"state_code":"82","state_name":"Sicily","country_id":107,"country_code":"IT","country_name":"Italy","latitude":"38.16630000","longitude":"15.24970000","wikiDataId":"Q18452163"},{"id":140098,"Name":"Messina","state_id":1709,"state_code":"82","state_name":"Sicily","country_id":107,"country_code":"IT","country_name":"Italy","latitude":"38.05000000","longitude":"14.86667000","wikiDataId":"Q20991250"},{"id":140120,"Name":"Mezzojuso","state_id":1709,"state_code":"82","state_name":"Sicily","country_id":107,"country_code":"IT","country_name":"Italy","latitude":"37.86509000","longitude":"13.46509000","wikiDataId":"Q18439485"},{"id":140145,"Name":"Milazzo","state_id":1709,"state_code":"82","state_name":"Sicily","country_id":107,"country_code":"IT","country_name":"Italy","latitude":"38.22008000","longitude":"15.24023000","wikiDataId":"Q18443739"},{"id":140146,"Name":"Milena","state_id":1709,"state_code":"82","state_name":"Sicily","country_id":107,"country_code":"IT","country_name":"Italy","latitude":"37.47133000","longitude":"13.73613000","wikiDataId":"Q18443739"},{"id":140150,"Name":"Militello in Val di Catania","state_id":1709,"state_code":"82","state_name":"Sicily","country_id":107,"country_code":"IT","country_name":"Italy","latitude":"37.27594000","longitude":"14.79342000","wikiDataId":"Q18443739"},{"id":140149,"Name":"Militello Rosmarino","state_id":1709,"state_code":"82","state_name":"Sicily","country_id":107,"country_code":"IT","country_name":"Italy","latitude":"38.04575000","longitude":"14.67584000","wikiDataId":"Q18443739"},{"id":140153,"Name":"Milo","state_id":1709,"state_code":"82","state_name":"Sicily","country_id":107,"country_code":"IT","country_name":"Italy","latitude":"37.72450000","longitude":"15.11554000","wikiDataId":"Q18491592"},{"id":140156,"Name":"Mineo","state_id":1709,"state_code":"82","state_name":"Sicily","country_id":107,"country_code":"IT","country_name":"Italy","latitude":"37.26494000","longitude":"14.69381000","wikiDataId":"Q18499364"},{"id":140168,"Name":"Mirabella Imbaccari","state_id":1709,"state_code":"82","state_name":"Sicily","country_id":107,"country_code":"IT","country_name":"Italy","latitude":"37.32702000","longitude":"14.44605000","wikiDataId":"Q3858689"},{"id":140177,"Name":"Mirto","state_id":1709,"state_code":"82","state_name":"Sicily","country_id":107,"country_code":"IT","country_name":"Italy","latitude":"38.08439000","longitude":"14.74609000","wikiDataId":"Q18429947"},{"id":140180,"Name":"Misilmeri","state_id":1709,"state_code":"82","state_name":"Sicily","country_id":107,"country_code":"IT","country_name":"Italy","latitude":"38.03183000","longitude":"13.44795000","wikiDataId":"Q18429947"},{"id":140184,"Name":"Misterbianco","state_id":1709,"state_code":"82","state_name":"Sicily","country_id":107,"country_code":"IT","country_name":"Italy","latitude":"37.51803000","longitude":"15.00913000","wikiDataId":"Q18429947"},{"id":140185,"Name":"Mistretta","state_id":1709,"state_code":"82","state_name":"Sicily","country_id":107,"country_code":"IT","country_name":"Italy","latitude":"37.92823000","longitude":"14.35780000","wikiDataId":"Q18429947"},{"id":140189,"Name":"Modica","state_id":1709,"state_code":"82","state_name":"Sicily","country_id":107,"country_code":"IT","country_name":"Italy","latitude":"36.85868000","longitude":"14.75966000","wikiDataId":"Q18458159"},{"id":140205,"Name":"Moio Alcantara","state_id":1709,"state_code":"82","state_name":"Sicily","country_id":107,"country_code":"IT","country_name":"Italy","latitude":"37.90056000","longitude":"15.05072000","wikiDataId":"Q2243749"},{"id":140280,"Name":"Monforte San Giorgio","state_id":1709,"state_code":"82","state_name":"Sicily","country_id":107,"country_code":"IT","country_name":"Italy","latitude":"38.15733000","longitude":"15.38132000","wikiDataId":"Q30027673"},{"id":140287,"Name":"Mongiuffi Melia","state_id":1709,"state_code":"82","state_name":"Sicily","country_id":107,"country_code":"IT","country_name":"Italy","latitude":"37.90336000","longitude":"15.27539000","wikiDataId":"Q30027673"},{"id":140297,"Name":"Monreale","state_id":1709,"state_code":"82","state_name":"Sicily","country_id":107,"country_code":"IT","country_name":"Italy","latitude":"38.08125000","longitude":"13.28947000","wikiDataId":"Q1985002"},{"id":140311,"Name":"Montagnareale","state_id":1709,"state_code":"82","state_name":"Sicily","country_id":107,"country_code":"IT","country_name":"Italy","latitude":"38.13216000","longitude":"14.94658000","wikiDataId":"Q1985002"},{"id":140317,"Name":"Montalbano Elicona","state_id":1709,"state_code":"82","state_name":"Sicily","country_id":107,"country_code":"IT","country_name":"Italy","latitude":"38.02360000","longitude":"15.01393000","wikiDataId":"Q3861105"},{"id":140329,"Name":"Montallegro","state_id":1709,"state_code":"82","state_name":"Sicily","country_id":107,"country_code":"IT","country_name":"Italy","latitude":"37.39121000","longitude":"13.35179000","wikiDataId":"Q2802661"},{"id":140428,"Name":"Montedoro","state_id":1709,"state_code":"82","state_name":"Sicily","country_id":107,"country_code":"IT","country_name":"Italy","latitude":"37.45431000","longitude":"13.81684000","wikiDataId":"Q18436663"},{"id":140473,"Name":"Montelepre","state_id":1709,"state_code":"82","state_name":"Sicily","country_id":107,"country_code":"IT","country_name":"Italy","latitude":"38.09026000","longitude":"13.17518000","wikiDataId":"Q18454897"},{"id":140483,"Name":"Montemaggiore Belsito","state_id":1709,"state_code":"82","state_name":"Sicily","country_id":107,"country_code":"IT","country_name":"Italy","latitude":"37.84818000","longitude":"13.76206000","wikiDataId":"Q18443845"},{"id":140522,"Name":"Monterosso Almo","state_id":1709,"state_code":"82","state_name":"Sicily","country_id":107,"country_code":"IT","country_name":"Italy","latitude":"37.08884000","longitude":"14.76498000","wikiDataId":"Q18426821"},{"id":140546,"Name":"Montevago","state_id":1709,"state_code":"82","state_name":"Sicily","country_id":107,"country_code":"IT","country_name":"Italy","latitude":"37.70224000","longitude":"12.98584000","wikiDataId":"Q18487695"},{"id":140657,"Name":"Motta Camastra","state_id":1709,"state_code":"82","state_name":"Sicily","country_id":107,"country_code":"IT","country_name":"Italy","latitude":"37.89431000","longitude":"15.17008000","wikiDataId":"Q18506582"},{"id":140664,"Name":"Motta d'Affermo","state_id":1709,"state_code":"82","state_name":"Sicily","country_id":107,"country_code":"IT","country_name":"Italy","latitude":"37.98096000","longitude":"14.30337000","wikiDataId":"Q18506582"},{"id":140661,"Name":"Motta Sant'Anastasia","state_id":1709,"state_code":"82","state_name":"Sicily","country_id":107,"country_code":"IT","country_name":"Italy","latitude":"37.51205000","longitude":"14.96628000","wikiDataId":"Q18506582"},{"id":140704,"Name":"Mussomeli","state_id":1709,"state_code":"82","state_name":"Sicily","country_id":107,"country_code":"IT","country_name":"Italy","latitude":"37.58067000","longitude":"13.75214000","wikiDataId":"Q3868493"},{"id":140721,"Name":"Naro","state_id":1709,"state_code":"82","state_name":"Sicily","country_id":107,"country_code":"IT","country_name":"Italy","latitude":"37.29248000","longitude":"13.79337000","wikiDataId":"Q18494864"},{"id":140724,"Name":"Naso","state_id":1709,"state_code":"82","state_name":"Sicily","country_id":107,"country_code":"IT","country_name":"Italy","latitude":"38.12215000","longitude":"14.78702000","wikiDataId":"Q18462064"},{"id":140763,"Name":"Nicolosi","state_id":1709,"state_code":"82","state_name":"Sicily","country_id":107,"country_code":"IT","country_name":"Italy","latitude":"37.62148000","longitude":"15.02785000","wikiDataId":"Q2257438"},{"id":140765,"Name":"Nicosia","state_id":1709,"state_code":"82","state_name":"Sicily","country_id":107,"country_code":"IT","country_name":"Italy","latitude":"37.74747000","longitude":"14.39218000","wikiDataId":"Q2257438"},{"id":140771,"Name":"Niscemi","state_id":1709,"state_code":"82","state_name":"Sicily","country_id":107,"country_code":"IT","country_name":"Italy","latitude":"37.14649000","longitude":"14.39381000","wikiDataId":"Q18475265"},{"id":140772,"Name":"Nissoria","state_id":1709,"state_code":"82","state_name":"Sicily","country_id":107,"country_code":"IT","country_name":"Italy","latitude":"37.65410000","longitude":"14.44810000","wikiDataId":"Q18475265"},{"id":140775,"Name":"Nizza di Sicilia","state_id":1709,"state_code":"82","state_name":"Sicily","country_id":107,"country_code":"IT","country_name":"Italy","latitude":"37.99081000","longitude":"15.40956000","wikiDataId":"Q18445016"},{"id":140812,"Name":"Noto","state_id":1709,"state_code":"82","state_name":"Sicily","country_id":107,"country_code":"IT","country_name":"Italy","latitude":"36.89244000","longitude":"15.06977000","wikiDataId":"Q3878603"},{"id":140823,"Name":"Novara di Sicilia","state_id":1709,"state_code":"82","state_name":"Sicily","country_id":107,"country_code":"IT","country_name":"Italy","latitude":"38.01538000","longitude":"15.13134000","wikiDataId":"Q18509753"},{"id":140848,"Name":"Nunziata","state_id":1709,"state_code":"82","state_name":"Sicily","country_id":107,"country_code":"IT","country_name":"Italy","latitude":"37.75858000","longitude":"15.17058000","wikiDataId":"Q2529258"},{"id":140851,"Name":"Nuova Gibellina","state_id":1709,"state_code":"82","state_name":"Sicily","country_id":107,"country_code":"IT","country_name":"Italy","latitude":"37.80704000","longitude":"12.86954000","wikiDataId":"Q18472664"},{"id":140852,"Name":"Nuovo Centro Urbano Poggioreale","state_id":1709,"state_code":"82","state_name":"Sicily","country_id":107,"country_code":"IT","country_name":"Italy","latitude":"37.76404000","longitude":"13.03594000","wikiDataId":"Q18509833"},{"id":140900,"Name":"Oliveri","state_id":1709,"state_code":"82","state_name":"Sicily","country_id":107,"country_code":"IT","country_name":"Italy","latitude":"38.12515000","longitude":"15.06068000","wikiDataId":"Q18448462"},{"id":141068,"Name":"Pace del Mela","state_id":1709,"state_code":"82","state_name":"Sicily","country_id":107,"country_code":"IT","country_name":"Italy","latitude":"38.17997000","longitude":"15.30629000","wikiDataId":"Q18442909"},{"id":141069,"Name":"Paceco","state_id":1709,"state_code":"82","state_name":"Sicily","country_id":107,"country_code":"IT","country_name":"Italy","latitude":"37.98026000","longitude":"12.55766000","wikiDataId":"Q18442909"},{"id":141071,"Name":"Pachino","state_id":1709,"state_code":"82","state_name":"Sicily","country_id":107,"country_code":"IT","country_name":"Italy","latitude":"36.71522000","longitude":"15.09019000","wikiDataId":"Q18442909"},{"id":58204,"Name":"Pagliara","state_id":1709,"state_code":"82","state_name":"Sicily","country_id":107,"country_code":"IT","country_name":"Italy","latitude":"37.98546000","longitude":"15.35969000","wikiDataId":""},{"id":58221,"Name":"Palagonia","state_id":1709,"state_code":"82","state_name":"Sicily","country_id":107,"country_code":"IT","country_name":"Italy","latitude":"37.32955000","longitude":"14.74474000","wikiDataId":"Q18437567"},{"id":58228,"Name":"Palazzo Adriano","state_id":1709,"state_code":"82","state_name":"Sicily","country_id":107,"country_code":"IT","country_name":"Italy","latitude":"37.68066000","longitude":"13.37941000","wikiDataId":"Q3889493"},{"id":58232,"Name":"Palazzolo","state_id":1709,"state_code":"82","state_name":"Sicily","country_id":107,"country_code":"IT","country_name":"Italy","latitude":"37.56224000","longitude":"14.92987000","wikiDataId":"Q18461454"},{"id":58233,"Name":"Palazzolo Acreide","state_id":1709,"state_code":"82","state_name":"Sicily","country_id":107,"country_code":"IT","country_name":"Italy","latitude":"37.06261000","longitude":"14.90593000","wikiDataId":"Q18461454"},{"id":58240,"Name":"Palermo","state_id":1709,"state_code":"82","state_name":"Sicily","country_id":107,"country_code":"IT","country_name":"Italy","latitude":"37.81667000","longitude":"13.58333000","wikiDataId":"Q20795016"},{"id":58254,"Name":"Palma di Montechiaro","state_id":1709,"state_code":"82","state_name":"Sicily","country_id":107,"country_code":"IT","country_name":"Italy","latitude":"37.19066000","longitude":"13.76603000","wikiDataId":"Q18489720"},{"id":58284,"Name":"Pantelleria","state_id":1709,"state_code":"82","state_name":"Sicily","country_id":107,"country_code":"IT","country_name":"Italy","latitude":"36.82836000","longitude":"11.94611000","wikiDataId":"Q18493322"},{"id":58316,"Name":"Partanna","state_id":1709,"state_code":"82","state_name":"Sicily","country_id":107,"country_code":"IT","country_name":"Italy","latitude":"37.72680000","longitude":"12.88917000","wikiDataId":"Q2703485"},{"id":58317,"Name":"Partinico","state_id":1709,"state_code":"82","state_name":"Sicily","country_id":107,"country_code":"IT","country_name":"Italy","latitude":"38.04657000","longitude":"13.11785000","wikiDataId":"Q2703485"},{"id":58338,"Name":"Pasteria-Lapide","state_id":1709,"state_code":"82","state_name":"Sicily","country_id":107,"country_code":"IT","country_name":"Italy","latitude":"37.81012000","longitude":"15.22818000","wikiDataId":"Q18461464"},{"id":58346,"Name":"Paternò","state_id":1709,"state_code":"82","state_name":"Sicily","country_id":107,"country_code":"IT","country_name":"Italy","latitude":"37.56675000","longitude":"14.90254000","wikiDataId":"Q18461464"},{"id":58350,"Name":"Patti","state_id":1709,"state_code":"82","state_name":"Sicily","country_id":107,"country_code":"IT","country_name":"Italy","latitude":"38.14736000","longitude":"14.96409000","wikiDataId":"Q18489737"},{"id":58373,"Name":"Pedagaggi","state_id":1709,"state_code":"82","state_name":"Sicily","country_id":107,"country_code":"IT","country_name":"Italy","latitude":"37.19182000","longitude":"14.93654000","wikiDataId":"Q770694"},{"id":58374,"Name":"Pedalino","state_id":1709,"state_code":"82","state_name":"Sicily","country_id":107,"country_code":"IT","country_name":"Italy","latitude":"37.02320000","longitude":"14.58116000","wikiDataId":"Q2232790"},{"id":58375,"Name":"Pedara","state_id":1709,"state_code":"82","state_name":"Sicily","country_id":107,"country_code":"IT","country_name":"Italy","latitude":"37.62386000","longitude":"15.05672000","wikiDataId":"Q2232790"},{"id":58409,"Name":"Pennisi","state_id":1709,"state_code":"82","state_name":"Sicily","country_id":107,"country_code":"IT","country_name":"Italy","latitude":"37.64945000","longitude":"15.12385000","wikiDataId":"Q2513042"},{"id":58477,"Name":"Petralia Soprana","state_id":1709,"state_code":"82","state_name":"Sicily","country_id":107,"country_code":"IT","country_name":"Italy","latitude":"37.80064000","longitude":"14.10813000","wikiDataId":"Q18495770"},{"id":58478,"Name":"Petralia Sottana","state_id":1709,"state_code":"82","state_name":"Sicily","country_id":107,"country_code":"IT","country_name":"Italy","latitude":"37.80919000","longitude":"14.09293000","wikiDataId":"Q18495770"},{"id":58487,"Name":"Petrosino","state_id":1709,"state_code":"82","state_name":"Sicily","country_id":107,"country_code":"IT","country_name":"Italy","latitude":"37.71271000","longitude":"12.49964000","wikiDataId":"Q775778"},{"id":58491,"Name":"Pettineo","state_id":1709,"state_code":"82","state_name":"Sicily","country_id":107,"country_code":"IT","country_name":"Italy","latitude":"37.96793000","longitude":"14.29118000","wikiDataId":"Q775778"},{"id":58514,"Name":"Piana degli Albanesi","state_id":1709,"state_code":"82","state_name":"Sicily","country_id":107,"country_code":"IT","country_name":"Italy","latitude":"37.99372000","longitude":"13.28464000","wikiDataId":"Q18444055"},{"id":58540,"Name":"Piano dei Geli","state_id":1709,"state_code":"82","state_name":"Sicily","country_id":107,"country_code":"IT","country_name":"Italy","latitude":"38.09919000","longitude":"13.27478000","wikiDataId":"Q18468522"},{"id":58539,"Name":"Piano Maglio-Blandino","state_id":1709,"state_code":"82","state_name":"Sicily","country_id":107,"country_code":"IT","country_name":"Italy","latitude":"38.05793000","longitude":"13.30909000","wikiDataId":"Q18468528"},{"id":58547,"Name":"Pianoconte","state_id":1709,"state_code":"82","state_name":"Sicily","country_id":107,"country_code":"IT","country_name":"Italy","latitude":"38.47432000","longitude":"14.92857000","wikiDataId":"Q18464887"},{"id":58565,"Name":"Piazza Armerina","state_id":1709,"state_code":"82","state_name":"Sicily","country_id":107,"country_code":"IT","country_name":"Italy","latitude":"37.38417000","longitude":"14.36921000","wikiDataId":"Q18440138"},{"id":58589,"Name":"Piedimonte Etneo","state_id":1709,"state_code":"82","state_name":"Sicily","country_id":107,"country_code":"IT","country_name":"Italy","latitude":"37.80677000","longitude":"15.17516000","wikiDataId":"Q18436693"},{"id":58622,"Name":"Pietraperzia","state_id":1709,"state_code":"82","state_name":"Sicily","country_id":107,"country_code":"IT","country_name":"Italy","latitude":"37.41852000","longitude":"14.13739000","wikiDataId":"Q18481879"},{"id":58692,"Name":"Pioppo","state_id":1709,"state_code":"82","state_name":"Sicily","country_id":107,"country_code":"IT","country_name":"Italy","latitude":"38.05000000","longitude":"13.23333000","wikiDataId":"Q18468538"},{"id":58701,"Name":"Piraino","state_id":1709,"state_code":"82","state_name":"Sicily","country_id":107,"country_code":"IT","country_name":"Italy","latitude":"38.16127000","longitude":"14.86100000","wikiDataId":"Q18468538"},{"id":58794,"Name":"Polizzi Generosa","state_id":1709,"state_code":"82","state_name":"Sicily","country_id":107,"country_code":"IT","country_name":"Italy","latitude":"37.81159000","longitude":"14.00268000","wikiDataId":"Q610420"},{"id":58800,"Name":"Pollina","state_id":1709,"state_code":"82","state_name":"Sicily","country_id":107,"country_code":"IT","country_name":"Italy","latitude":"37.99309000","longitude":"14.14586000","wikiDataId":"Q610420"},{"id":58916,"Name":"Portella di Mare","state_id":1709,"state_code":"82","state_name":"Sicily","country_id":107,"country_code":"IT","country_name":"Italy","latitude":"38.07304000","longitude":"13.46199000","wikiDataId":"Q3453318"},{"id":58928,"Name":"Porto Empedocle","state_id":1709,"state_code":"82","state_name":"Sicily","country_id":107,"country_code":"IT","country_name":"Italy","latitude":"37.28942000","longitude":"13.52494000","wikiDataId":"Q3909148"},{"id":58948,"Name":"Portopalo di Capo Passero","state_id":1709,"state_code":"82","state_name":"Sicily","country_id":107,"country_code":"IT","country_name":"Italy","latitude":"36.68219000","longitude":"15.13378000","wikiDataId":"Q3909190"},{"id":58979,"Name":"Pozzallo","state_id":1709,"state_code":"82","state_name":"Sicily","country_id":107,"country_code":"IT","country_name":"Italy","latitude":"36.73028000","longitude":"14.84672000","wikiDataId":"Q18487279"},{"id":59081,"Name":"Priolo Gargallo","state_id":1709,"state_code":"82","state_name":"Sicily","country_id":107,"country_code":"IT","country_name":"Italy","latitude":"37.15512000","longitude":"15.18248000","wikiDataId":"Q18441538"},{"id":59084,"Name":"Prizzi","state_id":1709,"state_code":"82","state_name":"Sicily","country_id":107,"country_code":"IT","country_name":"Italy","latitude":"37.72088000","longitude":"13.43435000","wikiDataId":"Q18502256"},{"id":59120,"Name":"Provincia di Caltanissetta","state_id":1709,"state_code":"82","state_name":"Sicily","country_id":107,"country_code":"IT","country_name":"Italy","latitude":"37.37448000","longitude":"14.06421000","wikiDataId":"Q16150"},{"id":59176,"Name":"Provincia di Siracusa","state_id":1709,"state_code":"82","state_name":"Sicily","country_id":107,"country_code":"IT","country_name":"Italy","latitude":"37.08805000","longitude":"15.27924000","wikiDataId":"Q16277"},{"id":59256,"Name":"Racalmuto","state_id":1709,"state_code":"82","state_name":"Sicily","country_id":107,"country_code":"IT","country_name":"Italy","latitude":"37.40498000","longitude":"13.72995000","wikiDataId":"Q18476108"},{"id":59258,"Name":"Raccuja","state_id":1709,"state_code":"82","state_name":"Sicily","country_id":107,"country_code":"IT","country_name":"Italy","latitude":"38.05583000","longitude":"14.91044000","wikiDataId":"Q18476108"},{"id":59262,"Name":"Raddusa","state_id":1709,"state_code":"82","state_name":"Sicily","country_id":107,"country_code":"IT","country_name":"Italy","latitude":"37.47529000","longitude":"14.53521000","wikiDataId":"Q18476118"},{"id":59266,"Name":"Raffadali","state_id":1709,"state_code":"82","state_name":"Sicily","country_id":107,"country_code":"IT","country_name":"Italy","latitude":"37.40214000","longitude":"13.53175000","wikiDataId":"Q18509654"},{"id":59267,"Name":"Ragalna","state_id":1709,"state_code":"82","state_name":"Sicily","country_id":107,"country_code":"IT","country_name":"Italy","latitude":"37.63455000","longitude":"14.94698000","wikiDataId":"Q18509654"},{"id":59269,"Name":"Ragusa","state_id":1709,"state_code":"82","state_name":"Sicily","country_id":107,"country_code":"IT","country_name":"Italy","latitude":"36.91667000","longitude":"14.60000000","wikiDataId":"Q16251"},{"id":59272,"Name":"Ramacca","state_id":1709,"state_code":"82","state_name":"Sicily","country_id":107,"country_code":"IT","country_name":"Italy","latitude":"37.38616000","longitude":"14.69241000","wikiDataId":"Q18505445"},{"id":59280,"Name":"Randazzo","state_id":1709,"state_code":"82","state_name":"Sicily","country_id":107,"country_code":"IT","country_name":"Italy","latitude":"37.87736000","longitude":"14.95012000","wikiDataId":"Q2362876"},{"id":59295,"Name":"Ravanusa","state_id":1709,"state_code":"82","state_name":"Sicily","country_id":107,"country_code":"IT","country_name":"Italy","latitude":"37.26659000","longitude":"13.96834000","wikiDataId":"Q18449036"},{"id":59305,"Name":"Realmonte","state_id":1709,"state_code":"82","state_name":"Sicily","country_id":107,"country_code":"IT","country_name":"Italy","latitude":"37.30847000","longitude":"13.46429000","wikiDataId":"Q3930585"},{"id":59318,"Name":"Regalbuto","state_id":1709,"state_code":"82","state_name":"Sicily","country_id":107,"country_code":"IT","country_name":"Italy","latitude":"37.65195000","longitude":"14.63915000","wikiDataId":"Q18452463"},{"id":59326,"Name":"Reitano","state_id":1709,"state_code":"82","state_name":"Sicily","country_id":107,"country_code":"IT","country_name":"Italy","latitude":"37.97198000","longitude":"14.34418000","wikiDataId":"Q18455762"},{"id":59337,"Name":"Resuttano","state_id":1709,"state_code":"82","state_name":"Sicily","country_id":107,"country_code":"IT","country_name":"Italy","latitude":"37.67865000","longitude":"14.02946000","wikiDataId":"Q18439645"},{"id":59359,"Name":"Ribera","state_id":1709,"state_code":"82","state_name":"Sicily","country_id":107,"country_code":"IT","country_name":"Italy","latitude":"37.49773000","longitude":"13.26676000","wikiDataId":"Q3934207"},{"id":59373,"Name":"Riesi","state_id":1709,"state_code":"82","state_name":"Sicily","country_id":107,"country_code":"IT","country_name":"Italy","latitude":"37.28079000","longitude":"14.08317000","wikiDataId":"Q18510359"},{"id":59381,"Name":"Rilievo","state_id":1709,"state_code":"82","state_name":"Sicily","country_id":107,"country_code":"IT","country_name":"Italy","latitude":"37.91638000","longitude":"12.54058000","wikiDataId":"Q18472918"},{"id":59412,"Name":"Riposto","state_id":1709,"state_code":"82","state_name":"Sicily","country_id":107,"country_code":"IT","country_name":"Italy","latitude":"37.73183000","longitude":"15.20576000","wikiDataId":"Q124763"},{"id":59485,"Name":"Rocca di Capri Leone","state_id":1709,"state_code":"82","state_name":"Sicily","country_id":107,"country_code":"IT","country_name":"Italy","latitude":"38.10677000","longitude":"14.71032000","wikiDataId":"Q18465261"},{"id":59496,"Name":"Roccafiorita","state_id":1709,"state_code":"82","state_name":"Sicily","country_id":107,"country_code":"IT","country_name":"Italy","latitude":"37.93086000","longitude":"15.26739000","wikiDataId":"Q18426950"},{"id":59506,"Name":"Roccalumera","state_id":1709,"state_code":"82","state_name":"Sicily","country_id":107,"country_code":"IT","country_name":"Italy","latitude":"37.97554000","longitude":"15.39439000","wikiDataId":"Q18426950"},{"id":59508,"Name":"Roccamena","state_id":1709,"state_code":"82","state_name":"Sicily","country_id":107,"country_code":"IT","country_name":"Italy","latitude":"37.83824000","longitude":"13.15513000","wikiDataId":"Q18426950"},{"id":59513,"Name":"Roccapalumba","state_id":1709,"state_code":"82","state_name":"Sicily","country_id":107,"country_code":"IT","country_name":"Italy","latitude":"37.80825000","longitude":"13.63671000","wikiDataId":"Q18426950"},{"id":59526,"Name":"Roccavaldina","state_id":1709,"state_code":"82","state_name":"Sicily","country_id":107,"country_code":"IT","country_name":"Italy","latitude":"38.18296000","longitude":"15.37402000","wikiDataId":"Q18425438"},{"id":59533,"Name":"Roccella Valdemone","state_id":1709,"state_code":"82","state_name":"Sicily","country_id":107,"country_code":"IT","country_name":"Italy","latitude":"37.93289000","longitude":"15.00997000","wikiDataId":"Q3939514"},{"id":59555,"Name":"Rodì","state_id":1709,"state_code":"82","state_name":"Sicily","country_id":107,"country_code":"IT","country_name":"Italy","latitude":"38.10823000","longitude":"15.16933000","wikiDataId":"Q18476450"},{"id":59585,"Name":"Rometta","state_id":1709,"state_code":"82","state_name":"Sicily","country_id":107,"country_code":"IT","country_name":"Italy","latitude":"38.17007000","longitude":"15.41429000","wikiDataId":"Q3940648"},{"id":59586,"Name":"Rometta Marea","state_id":1709,"state_code":"82","state_name":"Sicily","country_id":107,"country_code":"IT","country_name":"Italy","latitude":"38.23264000","longitude":"15.40955000","wikiDataId":"Q18465347"},{"id":59643,"Name":"Rosolini","state_id":1709,"state_code":"82","state_name":"Sicily","country_id":107,"country_code":"IT","country_name":"Italy","latitude":"36.82145000","longitude":"14.95132000","wikiDataId":"Q1064088"},{"id":59747,"Name":"Salaparuta","state_id":1709,"state_code":"82","state_name":"Sicily","country_id":107,"country_code":"IT","country_name":"Italy","latitude":"37.75694000","longitude":"13.00981000","wikiDataId":"Q3945239"},{"id":59758,"Name":"Salemi","state_id":1709,"state_code":"82","state_name":"Sicily","country_id":107,"country_code":"IT","country_name":"Italy","latitude":"37.82199000","longitude":"12.80506000","wikiDataId":"Q3945239"},{"id":59805,"Name":"Sambuca di Sicilia","state_id":1709,"state_code":"82","state_name":"Sicily","country_id":107,"country_code":"IT","country_name":"Italy","latitude":"37.65294000","longitude":"13.11462000","wikiDataId":"Q3946445"},{"id":59841,"Name":"San Biagio Platani","state_id":1709,"state_code":"82","state_name":"Sicily","country_id":107,"country_code":"IT","country_name":"Italy","latitude":"37.50927000","longitude":"13.52844000","wikiDataId":"Q18496109"},{"id":59862,"Name":"San Cataldo","state_id":1709,"state_code":"82","state_name":"Sicily","country_id":107,"country_code":"IT","country_name":"Italy","latitude":"37.48412000","longitude":"13.98542000","wikiDataId":"Q18436722"},{"id":59868,"Name":"San Cipirello","state_id":1709,"state_code":"82","state_name":"Sicily","country_id":107,"country_code":"IT","country_name":"Italy","latitude":"37.96067000","longitude":"13.17732000","wikiDataId":"Q18436722"},{"id":59873,"Name":"San Ciro-Ulmi-Filci","state_id":1709,"state_code":"82","state_name":"Sicily","country_id":107,"country_code":"IT","country_name":"Italy","latitude":"37.83328000","longitude":"12.78229000","wikiDataId":"Q18472954"},{"id":59878,"Name":"San Cono","state_id":1709,"state_code":"82","state_name":"Sicily","country_id":107,"country_code":"IT","country_name":"Italy","latitude":"37.28992000","longitude":"14.36709000","wikiDataId":"Q18436724"},{"id":59919,"Name":"San Filippo del Mela","state_id":1709,"state_code":"82","state_name":"Sicily","country_id":107,"country_code":"IT","country_name":"Italy","latitude":"38.17007000","longitude":"15.27338000","wikiDataId":"Q18498768"},{"id":59928,"Name":"San Fratello","state_id":1709,"state_code":"82","state_name":"Sicily","country_id":107,"country_code":"IT","country_name":"Italy","latitude":"38.01556000","longitude":"14.59818000","wikiDataId":"Q18487343"},{"id":59951,"Name":"San Giorgio","state_id":1709,"state_code":"82","state_name":"Sicily","country_id":107,"country_code":"IT","country_name":"Italy","latitude":"38.16834000","longitude":"14.94825000","wikiDataId":"Q18465578"},{"id":59979,"Name":"San Giovanni","state_id":1709,"state_code":"82","state_name":"Sicily","country_id":107,"country_code":"IT","country_name":"Italy","latitude":"37.73538000","longitude":"15.15887000","wikiDataId":"Q2559022"},{"id":59983,"Name":"San Giovanni Gemini","state_id":1709,"state_code":"82","state_name":"Sicily","country_id":107,"country_code":"IT","country_name":"Italy","latitude":"37.62785000","longitude":"13.64357000","wikiDataId":"Q18462847"},{"id":60001,"Name":"San Giovanni la Punta","state_id":1709,"state_code":"82","state_name":"Sicily","country_id":107,"country_code":"IT","country_name":"Italy","latitude":"37.57690000","longitude":"15.09371000","wikiDataId":"Q1631800"},{"id":60012,"Name":"San Giuseppe Jato","state_id":1709,"state_code":"82","state_name":"Sicily","country_id":107,"country_code":"IT","country_name":"Italy","latitude":"37.97331000","longitude":"13.18889000","wikiDataId":"Q18444840"},{"id":60024,"Name":"San Gregorio di Catania","state_id":1709,"state_code":"82","state_name":"Sicily","country_id":107,"country_code":"IT","country_name":"Italy","latitude":"37.56764000","longitude":"15.11120000","wikiDataId":"Q18505516"},{"id":60032,"Name":"San Leone Mosè","state_id":1709,"state_code":"82","state_name":"Sicily","country_id":107,"country_code":"IT","country_name":"Italy","latitude":"37.26497000","longitude":"13.58434000","wikiDataId":"Q18451900"},{"id":60063,"Name":"San Marco d'Alunzio","state_id":1709,"state_code":"82","state_name":"Sicily","country_id":107,"country_code":"IT","country_name":"Italy","latitude":"38.07261000","longitude":"14.70093000","wikiDataId":"Q473110"},{"id":60105,"Name":"San Mauro Castelverde","state_id":1709,"state_code":"82","state_name":"Sicily","country_id":107,"country_code":"IT","country_name":"Italy","latitude":"37.91478000","longitude":"14.18961000","wikiDataId":"Q18487359"},{"id":60123,"Name":"San Michele di Ganzaria","state_id":1709,"state_code":"82","state_name":"Sicily","country_id":107,"country_code":"IT","country_name":"Italy","latitude":"37.28042000","longitude":"14.42633000","wikiDataId":"Q3947693"},{"id":60164,"Name":"San Pier Niceto","state_id":1709,"state_code":"82","state_name":"Sicily","country_id":107,"country_code":"IT","country_name":"Italy","latitude":"38.16050000","longitude":"15.34982000","wikiDataId":"Q3947760"},{"id":60167,"Name":"San Piero Patti","state_id":1709,"state_code":"82","state_name":"Sicily","country_id":107,"country_code":"IT","country_name":"Italy","latitude":"38.05214000","longitude":"14.96816000","wikiDataId":"Q18487365"},{"id":60177,"Name":"San Pietro Clarenza","state_id":1709,"state_code":"82","state_name":"Sicily","country_id":107,"country_code":"IT","country_name":"Italy","latitude":"37.56885000","longitude":"15.02289000","wikiDataId":"Q3947803"},{"id":60233,"Name":"San Salvatore di Fitalia","state_id":1709,"state_code":"82","state_name":"Sicily","country_id":107,"country_code":"IT","country_name":"Italy","latitude":"38.06841000","longitude":"14.77799000","wikiDataId":"Q18459019"},{"id":60252,"Name":"San Teodoro","state_id":1709,"state_code":"82","state_name":"Sicily","country_id":107,"country_code":"IT","country_name":"Italy","latitude":"37.84797000","longitude":"14.69878000","wikiDataId":"Q7415310"},{"id":60276,"Name":"San Vito Lo Capo","state_id":1709,"state_code":"82","state_name":"Sicily","country_id":107,"country_code":"IT","country_name":"Italy","latitude":"38.17395000","longitude":"12.73599000","wikiDataId":"Q18441665"},{"id":60323,"Name":"Sant'Agata di Militello","state_id":1709,"state_code":"82","state_name":"Sicily","country_id":107,"country_code":"IT","country_name":"Italy","latitude":"38.06838000","longitude":"14.63600000","wikiDataId":"Q3948636"},{"id":60318,"Name":"Sant'Agata Li Battiati","state_id":1709,"state_code":"82","state_name":"Sicily","country_id":107,"country_code":"IT","country_name":"Italy","latitude":"37.55745000","longitude":"15.07999000","wikiDataId":"Q18505539"},{"id":60334,"Name":"Sant'Alessio Siculo","state_id":1709,"state_code":"82","state_name":"Sicily","country_id":107,"country_code":"IT","country_name":"Italy","latitude":"37.92516000","longitude":"15.34968000","wikiDataId":"Q16600206"},{"id":60336,"Name":"Sant'Alfio","state_id":1709,"state_code":"82","state_name":"Sicily","country_id":107,"country_code":"IT","country_name":"Italy","latitude":"37.74393000","longitude":"15.13952000","wikiDataId":"Q16600206"},{"id":60365,"Name":"Sant'Angelo di Brolo","state_id":1709,"state_code":"82","state_name":"Sicily","country_id":107,"country_code":"IT","country_name":"Italy","latitude":"38.11518000","longitude":"14.88403000","wikiDataId":"Q18437087"},{"id":60360,"Name":"Sant'Angelo Muxaro","state_id":1709,"state_code":"82","state_name":"Sicily","country_id":107,"country_code":"IT","country_name":"Italy","latitude":"37.48014000","longitude":"13.54554000","wikiDataId":"Q18437087"},{"id":60415,"Name":"Santa Caterina Villarmosa","state_id":1709,"state_code":"82","state_name":"Sicily","country_id":107,"country_code":"IT","country_name":"Italy","latitude":"37.59034000","longitude":"14.03554000","wikiDataId":"Q18482837"},{"id":60422,"Name":"Santa Cristina Gela","state_id":1709,"state_code":"82","state_name":"Sicily","country_id":107,"country_code":"IT","country_name":"Italy","latitude":"37.98514000","longitude":"13.32747000","wikiDataId":"Q18502449"},{"id":60426,"Name":"Santa Croce Camerina","state_id":1709,"state_code":"82","state_name":"Sicily","country_id":107,"country_code":"IT","country_name":"Italy","latitude":"36.82842000","longitude":"14.52538000","wikiDataId":"Q3948975"},{"id":60433,"Name":"Santa Domenica Vittoria","state_id":1709,"state_code":"82","state_name":"Sicily","country_id":107,"country_code":"IT","country_name":"Italy","latitude":"37.91624000","longitude":"14.96288000","wikiDataId":"Q18434193"},{"id":60434,"Name":"Santa Elisabetta","state_id":1709,"state_code":"82","state_name":"Sicily","country_id":107,"country_code":"IT","country_name":"Italy","latitude":"37.43171000","longitude":"13.55386000","wikiDataId":"Q18434193"},{"id":60437,"Name":"Santa Flavia","state_id":1709,"state_code":"82","state_name":"Sicily","country_id":107,"country_code":"IT","country_name":"Italy","latitude":"38.10448000","longitude":"13.53340000","wikiDataId":"Q18429452"},{"id":60447,"Name":"Santa Lucia del Mela","state_id":1709,"state_code":"82","state_name":"Sicily","country_id":107,"country_code":"IT","country_name":"Italy","latitude":"38.14408000","longitude":"15.28055000","wikiDataId":"Q18455264"},{"id":60453,"Name":"Santa Margherita di Belice","state_id":1709,"state_code":"82","state_name":"Sicily","country_id":107,"country_code":"IT","country_name":"Italy","latitude":"37.69281000","longitude":"13.01584000","wikiDataId":"Q2586104"},{"id":60476,"Name":"Santa Maria di Licodia","state_id":1709,"state_code":"82","state_name":"Sicily","country_id":107,"country_code":"IT","country_name":"Italy","latitude":"37.61684000","longitude":"14.89337000","wikiDataId":"Q18488714"},{"id":60481,"Name":"Santa Maria la Stella","state_id":1709,"state_code":"82","state_name":"Sicily","country_id":107,"country_code":"IT","country_name":"Italy","latitude":"37.62349000","longitude":"15.12071000","wikiDataId":"Q3949197"},{"id":60483,"Name":"Santa Marina Salina","state_id":1709,"state_code":"82","state_name":"Sicily","country_id":107,"country_code":"IT","country_name":"Italy","latitude":"38.56117000","longitude":"14.87077000","wikiDataId":"Q3949197"},{"id":60487,"Name":"Santa Ninfa","state_id":1709,"state_code":"82","state_name":"Sicily","country_id":107,"country_code":"IT","country_name":"Italy","latitude":"37.77042000","longitude":"12.87744000","wikiDataId":"Q2275497"},{"id":60496,"Name":"Santa Teresa di Riva","state_id":1709,"state_code":"82","state_name":"Sicily","country_id":107,"country_code":"IT","country_name":"Italy","latitude":"37.94635000","longitude":"15.36671000","wikiDataId":"Q18427524"},{"id":60498,"Name":"Santa Venerina","state_id":1709,"state_code":"82","state_name":"Sicily","country_id":107,"country_code":"IT","country_name":"Italy","latitude":"37.69103000","longitude":"15.13880000","wikiDataId":"Q18477046"},{"id":60521,"Name":"Santo Stefano di Camastra","state_id":1709,"state_code":"82","state_name":"Sicily","country_id":107,"country_code":"IT","country_name":"Italy","latitude":"38.01295000","longitude":"14.35142000","wikiDataId":"Q18430429"},{"id":60514,"Name":"Santo Stefano Quisquina","state_id":1709,"state_code":"82","state_name":"Sicily","country_id":107,"country_code":"IT","country_name":"Italy","latitude":"37.62606000","longitude":"13.48976000","wikiDataId":"Q18430429"},{"id":60535,"Name":"Saponara","state_id":1709,"state_code":"82","state_name":"Sicily","country_id":107,"country_code":"IT","country_name":"Italy","latitude":"38.19241000","longitude":"15.43442000","wikiDataId":"Q18446287"},{"id":60536,"Name":"Saponara Marittima","state_id":1709,"state_code":"82","state_name":"Sicily","country_id":107,"country_code":"IT","country_name":"Italy","latitude":"38.23121000","longitude":"15.42621000","wikiDataId":"Q18466198"},{"id":60564,"Name":"Sasi","state_id":1709,"state_code":"82","state_name":"Sicily","country_id":107,"country_code":"IT","country_name":"Italy","latitude":"37.90217000","longitude":"12.88788000","wikiDataId":"Q18472981"},{"id":60595,"Name":"Savoca","state_id":1709,"state_code":"82","state_name":"Sicily","country_id":107,"country_code":"IT","country_name":"Italy","latitude":"37.95326000","longitude":"15.34009000","wikiDataId":"Q18446293"},{"id":60609,"Name":"Scaletta Zanclea","state_id":1709,"state_code":"82","state_name":"Sicily","country_id":107,"country_code":"IT","country_name":"Italy","latitude":"38.04796000","longitude":"15.46769000","wikiDataId":"Q18445011"},{"id":60649,"Name":"Sciacca","state_id":1709,"state_code":"82","state_name":"Sicily","country_id":107,"country_code":"IT","country_name":"Italy","latitude":"37.50693000","longitude":"13.08399000","wikiDataId":"Q3951830"},{"id":60650,"Name":"Sciara","state_id":1709,"state_code":"82","state_name":"Sicily","country_id":107,"country_code":"IT","country_name":"Italy","latitude":"37.91511000","longitude":"13.76177000","wikiDataId":"Q3951830"},{"id":60653,"Name":"Scicli","state_id":1709,"state_code":"82","state_name":"Sicily","country_id":107,"country_code":"IT","country_name":"Italy","latitude":"36.79014000","longitude":"14.70280000","wikiDataId":"Q18477278"},{"id":60656,"Name":"Scillato","state_id":1709,"state_code":"82","state_name":"Sicily","country_id":107,"country_code":"IT","country_name":"Italy","latitude":"37.85778000","longitude":"13.90632000","wikiDataId":"Q18477278"},{"id":60659,"Name":"Sclafani Bagni","state_id":1709,"state_code":"82","state_name":"Sicily","country_id":107,"country_code":"IT","country_name":"Italy","latitude":"37.82175000","longitude":"13.85476000","wikiDataId":"Q18477278"},{"id":60660,"Name":"Scoglitti","state_id":1709,"state_code":"82","state_name":"Sicily","country_id":107,"country_code":"IT","country_name":"Italy","latitude":"36.89424000","longitude":"14.43355000","wikiDataId":"Q2191593"},{"id":60666,"Name":"Scordia","state_id":1709,"state_code":"82","state_name":"Sicily","country_id":107,"country_code":"IT","country_name":"Italy","latitude":"37.29548000","longitude":"14.84058000","wikiDataId":"Q2399617"},{"id":60759,"Name":"Serradifalco","state_id":1709,"state_code":"82","state_name":"Sicily","country_id":107,"country_code":"IT","country_name":"Italy","latitude":"37.45384000","longitude":"13.88046000","wikiDataId":"Q18448031"},{"id":60826,"Name":"Sfaranda","state_id":1709,"state_code":"82","state_name":"Sicily","country_id":107,"country_code":"IT","country_name":"Italy","latitude":"38.05815000","longitude":"14.83147000","wikiDataId":"Q18466457"},{"id":60827,"Name":"Sferracavallo","state_id":1709,"state_code":"82","state_name":"Sicily","country_id":107,"country_code":"IT","country_name":"Italy","latitude":"38.20000000","longitude":"13.28333000","wikiDataId":"Q18466457"},{"id":60840,"Name":"Siculiana","state_id":1709,"state_code":"82","state_name":"Sicily","country_id":107,"country_code":"IT","country_name":"Italy","latitude":"37.33515000","longitude":"13.42432000","wikiDataId":"Q7506929"},{"id":60862,"Name":"Sinagra","state_id":1709,"state_code":"82","state_name":"Sicily","country_id":107,"country_code":"IT","country_name":"Italy","latitude":"38.08191000","longitude":"14.85009000","wikiDataId":"Q18450107"},{"id":60871,"Name":"Siracusa","state_id":1709,"state_code":"82","state_name":"Sicily","country_id":107,"country_code":"IT","country_name":"Italy","latitude":"37.07542000","longitude":"15.28664000","wikiDataId":"Q17652434"},{"id":60903,"Name":"Solarino","state_id":1709,"state_code":"82","state_name":"Sicily","country_id":107,"country_code":"IT","country_name":"Italy","latitude":"37.10136000","longitude":"15.11988000","wikiDataId":"Q18441717"},{"id":60933,"Name":"Sommatino","state_id":1709,"state_code":"82","state_name":"Sicily","country_id":107,"country_code":"IT","country_name":"Italy","latitude":"37.33471000","longitude":"13.99739000","wikiDataId":"Q18441720"},{"id":60968,"Name":"Sortino","state_id":1709,"state_code":"82","state_name":"Sicily","country_id":107,"country_code":"IT","country_name":"Italy","latitude":"37.15881000","longitude":"15.02998000","wikiDataId":"Q1710080"},{"id":60988,"Name":"Spadafora","state_id":1709,"state_code":"82","state_name":"Sicily","country_id":107,"country_code":"IT","country_name":"Italy","latitude":"38.22349000","longitude":"15.38178000","wikiDataId":"Q18429489"},{"id":60992,"Name":"Sparta'","state_id":1709,"state_code":"82","state_name":"Sicily","country_id":107,"country_code":"IT","country_name":"Italy","latitude":"38.29371000","longitude":"15.53503000","wikiDataId":"Q18466533"},{"id":60997,"Name":"Sperlinga","state_id":1709,"state_code":"82","state_name":"Sicily","country_id":107,"country_code":"IT","country_name":"Italy","latitude":"37.76653000","longitude":"14.35075000","wikiDataId":"Q18437102"},{"id":61132,"Name":"Sutera","state_id":1709,"state_code":"82","state_name":"Sicily","country_id":107,"country_code":"IT","country_name":"Italy","latitude":"37.52493000","longitude":"13.73274000","wikiDataId":"Q18430681"},{"id":61161,"Name":"Taormina","state_id":1709,"state_code":"82","state_name":"Sicily","country_id":107,"country_code":"IT","country_name":"Italy","latitude":"37.85358000","longitude":"15.28851000","wikiDataId":"Q1976012"},{"id":61226,"Name":"Terme","state_id":1709,"state_code":"82","state_name":"Sicily","country_id":107,"country_code":"IT","country_name":"Italy","latitude":"38.13586000","longitude":"15.15658000","wikiDataId":"Q18466634"},{"id":61228,"Name":"Termini Imerese","state_id":1709,"state_code":"82","state_name":"Sicily","country_id":107,"country_code":"IT","country_name":"Italy","latitude":"37.98225000","longitude":"13.69729000","wikiDataId":"Q18466634"},{"id":61245,"Name":"Terrasini","state_id":1709,"state_code":"82","state_name":"Sicily","country_id":107,"country_code":"IT","country_name":"Italy","latitude":"38.14621000","longitude":"13.08319000","wikiDataId":"Q2309058"},{"id":61312,"Name":"Tonnara di Bonagia","state_id":1709,"state_code":"82","state_name":"Sicily","country_id":107,"country_code":"IT","country_name":"Italy","latitude":"38.06309000","longitude":"12.59434000","wikiDataId":"Q18473000"},{"id":61313,"Name":"Tonnarella","state_id":1709,"state_code":"82","state_name":"Sicily","country_id":107,"country_code":"IT","country_name":"Italy","latitude":"38.12539000","longitude":"15.11348000","wikiDataId":"Q3993151"},{"id":61354,"Name":"Torre Colonna-Sperone","state_id":1709,"state_code":"82","state_name":"Sicily","country_id":107,"country_code":"IT","country_name":"Italy","latitude":"38.02986000","longitude":"13.57377000","wikiDataId":"Q18468913"},{"id":61383,"Name":"Torregrotta","state_id":1709,"state_code":"82","state_name":"Sicily","country_id":107,"country_code":"IT","country_name":"Italy","latitude":"38.20262000","longitude":"15.35010000","wikiDataId":"Q18493670"},{"id":61386,"Name":"Torrenova","state_id":1709,"state_code":"82","state_name":"Sicily","country_id":107,"country_code":"IT","country_name":"Italy","latitude":"38.09246000","longitude":"14.67917000","wikiDataId":"Q742209"},{"id":61389,"Name":"Torretta","state_id":1709,"state_code":"82","state_name":"Sicily","country_id":107,"country_code":"IT","country_name":"Italy","latitude":"38.13036000","longitude":"13.23549000","wikiDataId":"Q18498995"},{"id":61418,"Name":"Tortorici","state_id":1709,"state_code":"82","state_name":"Sicily","country_id":107,"country_code":"IT","country_name":"Italy","latitude":"38.02973000","longitude":"14.82212000","wikiDataId":"Q18428585"},{"id":61427,"Name":"Trabia","state_id":1709,"state_code":"82","state_name":"Sicily","country_id":107,"country_code":"IT","country_name":"Italy","latitude":"38.00420000","longitude":"13.63393000","wikiDataId":"Q18438761"},{"id":61440,"Name":"Trapani","state_id":1709,"state_code":"82","state_name":"Sicily","country_id":107,"country_code":"IT","country_name":"Italy","latitude":"37.83333000","longitude":"12.66667000","wikiDataId":"Q16288"},{"id":61441,"Name":"Trappeto","state_id":1709,"state_code":"82","state_name":"Sicily","country_id":107,"country_code":"IT","country_name":"Italy","latitude":"38.06875000","longitude":"13.03794000","wikiDataId":"Q16288"},{"id":61457,"Name":"Tre Fontane","state_id":1709,"state_code":"82","state_name":"Sicily","country_id":107,"country_code":"IT","country_name":"Italy","latitude":"37.56989000","longitude":"12.72423000","wikiDataId":"Q18473008"},{"id":61465,"Name":"Trecastagni","state_id":1709,"state_code":"82","state_name":"Sicily","country_id":107,"country_code":"IT","country_name":"Italy","latitude":"37.61543000","longitude":"15.07796000","wikiDataId":"Q100966"},{"id":61478,"Name":"Tremestieri Etneo","state_id":1709,"state_code":"82","state_name":"Sicily","country_id":107,"country_code":"IT","country_name":"Italy","latitude":"37.56494000","longitude":"15.07863000","wikiDataId":"Q782473"},