[{"id":30573,"Name":"Aabenraa","state_id":1529,"state_code":"83","state_name":"Region of Southern Denmark","country_id":59,"country_code":"DK","country_name":"Denmark","latitude":"55.04434000","longitude":"9.41741000","wikiDataId":"Q154897"},{"id":30574,"Name":"Aabenraa Kommune","state_id":1529,"state_code":"83","state_name":"Region of Southern Denmark","country_id":59,"country_code":"DK","country_name":"Denmark","latitude":"54.98980000","longitude":"9.31282000","wikiDataId":"Q21152"},{"id":30995,"Name":"Årslev","state_id":1529,"state_code":"83","state_name":"Region of Southern Denmark","country_id":59,"country_code":"DK","country_name":"Denmark","latitude":"55.30353000","longitude":"10.46428000","wikiDataId":"Q3624563"},{"id":30996,"Name":"Årup","state_id":1529,"state_code":"83","state_name":"Region of Southern Denmark","country_id":59,"country_code":"DK","country_name":"Denmark","latitude":"55.37315000","longitude":"10.04131000","wikiDataId":"Q3405593"},{"id":30583,"Name":"Assens","state_id":1529,"state_code":"83","state_name":"Region of Southern Denmark","country_id":59,"country_code":"DK","country_name":"Denmark","latitude":"55.27023000","longitude":"9.90081000","wikiDataId":"Q741067"},{"id":30584,"Name":"Assens Kommune","state_id":1529,"state_code":"83","state_name":"Region of Southern Denmark","country_id":59,"country_code":"DK","country_name":"Denmark","latitude":"55.29958000","longitude":"10.07952000","wikiDataId":"Q27967"},{"id":30586,"Name":"Augustenborg","state_id":1529,"state_code":"83","state_name":"Region of Southern Denmark","country_id":59,"country_code":"DK","country_name":"Denmark","latitude":"54.95201000","longitude":"9.87216000","wikiDataId":"Q645631"},{"id":30997,"Name":"Ærø Kommune","state_id":1529,"state_code":"83","state_name":"Region of Southern Denmark","country_id":59,"country_code":"DK","country_name":"Denmark","latitude":"54.85833000","longitude":"10.43333000","wikiDataId":"Q21104"},{"id":30998,"Name":"Ærøskøbing","state_id":1529,"state_code":"83","state_name":"Region of Southern Denmark","country_id":59,"country_code":"DK","country_name":"Denmark","latitude":"54.88803000","longitude":"10.41117000","wikiDataId":"Q272129"},{"id":30592,"Name":"Bellinge","state_id":1529,"state_code":"83","state_name":"Region of Southern Denmark","country_id":59,"country_code":"DK","country_name":"Denmark","latitude":"55.33535000","longitude":"10.32045000","wikiDataId":"Q2788987"},{"id":30593,"Name":"Billund","state_id":1529,"state_code":"83","state_name":"Region of Southern Denmark","country_id":59,"country_code":"DK","country_name":"Denmark","latitude":"55.73349000","longitude":"9.10785000","wikiDataId":"Q1701099"},{"id":30594,"Name":"Billund Kommune","state_id":1529,"state_code":"83","state_name":"Region of Southern Denmark","country_id":59,"country_code":"DK","country_name":"Denmark","latitude":"55.73079000","longitude":"8.96844000","wikiDataId":"Q27875"},{"id":30599,"Name":"Bogense","state_id":1529,"state_code":"83","state_name":"Region of Southern Denmark","country_id":59,"country_code":"DK","country_name":"Denmark","latitude":"55.56691000","longitude":"10.08863000","wikiDataId":"Q890536"},{"id":30615,"Name":"Børkop","state_id":1529,"state_code":"83","state_name":"Region of Southern Denmark","country_id":59,"country_code":"DK","country_name":"Denmark","latitude":"55.64195000","longitude":"9.64958000","wikiDataId":"Q12304863"},{"id":30603,"Name":"Bramming","state_id":1529,"state_code":"83","state_name":"Region of Southern Denmark","country_id":59,"country_code":"DK","country_name":"Denmark","latitude":"55.46946000","longitude":"8.70007000","wikiDataId":"Q12304252"},{"id":30605,"Name":"Brejning","state_id":1529,"state_code":"83","state_name":"Region of Southern Denmark","country_id":59,"country_code":"DK","country_name":"Denmark","latitude":"55.66594000","longitude":"9.67217000","wikiDataId":"Q2445802"},{"id":30606,"Name":"Brenderup","state_id":1529,"state_code":"83","state_name":"Region of Southern Denmark","country_id":59,"country_code":"DK","country_name":"Denmark","latitude":"55.48407000","longitude":"9.97908000","wikiDataId":"Q1923876"},{"id":30607,"Name":"Broager","state_id":1529,"state_code":"83","state_name":"Region of Southern Denmark","country_id":59,"country_code":"DK","country_name":"Denmark","latitude":"54.88940000","longitude":"9.67465000","wikiDataId":"Q3196551"},{"id":30613,"Name":"Brørup","state_id":1529,"state_code":"83","state_name":"Region of Southern Denmark","country_id":59,"country_code":"DK","country_name":"Denmark","latitude":"55.48194000","longitude":"9.01756000","wikiDataId":"Q12304584"},{"id":30614,"Name":"Bullerup","state_id":1529,"state_code":"83","state_name":"Region of Southern Denmark","country_id":59,"country_code":"DK","country_name":"Denmark","latitude":"55.42686000","longitude":"10.47137000","wikiDataId":"Q2340281"},{"id":30617,"Name":"Christiansfeld","state_id":1529,"state_code":"83","state_name":"Region of Southern Denmark","country_id":59,"country_code":"DK","country_name":"Denmark","latitude":"55.35817000","longitude":"9.48701000","wikiDataId":"Q3197288"},{"id":30625,"Name":"Dybbøl","state_id":1529,"state_code":"83","state_name":"Region of Southern Denmark","country_id":59,"country_code":"DK","country_name":"Denmark","latitude":"54.91079000","longitude":"9.73601000","wikiDataId":"Q2567585"},{"id":30628,"Name":"Egtved","state_id":1529,"state_code":"83","state_name":"Region of Southern Denmark","country_id":59,"country_code":"DK","country_name":"Denmark","latitude":"55.61613000","longitude":"9.30763000","wikiDataId":"Q3412882"},{"id":30629,"Name":"Ejby","state_id":1529,"state_code":"83","state_name":"Region of Southern Denmark","country_id":59,"country_code":"DK","country_name":"Denmark","latitude":"55.43010000","longitude":"9.92973000","wikiDataId":"Q3618954"},{"id":30631,"Name":"Esbjerg","state_id":1529,"state_code":"83","state_name":"Region of Southern Denmark","country_id":59,"country_code":"DK","country_name":"Denmark","latitude":"55.47028000","longitude":"8.45187000","wikiDataId":"Q26234"},{"id":30632,"Name":"Esbjerg Kommune","state_id":1529,"state_code":"83","state_name":"Region of Southern Denmark","country_id":59,"country_code":"DK","country_name":"Denmark","latitude":"55.46893000","longitude":"8.46222000","wikiDataId":"Q645747"},{"id":30634,"Name":"Faaborg","state_id":1529,"state_code":"83","state_name":"Region of Southern Denmark","country_id":59,"country_code":"DK","country_name":"Denmark","latitude":"55.09510000","longitude":"10.24226000","wikiDataId":"Q3547421"},{"id":30635,"Name":"Faaborg-Midtfyn Kommune","state_id":1529,"state_code":"83","state_name":"Region of Southern Denmark","country_id":59,"country_code":"DK","country_name":"Denmark","latitude":"55.22667000","longitude":"10.40667000","wikiDataId":"Q27976"},{"id":30636,"Name":"Fanø Kommune","state_id":1529,"state_code":"83","state_name":"Region of Southern Denmark","country_id":59,"country_code":"DK","country_name":"Denmark","latitude":"55.41667000","longitude":"8.41667000","wikiDataId":"Q493285"},{"id":30650,"Name":"Fredericia","state_id":1529,"state_code":"83","state_name":"Region of Southern Denmark","country_id":59,"country_code":"DK","country_name":"Denmark","latitude":"55.56568000","longitude":"9.75257000","wikiDataId":"Q21181"},{"id":30651,"Name":"Fredericia Kommune","state_id":1529,"state_code":"83","state_name":"Region of Southern Denmark","country_id":59,"country_code":"DK","country_name":"Denmark","latitude":"55.57271000","longitude":"9.69489000","wikiDataId":"Q21145"},{"id":30668,"Name":"Give","state_id":1529,"state_code":"83","state_name":"Region of Southern Denmark","country_id":59,"country_code":"DK","country_name":"Denmark","latitude":"55.84523000","longitude":"9.23769000","wikiDataId":"Q4994802"},{"id":30671,"Name":"Glamsbjerg","state_id":1529,"state_code":"83","state_name":"Region of Southern Denmark","country_id":59,"country_code":"DK","country_name":"Denmark","latitude":"55.27237000","longitude":"10.10483000","wikiDataId":"Q3177358"},{"id":30674,"Name":"Gram","state_id":1529,"state_code":"83","state_name":"Region of Southern Denmark","country_id":59,"country_code":"DK","country_name":"Denmark","latitude":"55.28948000","longitude":"9.04913000","wikiDataId":"Q1025378"},{"id":30680,"Name":"Gråsten","state_id":1529,"state_code":"83","state_name":"Region of Southern Denmark","country_id":59,"country_code":"DK","country_name":"Denmark","latitude":"54.91918000","longitude":"9.59523000","wikiDataId":"Q3414260"},{"id":30679,"Name":"Grindsted","state_id":1529,"state_code":"83","state_name":"Region of Southern Denmark","country_id":59,"country_code":"DK","country_name":"Denmark","latitude":"55.75726000","longitude":"8.92750000","wikiDataId":"Q3547368"},{"id":30682,"Name":"Guderup","state_id":1529,"state_code":"83","state_name":"Region of Southern Denmark","country_id":59,"country_code":"DK","country_name":"Denmark","latitude":"54.98978000","longitude":"9.87174000","wikiDataId":"Q821231"},{"id":30686,"Name":"Haderslev","state_id":1529,"state_code":"83","state_name":"Region of Southern Denmark","country_id":59,"country_code":"DK","country_name":"Denmark","latitude":"55.24943000","longitude":"9.48771000","wikiDataId":"Q29868"},{"id":30687,"Name":"Haderslev Kommune","state_id":1529,"state_code":"83","state_name":"Region of Southern Denmark","country_id":59,"country_code":"DK","country_name":"Denmark","latitude":"55.24441000","longitude":"9.32261000","wikiDataId":"Q21143"},{"id":30733,"Name":"Hårby","state_id":1529,"state_code":"83","state_name":"Region of Southern Denmark","country_id":59,"country_code":"DK","country_name":"Denmark","latitude":"55.22357000","longitude":"10.12268000","wikiDataId":"Q4994795"},{"id":30721,"Name":"Holsted","state_id":1529,"state_code":"83","state_name":"Region of Southern Denmark","country_id":59,"country_code":"DK","country_name":"Denmark","latitude":"55.51086000","longitude":"8.91872000","wikiDataId":"Q12317155"},{"id":30735,"Name":"Højby","state_id":1529,"state_code":"83","state_name":"Region of Southern Denmark","country_id":59,"country_code":"DK","country_name":"Denmark","latitude":"55.33177000","longitude":"10.43725000","wikiDataId":"Q2634492"},{"id":30741,"Name":"Høruphav","state_id":1529,"state_code":"83","state_name":"Region of Southern Denmark","country_id":59,"country_code":"DK","country_name":"Denmark","latitude":"54.91017000","longitude":"9.89872000","wikiDataId":"Q821237"},{"id":30748,"Name":"Jelling","state_id":1529,"state_code":"83","state_name":"Region of Southern Denmark","country_id":59,"country_code":"DK","country_name":"Denmark","latitude":"55.75588000","longitude":"9.42580000","wikiDataId":"Q835708"},{"id":30756,"Name":"Kerteminde","state_id":1529,"state_code":"83","state_name":"Region of Southern Denmark","country_id":59,"country_code":"DK","country_name":"Denmark","latitude":"55.44903000","longitude":"10.65769000","wikiDataId":"Q29969"},{"id":30757,"Name":"Kerteminde Kommune","state_id":1529,"state_code":"83","state_name":"Region of Southern Denmark","country_id":59,"country_code":"DK","country_name":"Denmark","latitude":"55.45498000","longitude":"10.62220000","wikiDataId":"Q612488"},{"id":30763,"Name":"Kolding","state_id":1529,"state_code":"83","state_name":"Region of Southern Denmark","country_id":59,"country_code":"DK","country_name":"Denmark","latitude":"55.49040000","longitude":"9.47216000","wikiDataId":"Q27119"},{"id":30764,"Name":"Kolding Kommune","state_id":1529,"state_code":"83","state_name":"Region of Southern Denmark","country_id":59,"country_code":"DK","country_name":"Denmark","latitude":"55.45006000","longitude":"9.45807000","wikiDataId":"Q21101"},{"id":30768,"Name":"Kruså","state_id":1529,"state_code":"83","state_name":"Region of Southern Denmark","country_id":59,"country_code":"DK","country_name":"Denmark","latitude":"54.85097000","longitude":"9.40129000","wikiDataId":"Q570436"},{"id":30773,"Name":"Langeland Kommune","state_id":1529,"state_code":"83","state_name":"Region of Southern Denmark","country_id":59,"country_code":"DK","country_name":"Denmark","latitude":"54.90000000","longitude":"10.77222000","wikiDataId":"Q506647"},{"id":30774,"Name":"Langeskov","state_id":1529,"state_code":"83","state_name":"Region of Southern Denmark","country_id":59,"country_code":"DK","country_name":"Denmark","latitude":"55.35655000","longitude":"10.58447000","wikiDataId":"Q737985"},{"id":30791,"Name":"Løgumkloster","state_id":1529,"state_code":"83","state_name":"Region of Southern Denmark","country_id":59,"country_code":"DK","country_name":"Denmark","latitude":"55.05941000","longitude":"8.95508000","wikiDataId":"Q3172924"},{"id":30792,"Name":"Løjt Kirkeby","state_id":1529,"state_code":"83","state_name":"Region of Southern Denmark","country_id":59,"country_code":"DK","country_name":"Denmark","latitude":"55.08959000","longitude":"9.46084000","wikiDataId":"Q1880927"},{"id":30784,"Name":"Lunderskov","state_id":1529,"state_code":"83","state_name":"Region of Southern Denmark","country_id":59,"country_code":"DK","country_name":"Denmark","latitude":"55.48375000","longitude":"9.29917000","wikiDataId":"Q12325132"},{"id":30798,"Name":"Marstal","state_id":1529,"state_code":"83","state_name":"Region of Southern Denmark","country_id":59,"country_code":"DK","country_name":"Denmark","latitude":"54.85621000","longitude":"10.51726000","wikiDataId":"Q3413939"},{"id":30799,"Name":"Middelfart","state_id":1529,"state_code":"83","state_name":"Region of Southern Denmark","country_id":59,"country_code":"DK","country_name":"Denmark","latitude":"55.50591000","longitude":"9.73054000","wikiDataId":"Q613441"},{"id":30800,"Name":"Middelfart Kommune","state_id":1529,"state_code":"83","state_name":"Region of Southern Denmark","country_id":59,"country_code":"DK","country_name":"Denmark","latitude":"55.45782000","longitude":"9.88100000","wikiDataId":"Q21140"},{"id":30802,"Name":"Munkebo","state_id":1529,"state_code":"83","state_name":"Region of Southern Denmark","country_id":59,"country_code":"DK","country_name":"Denmark","latitude":"55.45553000","longitude":"10.55433000","wikiDataId":"Q1953365"},{"id":30806,"Name":"Neder Holluf","state_id":1529,"state_code":"83","state_name":"Region of Southern Denmark","country_id":59,"country_code":"DK","country_name":"Denmark","latitude":"55.36451000","longitude":"10.44824000","wikiDataId":"Q12328490"},{"id":30811,"Name":"Nordborg","state_id":1529,"state_code":"83","state_name":"Region of Southern Denmark","country_id":59,"country_code":"DK","country_name":"Denmark","latitude":"55.05732000","longitude":"9.74080000","wikiDataId":"Q1997687"},{"id":30812,"Name":"Nordby","state_id":1529,"state_code":"83","state_name":"Region of Southern Denmark","country_id":59,"country_code":"DK","country_name":"Denmark","latitude":"55.44603000","longitude":"8.39786000","wikiDataId":"Q2533977"},{"id":30814,"Name":"Nordfyns Kommune","state_id":1529,"state_code":"83","state_name":"Region of Southern Denmark","country_id":59,"country_code":"DK","country_name":"Denmark","latitude":"55.52222000","longitude":"10.22222000","wikiDataId":"Q20770"},{"id":30825,"Name":"Nørre Åby","state_id":1529,"state_code":"83","state_name":"Region of Southern Denmark","country_id":59,"country_code":"DK","country_name":"Denmark","latitude":"55.46107000","longitude":"9.87940000","wikiDataId":"Q5259773"},{"id":30815,"Name":"Nyborg","state_id":1529,"state_code":"83","state_name":"Region of Southern Denmark","country_id":59,"country_code":"DK","country_name":"Denmark","latitude":"55.31274000","longitude":"10.78964000","wikiDataId":"Q3530435"},{"id":30816,"Name":"Nyborg Kommune","state_id":1529,"state_code":"83","state_name":"Region of Southern Denmark","country_id":59,"country_code":"DK","country_name":"Denmark","latitude":"55.29473000","longitude":"10.70310000","wikiDataId":"Q30013"},{"id":30829,"Name":"Odense","state_id":1529,"state_code":"83","state_name":"Region of Southern Denmark","country_id":59,"country_code":"DK","country_name":"Denmark","latitude":"55.39594000","longitude":"10.38831000","wikiDataId":"Q25331"},{"id":30830,"Name":"Odense Kommune","state_id":1529,"state_code":"83","state_name":"Region of Southern Denmark","country_id":59,"country_code":"DK","country_name":"Denmark","latitude":"55.39570000","longitude":"10.37761000","wikiDataId":"Q21146"},{"id":30832,"Name":"Oksbøl","state_id":1529,"state_code":"83","state_name":"Region of Southern Denmark","country_id":59,"country_code":"DK","country_name":"Denmark","latitude":"55.62680000","longitude":"8.28757000","wikiDataId":"Q202965"},{"id":30834,"Name":"Otterup","state_id":1529,"state_code":"83","state_name":"Region of Southern Denmark","country_id":59,"country_code":"DK","country_name":"Denmark","latitude":"55.51527000","longitude":"10.39756000","wikiDataId":"Q2633021"},{"id":30999,"Name":"Ølgod","state_id":1529,"state_code":"83","state_name":"Region of Southern Denmark","country_id":59,"country_code":"DK","country_name":"Denmark","latitude":"55.80682000","longitude":"8.62859000","wikiDataId":"Q308106"},{"id":30835,"Name":"Padborg","state_id":1529,"state_code":"83","state_name":"Region of Southern Denmark","country_id":59,"country_code":"DK","country_name":"Denmark","latitude":"54.82657000","longitude":"9.36247000","wikiDataId":"Q707345"},{"id":30841,"Name":"Ribe","state_id":1529,"state_code":"83","state_name":"Region of Southern Denmark","country_id":59,"country_code":"DK","country_name":"Denmark","latitude":"55.33051000","longitude":"8.76966000","wikiDataId":"Q322361"},{"id":30842,"Name":"Ringe","state_id":1529,"state_code":"83","state_name":"Region of Southern Denmark","country_id":59,"country_code":"DK","country_name":"Denmark","latitude":"55.23828000","longitude":"10.47860000","wikiDataId":"Q303111"},{"id":30855,"Name":"Rødding","state_id":1529,"state_code":"83","state_name":"Region of Southern Denmark","country_id":59,"country_code":"DK","country_name":"Denmark","latitude":"55.36569000","longitude":"9.06316000","wikiDataId":"Q836960"},{"id":30856,"Name":"Rødekro","state_id":1529,"state_code":"83","state_name":"Region of Southern Denmark","country_id":59,"country_code":"DK","country_name":"Denmark","latitude":"55.07076000","longitude":"9.33531000","wikiDataId":"Q4541616"},{"id":30850,"Name":"Rudkøbing","state_id":1529,"state_code":"83","state_name":"Region of Southern Denmark","country_id":59,"country_code":"DK","country_name":"Denmark","latitude":"54.93639000","longitude":"10.71019000","wikiDataId":"Q731023"},{"id":30866,"Name":"Seden","state_id":1529,"state_code":"83","state_name":"Region of Southern Denmark","country_id":59,"country_code":"DK","country_name":"Denmark","latitude":"55.42648000","longitude":"10.44265000","wikiDataId":"Q513256"},{"id":30870,"Name":"Skaerbaek","state_id":1529,"state_code":"83","state_name":"Region of Southern Denmark","country_id":59,"country_code":"DK","country_name":"Denmark","latitude":"55.15735000","longitude":"8.76901000","wikiDataId":"Q2622689"},{"id":30887,"Name":"Snoghøj","state_id":1529,"state_code":"83","state_name":"Region of Southern Denmark","country_id":59,"country_code":"DK","country_name":"Denmark","latitude":"55.52253000","longitude":"9.72125000","wikiDataId":"Q2253859"},{"id":30926,"Name":"Sønder Bjert","state_id":1529,"state_code":"83","state_name":"Region of Southern Denmark","country_id":59,"country_code":"DK","country_name":"Denmark","latitude":"55.45272000","longitude":"9.56741000","wikiDataId":"Q2856489"},{"id":30927,"Name":"Sønderborg","state_id":1529,"state_code":"83","state_name":"Region of Southern Denmark","country_id":59,"country_code":"DK","country_name":"Denmark","latitude":"54.90896000","longitude":"9.78917000","wikiDataId":"Q21179"},{"id":30928,"Name":"Sønderborg Kommune","state_id":1529,"state_code":"83","state_name":"Region of Southern Denmark","country_id":59,"country_code":"DK","country_name":"Denmark","latitude":"54.91667000","longitude":"9.80000000","wikiDataId":"Q21108"},{"id":30929,"Name":"Søndersø","state_id":1529,"state_code":"83","state_name":"Region of Southern Denmark","country_id":59,"country_code":"DK","country_name":"Denmark","latitude":"55.48526000","longitude":"10.25540000","wikiDataId":"Q3531267"},{"id":30895,"Name":"Starup","state_id":1529,"state_code":"83","state_name":"Region of Southern Denmark","country_id":59,"country_code":"DK","country_name":"Denmark","latitude":"55.24097000","longitude":"9.53503000","wikiDataId":"Q12336888"},{"id":30902,"Name":"Stige","state_id":1529,"state_code":"83","state_name":"Region of Southern Denmark","country_id":59,"country_code":"DK","country_name":"Denmark","latitude":"55.43941000","longitude":"10.40940000","wikiDataId":"Q503153"},{"id":30908,"Name":"Strib","state_id":1529,"state_code":"83","state_name":"Region of Southern Denmark","country_id":59,"country_code":"DK","country_name":"Denmark","latitude":"55.54021000","longitude":"9.76748000","wikiDataId":"Q1951945"},{"id":30918,"Name":"Svendborg","state_id":1529,"state_code":"83","state_name":"Region of Southern Denmark","country_id":59,"country_code":"DK","country_name":"Denmark","latitude":"55.05982000","longitude":"10.60677000","wikiDataId":"Q28031"},{"id":30919,"Name":"Svendborg Kommune","state_id":1529,"state_code":"83","state_name":"Region of Southern Denmark","country_id":59,"country_code":"DK","country_name":"Denmark","latitude":"55.08410000","longitude":"10.61391000","wikiDataId":"Q21182"},{"id":30932,"Name":"Taulov","state_id":1529,"state_code":"83","state_name":"Region of Southern Denmark","country_id":59,"country_code":"DK","country_name":"Denmark","latitude":"55.54582000","longitude":"9.61553000","wikiDataId":"Q4994751"},{"id":30935,"Name":"Thurø By","state_id":1529,"state_code":"83","state_name":"Region of Southern Denmark","country_id":59,"country_code":"DK","country_name":"Denmark","latitude":"55.04740000","longitude":"10.66385000","wikiDataId":"Q23734741"},{"id":30937,"Name":"Tinglev","state_id":1529,"state_code":"83","state_name":"Region of Southern Denmark","country_id":59,"country_code":"DK","country_name":"Denmark","latitude":"54.93788000","longitude":"9.25547000","wikiDataId":"Q3618891"},{"id":30938,"Name":"Tjæreborg","state_id":1529,"state_code":"83","state_name":"Region of Southern Denmark","country_id":59,"country_code":"DK","country_name":"Denmark","latitude":"55.46457000","longitude":"8.57968000","wikiDataId":"Q2339781"},{"id":30939,"Name":"Toftlund","state_id":1529,"state_code":"83","state_name":"Region of Southern Denmark","country_id":59,"country_code":"DK","country_name":"Denmark","latitude":"55.18858000","longitude":"9.06925000","wikiDataId":"Q2051188"},{"id":30940,"Name":"Tommerup","state_id":1529,"state_code":"83","state_name":"Region of Southern Denmark","country_id":59,"country_code":"DK","country_name":"Denmark","latitude":"55.31952000","longitude":"10.20659000","wikiDataId":"Q2702722"},{"id":30941,"Name":"Tommerup Stationsby","state_id":1529,"state_code":"83","state_name":"Region of Southern Denmark","country_id":59,"country_code":"DK","country_name":"Denmark","latitude":"55.34535000","longitude":"10.17594000","wikiDataId":"Q4358920"},{"id":30950,"Name":"Tønder","state_id":1529,"state_code":"83","state_name":"Region of Southern Denmark","country_id":59,"country_code":"DK","country_name":"Denmark","latitude":"54.93306000","longitude":"8.86674000","wikiDataId":"Q3223979"},{"id":30951,"Name":"Tønder Kommune","state_id":1529,"state_code":"83","state_name":"Region of Southern Denmark","country_id":59,"country_code":"DK","country_name":"Denmark","latitude":"55.07304000","longitude":"8.87214000","wikiDataId":"Q3162907"},{"id":30954,"Name":"Ullerslev","state_id":1529,"state_code":"83","state_name":"Region of Southern Denmark","country_id":59,"country_code":"DK","country_name":"Denmark","latitude":"55.36172000","longitude":"10.65190000","wikiDataId":"Q3547139"},{"id":30959,"Name":"Vamdrup","state_id":1529,"state_code":"83","state_name":"Region of Southern Denmark","country_id":59,"country_code":"DK","country_name":"Denmark","latitude":"55.42764000","longitude":"9.28435000","wikiDataId":"Q3547196"},{"id":30961,"Name":"Varde","state_id":1529,"state_code":"83","state_name":"Region of Southern Denmark","country_id":59,"country_code":"DK","country_name":"Denmark","latitude":"55.62112000","longitude":"8.48069000","wikiDataId":"Q2048321"},{"id":30962,"Name":"Varde Kommune","state_id":1529,"state_code":"83","state_name":"Region of Southern Denmark","country_id":59,"country_code":"DK","country_name":"Denmark","latitude":"55.61667000","longitude":"8.50000000","wikiDataId":"Q21142"},{"id":30963,"Name":"Vejen","state_id":1529,"state_code":"83","state_name":"Region of Southern Denmark","country_id":59,"country_code":"DK","country_name":"Denmark","latitude":"55.48117000","longitude":"9.13795000","wikiDataId":"Q1016313"},{"id":30964,"Name":"Vejen Kommune","state_id":1529,"state_code":"83","state_name":"Region of Southern Denmark","country_id":59,"country_code":"DK","country_name":"Denmark","latitude":"55.46312000","longitude":"9.05004000","wikiDataId":"Q21150"},{"id":30965,"Name":"Vejle","state_id":1529,"state_code":"83","state_name":"Region of Southern Denmark","country_id":59,"country_code":"DK","country_name":"Denmark","latitude":"55.70927000","longitude":"9.53570000","wikiDataId":"Q27116"},{"id":30966,"Name":"Vejle Kommune","state_id":1529,"state_code":"83","state_name":"Region of Southern Denmark","country_id":59,"country_code":"DK","country_name":"Denmark","latitude":"55.74874000","longitude":"9.40421000","wikiDataId":"Q28150"},{"id":30970,"Name":"Vester-Skerninge","state_id":1529,"state_code":"83","state_name":"Region of Southern Denmark","country_id":59,"country_code":"DK","country_name":"Denmark","latitude":"55.07322000","longitude":"10.45536000","wikiDataId":"Q3386709"},{"id":30977,"Name":"Vindeby","state_id":1529,"state_code":"83","state_name":"Region of Southern Denmark","country_id":59,"country_code":"DK","country_name":"Denmark","latitude":"55.04489000","longitude":"10.61309000","wikiDataId":"Q1286001"},{"id":30982,"Name":"Vissenbjerg","state_id":1529,"state_code":"83","state_name":"Region of Southern Denmark","country_id":59,"country_code":"DK","country_name":"Denmark","latitude":"55.38482000","longitude":"10.13784000","wikiDataId":"Q3547096"},{"id":30984,"Name":"Vojens","state_id":1529,"state_code":"83","state_name":"Region of Southern Denmark","country_id":59,"country_code":"DK","country_name":"Denmark","latitude":"55.24639000","longitude":"9.30603000","wikiDataId":"Q1645444"}]