[{"id":135239,"Name":"Abbasanta","state_id":1715,"state_code":"88","state_name":"Sardinia","country_id":107,"country_code":"IT","country_name":"Italy","latitude":"40.12812000","longitude":"8.81760000","wikiDataId":"Q335596"},{"id":135299,"Name":"Aggius","state_id":1715,"state_code":"88","state_name":"Sardinia","country_id":107,"country_code":"IT","country_name":"Italy","latitude":"40.92995000","longitude":"9.06517000","wikiDataId":"Q18431725"},{"id":135305,"Name":"Aglientu","state_id":1715,"state_code":"88","state_name":"Sardinia","country_id":107,"country_code":"IT","country_name":"Italy","latitude":"41.07906000","longitude":"9.11267000","wikiDataId":"Q18502606"},{"id":135323,"Name":"Aidomaggiore","state_id":1715,"state_code":"88","state_name":"Sardinia","country_id":107,"country_code":"IT","country_name":"Italy","latitude":"40.17147000","longitude":"8.85679000","wikiDataId":"Q16112"},{"id":135453,"Name":"Alà dei Sardi","state_id":1715,"state_code":"88","state_name":"Sardinia","country_id":107,"country_code":"IT","country_name":"Italy","latitude":"40.65007000","longitude":"9.32783000","wikiDataId":"Q3613147"},{"id":135348,"Name":"Albagiara","state_id":1715,"state_code":"88","state_name":"Sardinia","country_id":107,"country_code":"IT","country_name":"Italy","latitude":"39.78724000","longitude":"8.86184000","wikiDataId":"Q18441902"},{"id":135393,"Name":"Ales","state_id":1715,"state_code":"88","state_name":"Sardinia","country_id":107,"country_code":"IT","country_name":"Italy","latitude":"39.76830000","longitude":"8.81520000","wikiDataId":"Q18454404"},{"id":135404,"Name":"Alghero","state_id":1715,"state_code":"88","state_name":"Sardinia","country_id":107,"country_code":"IT","country_name":"Italy","latitude":"40.55969000","longitude":"8.31953000","wikiDataId":"Q18454404"},{"id":135414,"Name":"Allai","state_id":1715,"state_code":"88","state_name":"Sardinia","country_id":107,"country_code":"IT","country_name":"Italy","latitude":"39.95701000","longitude":"8.86354000","wikiDataId":"Q18454404"},{"id":135494,"Name":"Anela","state_id":1715,"state_code":"88","state_name":"Sardinia","country_id":107,"country_code":"IT","country_name":"Italy","latitude":"40.44176000","longitude":"9.05743000","wikiDataId":"Q18448265"},{"id":135553,"Name":"Arbatax","state_id":1715,"state_code":"88","state_name":"Sardinia","country_id":107,"country_code":"IT","country_name":"Italy","latitude":"39.93444000","longitude":"9.70556000","wikiDataId":"Q626925"},{"id":135556,"Name":"Arborea","state_id":1715,"state_code":"88","state_name":"Sardinia","country_id":107,"country_code":"IT","country_name":"Italy","latitude":"39.77276000","longitude":"8.58129000","wikiDataId":"Q3621346"},{"id":135558,"Name":"Arbus","state_id":1715,"state_code":"88","state_name":"Sardinia","country_id":107,"country_code":"IT","country_name":"Italy","latitude":"39.52616000","longitude":"8.59970000","wikiDataId":"Q3621346"},{"id":135576,"Name":"Ardara","state_id":1715,"state_code":"88","state_name":"Sardinia","country_id":107,"country_code":"IT","country_name":"Italy","latitude":"40.62140000","longitude":"8.80987000","wikiDataId":"Q18454414"},{"id":135577,"Name":"Ardauli","state_id":1715,"state_code":"88","state_name":"Sardinia","country_id":107,"country_code":"IT","country_name":"Italy","latitude":"40.08436000","longitude":"8.91228000","wikiDataId":"Q18454414"},{"id":135607,"Name":"Aritzo","state_id":1715,"state_code":"88","state_name":"Sardinia","country_id":107,"country_code":"IT","country_name":"Italy","latitude":"39.95903000","longitude":"9.19265000","wikiDataId":"Q18437165"},{"id":135617,"Name":"Armungia","state_id":1715,"state_code":"88","state_name":"Sardinia","country_id":107,"country_code":"IT","country_name":"Italy","latitude":"39.52154000","longitude":"9.38066000","wikiDataId":"Q18454416"},{"id":135646,"Name":"Arzachena","state_id":1715,"state_code":"88","state_name":"Sardinia","country_id":107,"country_code":"IT","country_name":"Italy","latitude":"41.07620000","longitude":"9.39055000","wikiDataId":"Q18436874"},{"id":135648,"Name":"Arzana","state_id":1715,"state_code":"88","state_name":"Sardinia","country_id":107,"country_code":"IT","country_name":"Italy","latitude":"39.91742000","longitude":"9.52766000","wikiDataId":"Q18436874"},{"id":135665,"Name":"Assemini","state_id":1715,"state_code":"88","state_name":"Sardinia","country_id":107,"country_code":"IT","country_name":"Italy","latitude":"39.29123000","longitude":"8.99879000","wikiDataId":"Q3625263"},{"id":135668,"Name":"Assolo","state_id":1715,"state_code":"88","state_name":"Sardinia","country_id":107,"country_code":"IT","country_name":"Italy","latitude":"39.80915000","longitude":"8.91932000","wikiDataId":"Q3625263"},{"id":135671,"Name":"Asuni","state_id":1715,"state_code":"88","state_name":"Sardinia","country_id":107,"country_code":"IT","country_name":"Italy","latitude":"39.87101000","longitude":"8.94603000","wikiDataId":"Q3625263"},{"id":135683,"Name":"Atzara","state_id":1715,"state_code":"88","state_name":"Sardinia","country_id":107,"country_code":"IT","country_name":"Italy","latitude":"39.99249000","longitude":"9.07616000","wikiDataId":"Q18452704"},{"id":135695,"Name":"Austis","state_id":1715,"state_code":"88","state_name":"Sardinia","country_id":107,"country_code":"IT","country_name":"Italy","latitude":"40.07122000","longitude":"9.08878000","wikiDataId":"Q18496106"},{"id":135730,"Name":"Bacu Abis","state_id":1715,"state_code":"88","state_name":"Sardinia","country_id":107,"country_code":"IT","country_name":"Italy","latitude":"39.24301000","longitude":"8.46491000","wikiDataId":"Q3632668"},{"id":135733,"Name":"Badesi","state_id":1715,"state_code":"88","state_name":"Sardinia","country_id":107,"country_code":"IT","country_name":"Italy","latitude":"40.96460000","longitude":"8.88235000","wikiDataId":"Q18508845"},{"id":135790,"Name":"Ballao","state_id":1715,"state_code":"88","state_name":"Sardinia","country_id":107,"country_code":"IT","country_name":"Italy","latitude":"39.54919000","longitude":"9.36178000","wikiDataId":"Q18436446"},{"id":135800,"Name":"Banari","state_id":1715,"state_code":"88","state_name":"Sardinia","country_id":107,"country_code":"IT","country_name":"Italy","latitude":"40.57056000","longitude":"8.70052000","wikiDataId":"Q18496306"},{"id":135801,"Name":"Bancali","state_id":1715,"state_code":"88","state_name":"Sardinia","country_id":107,"country_code":"IT","country_name":"Italy","latitude":"40.73549000","longitude":"8.46328000","wikiDataId":"Q3633798"},{"id":135808,"Name":"Baradili","state_id":1715,"state_code":"88","state_name":"Sardinia","country_id":107,"country_code":"IT","country_name":"Italy","latitude":"39.72189000","longitude":"8.89731000","wikiDataId":"Q18434512"},{"id":135815,"Name":"Baratili San Pietro","state_id":1715,"state_code":"88","state_name":"Sardinia","country_id":107,"country_code":"IT","country_name":"Italy","latitude":"39.99220000","longitude":"8.55586000","wikiDataId":"Q18494885"},{"id":135846,"Name":"Baressa","state_id":1715,"state_code":"88","state_name":"Sardinia","country_id":107,"country_code":"IT","country_name":"Italy","latitude":"39.71308000","longitude":"8.87459000","wikiDataId":"Q3634893"},{"id":135854,"Name":"Bari Sardo","state_id":1715,"state_code":"88","state_name":"Sardinia","country_id":107,"country_code":"IT","country_name":"Italy","latitude":"39.84135000","longitude":"9.64606000","wikiDataId":"Q18241854"},{"id":135869,"Name":"Barrali","state_id":1715,"state_code":"88","state_name":"Sardinia","country_id":107,"country_code":"IT","country_name":"Italy","latitude":"39.47532000","longitude":"9.10204000","wikiDataId":"Q808771"},{"id":135872,"Name":"Barumini","state_id":1715,"state_code":"88","state_name":"Sardinia","country_id":107,"country_code":"IT","country_name":"Italy","latitude":"39.70215000","longitude":"9.00338000","wikiDataId":"Q808771"},{"id":135912,"Name":"Bauladu","state_id":1715,"state_code":"88","state_name":"Sardinia","country_id":107,"country_code":"IT","country_name":"Italy","latitude":"40.02055000","longitude":"8.67192000","wikiDataId":"Q18484109"},{"id":135913,"Name":"Baunei","state_id":1715,"state_code":"88","state_name":"Sardinia","country_id":107,"country_code":"IT","country_name":"Italy","latitude":"40.03132000","longitude":"9.66374000","wikiDataId":"Q18484109"},{"id":135969,"Name":"Belvì","state_id":1715,"state_code":"88","state_name":"Sardinia","country_id":107,"country_code":"IT","country_name":"Italy","latitude":"39.96181000","longitude":"9.18419000","wikiDataId":"Q18491454"},{"id":135974,"Name":"Benetutti","state_id":1715,"state_code":"88","state_name":"Sardinia","country_id":107,"country_code":"IT","country_name":"Italy","latitude":"40.45689000","longitude":"9.16754000","wikiDataId":"Q18491454"},{"id":135982,"Name":"Berchidda","state_id":1715,"state_code":"88","state_name":"Sardinia","country_id":107,"country_code":"IT","country_name":"Italy","latitude":"40.78476000","longitude":"9.16510000","wikiDataId":"Q18491454"},{"id":136017,"Name":"Bessude","state_id":1715,"state_code":"88","state_name":"Sardinia","country_id":107,"country_code":"IT","country_name":"Italy","latitude":"40.55449000","longitude":"8.72753000","wikiDataId":"Q18438009"},{"id":136045,"Name":"Bidonì","state_id":1715,"state_code":"88","state_name":"Sardinia","country_id":107,"country_code":"IT","country_name":"Italy","latitude":"40.11305000","longitude":"8.93643000","wikiDataId":"Q3512102"},{"id":136057,"Name":"Birori","state_id":1715,"state_code":"88","state_name":"Sardinia","country_id":107,"country_code":"IT","country_name":"Italy","latitude":"40.26593000","longitude":"8.81570000","wikiDataId":"Q18503920"},{"id":136070,"Name":"Bitti","state_id":1715,"state_code":"88","state_name":"Sardinia","country_id":107,"country_code":"IT","country_name":"Italy","latitude":"40.47956000","longitude":"9.38403000","wikiDataId":"Q18434573"},{"id":136112,"Name":"Bolotana","state_id":1715,"state_code":"88","state_name":"Sardinia","country_id":107,"country_code":"IT","country_name":"Italy","latitude":"40.32440000","longitude":"8.96109000","wikiDataId":"Q18478734"},{"id":136123,"Name":"Bonarcado","state_id":1715,"state_code":"88","state_name":"Sardinia","country_id":107,"country_code":"IT","country_name":"Italy","latitude":"40.09836000","longitude":"8.65534000","wikiDataId":"Q15124"},{"id":136140,"Name":"Bonnanaro","state_id":1715,"state_code":"88","state_name":"Sardinia","country_id":107,"country_code":"IT","country_name":"Italy","latitude":"40.53265000","longitude":"8.76389000","wikiDataId":"Q18503987"},{"id":136141,"Name":"Bono","state_id":1715,"state_code":"88","state_name":"Sardinia","country_id":107,"country_code":"IT","country_name":"Italy","latitude":"40.41387000","longitude":"9.03187000","wikiDataId":"Q18503987"},{"id":136142,"Name":"Bonorva","state_id":1715,"state_code":"88","state_name":"Sardinia","country_id":107,"country_code":"IT","country_name":"Italy","latitude":"40.41839000","longitude":"8.76831000","wikiDataId":"Q18503987"},{"id":136225,"Name":"Boroneddu","state_id":1715,"state_code":"88","state_name":"Sardinia","country_id":107,"country_code":"IT","country_name":"Italy","latitude":"40.11262000","longitude":"8.87023000","wikiDataId":"Q3642684"},{"id":136226,"Name":"Borore","state_id":1715,"state_code":"88","state_name":"Sardinia","country_id":107,"country_code":"IT","country_name":"Italy","latitude":"40.21576000","longitude":"8.80365000","wikiDataId":"Q3642684"},{"id":136230,"Name":"Bortigali","state_id":1715,"state_code":"88","state_name":"Sardinia","country_id":107,"country_code":"IT","country_name":"Italy","latitude":"40.28268000","longitude":"8.83946000","wikiDataId":"Q3642684"},{"id":136231,"Name":"Bortigiadas","state_id":1715,"state_code":"88","state_name":"Sardinia","country_id":107,"country_code":"IT","country_name":"Italy","latitude":"40.89167000","longitude":"9.04352000","wikiDataId":"Q3642684"},{"id":136233,"Name":"Borutta","state_id":1715,"state_code":"88","state_name":"Sardinia","country_id":107,"country_code":"IT","country_name":"Italy","latitude":"40.52236000","longitude":"8.74352000","wikiDataId":"Q18496152"},{"id":136236,"Name":"Bosa","state_id":1715,"state_code":"88","state_name":"Sardinia","country_id":107,"country_code":"IT","country_name":"Italy","latitude":"40.29927000","longitude":"8.49827000","wikiDataId":"Q930122"},{"id":136262,"Name":"Bottidda","state_id":1715,"state_code":"88","state_name":"Sardinia","country_id":107,"country_code":"IT","country_name":"Italy","latitude":"40.39242000","longitude":"9.01039000","wikiDataId":"Q18498128"},{"id":136390,"Name":"Buddusò","state_id":1715,"state_code":"88","state_name":"Sardinia","country_id":107,"country_code":"IT","country_name":"Italy","latitude":"40.57723000","longitude":"9.25839000","wikiDataId":"Q18438069"},{"id":136392,"Name":"Budoni","state_id":1715,"state_code":"88","state_name":"Sardinia","country_id":107,"country_code":"IT","country_name":"Italy","latitude":"40.70467000","longitude":"9.70384000","wikiDataId":"Q18438069"},{"id":136395,"Name":"Buggerru","state_id":1715,"state_code":"88","state_name":"Sardinia","country_id":107,"country_code":"IT","country_name":"Italy","latitude":"39.39831000","longitude":"8.40186000","wikiDataId":"Q18472764"},{"id":136403,"Name":"Bultei","state_id":1715,"state_code":"88","state_name":"Sardinia","country_id":107,"country_code":"IT","country_name":"Italy","latitude":"40.45720000","longitude":"9.06367000","wikiDataId":"Q18478626"},{"id":136404,"Name":"Bulzi","state_id":1715,"state_code":"88","state_name":"Sardinia","country_id":107,"country_code":"IT","country_name":"Italy","latitude":"40.84666000","longitude":"8.83026000","wikiDataId":"Q18478626"},{"id":136411,"Name":"Burcei","state_id":1715,"state_code":"88","state_name":"Sardinia","country_id":107,"country_code":"IT","country_name":"Italy","latitude":"39.34379000","longitude":"9.36027000","wikiDataId":"Q18502918"},{"id":136413,"Name":"Burgos","state_id":1715,"state_code":"88","state_name":"Sardinia","country_id":107,"country_code":"IT","country_name":"Italy","latitude":"40.39081000","longitude":"8.99558000","wikiDataId":"Q18502918"},{"id":136417,"Name":"Busachi","state_id":1715,"state_code":"88","state_name":"Sardinia","country_id":107,"country_code":"IT","country_name":"Italy","latitude":"40.03422000","longitude":"8.88848000","wikiDataId":"Q18502918"},{"id":136450,"Name":"Cabras","state_id":1715,"state_code":"88","state_name":"Sardinia","country_id":107,"country_code":"IT","country_name":"Italy","latitude":"39.92871000","longitude":"8.53242000","wikiDataId":"Q18440594"},{"id":136468,"Name":"Cagliari","state_id":1715,"state_code":"88","state_name":"Sardinia","country_id":107,"country_code":"IT","country_name":"Italy","latitude":"39.23054000","longitude":"9.11917000","wikiDataId":"Q3649521"},{"id":136485,"Name":"Cala Gonone","state_id":1715,"state_code":"88","state_name":"Sardinia","country_id":107,"country_code":"IT","country_name":"Italy","latitude":"40.28086000","longitude":"9.62971000","wikiDataId":"Q1026145"},{"id":136490,"Name":"Calangianus","state_id":1715,"state_code":"88","state_name":"Sardinia","country_id":107,"country_code":"IT","country_name":"Italy","latitude":"40.92027000","longitude":"9.19343000","wikiDataId":"Q1026145"},{"id":136495,"Name":"Calasetta","state_id":1715,"state_code":"88","state_name":"Sardinia","country_id":107,"country_code":"IT","country_name":"Italy","latitude":"39.10697000","longitude":"8.36803000","wikiDataId":"Q18426488"},{"id":136788,"Name":"Capoterra","state_id":1715,"state_code":"88","state_name":"Sardinia","country_id":107,"country_code":"IT","country_name":"Italy","latitude":"39.17520000","longitude":"8.97199000","wikiDataId":"Q18496863"},{"id":136852,"Name":"Carbonia","state_id":1715,"state_code":"88","state_name":"Sardinia","country_id":107,"country_code":"IT","country_name":"Italy","latitude":"39.16465000","longitude":"8.52130000","wikiDataId":"Q583609"},{"id":136859,"Name":"Cardedu","state_id":1715,"state_code":"88","state_name":"Sardinia","country_id":107,"country_code":"IT","country_name":"Italy","latitude":"39.79714000","longitude":"9.62652000","wikiDataId":"Q18473181"},{"id":136873,"Name":"Cargeghe","state_id":1715,"state_code":"88","state_name":"Sardinia","country_id":107,"country_code":"IT","country_name":"Italy","latitude":"40.66894000","longitude":"8.61521000","wikiDataId":"Q18473181"},{"id":136888,"Name":"Carloforte","state_id":1715,"state_code":"88","state_name":"Sardinia","country_id":107,"country_code":"IT","country_name":"Italy","latitude":"39.14081000","longitude":"8.30390000","wikiDataId":"Q18467565"},{"id":137314,"Name":"Castelsardo","state_id":1715,"state_code":"88","state_name":"Sardinia","country_id":107,"country_code":"IT","country_name":"Italy","latitude":"40.91256000","longitude":"8.71453000","wikiDataId":"Q3663015"},{"id":137335,"Name":"Castiadas","state_id":1715,"state_code":"88","state_name":"Sardinia","country_id":107,"country_code":"IT","country_name":"Italy","latitude":"39.23704000","longitude":"9.49975000","wikiDataId":"Q2163325"},{"id":137637,"Name":"Cheremule","state_id":1715,"state_code":"88","state_name":"Sardinia","country_id":107,"country_code":"IT","country_name":"Italy","latitude":"40.50455000","longitude":"8.72582000","wikiDataId":"Q18495325"},{"id":137649,"Name":"Chiaramonti","state_id":1715,"state_code":"88","state_name":"Sardinia","country_id":107,"country_code":"IT","country_name":"Italy","latitude":"40.74829000","longitude":"8.82114000","wikiDataId":"Q18462653"},{"id":137827,"Name":"Codaruina","state_id":1715,"state_code":"88","state_name":"Sardinia","country_id":107,"country_code":"IT","country_name":"Italy","latitude":"40.92847000","longitude":"8.82398000","wikiDataId":"Q18450520"},{"id":137838,"Name":"Codrongianos","state_id":1715,"state_code":"88","state_name":"Sardinia","country_id":107,"country_code":"IT","country_name":"Italy","latitude":"40.65603000","longitude":"8.68140000","wikiDataId":"Q30024888"},{"id":137903,"Name":"Collinas","state_id":1715,"state_code":"88","state_name":"Sardinia","country_id":107,"country_code":"IT","country_name":"Italy","latitude":"39.64059000","longitude":"8.83955000","wikiDataId":"Q18454548"},{"id":138070,"Name":"Cortoghiana","state_id":1715,"state_code":"88","state_name":"Sardinia","country_id":107,"country_code":"IT","country_name":"Italy","latitude":"39.21177000","longitude":"8.46548000","wikiDataId":"Q3694855"},{"id":138089,"Name":"Cossoine","state_id":1715,"state_code":"88","state_name":"Sardinia","country_id":107,"country_code":"IT","country_name":"Italy","latitude":"40.43068000","longitude":"8.71578000","wikiDataId":"Q18501619"},{"id":138185,"Name":"Cuglieri","state_id":1715,"state_code":"88","state_name":"Sardinia","country_id":107,"country_code":"IT","country_name":"Italy","latitude":"40.18804000","longitude":"8.56806000","wikiDataId":"Q18498367"},{"id":138199,"Name":"Curcuris","state_id":1715,"state_code":"88","state_name":"Sardinia","country_id":107,"country_code":"IT","country_name":"Italy","latitude":"39.74625000","longitude":"8.83154000","wikiDataId":"Q30025326"},{"id":138236,"Name":"Decimomannu","state_id":1715,"state_code":"88","state_name":"Sardinia","country_id":107,"country_code":"IT","country_name":"Italy","latitude":"39.31033000","longitude":"8.96964000","wikiDataId":"Q18438304"},{"id":138237,"Name":"Decimoputzu","state_id":1715,"state_code":"88","state_name":"Sardinia","country_id":107,"country_code":"IT","country_name":"Italy","latitude":"39.33522000","longitude":"8.91440000","wikiDataId":"Q18438304"},{"id":138258,"Name":"Desulo","state_id":1715,"state_code":"88","state_name":"Sardinia","country_id":107,"country_code":"IT","country_name":"Italy","latitude":"40.01462000","longitude":"9.23061000","wikiDataId":"Q3705930"},{"id":138283,"Name":"Dolianova","state_id":1715,"state_code":"88","state_name":"Sardinia","country_id":107,"country_code":"IT","country_name":"Italy","latitude":"39.37791000","longitude":"9.17697000","wikiDataId":"Q5287934"},{"id":138293,"Name":"Domus de Maria","state_id":1715,"state_code":"88","state_name":"Sardinia","country_id":107,"country_code":"IT","country_name":"Italy","latitude":"38.94451000","longitude":"8.86250000","wikiDataId":"Q18449382"},{"id":138294,"Name":"Domusnovas","state_id":1715,"state_code":"88","state_name":"Sardinia","country_id":107,"country_code":"IT","country_name":"Italy","latitude":"39.32404000","longitude":"8.64921000","wikiDataId":"Q18449382"},{"id":138299,"Name":"Donigala Fenugheddu","state_id":1715,"state_code":"88","state_name":"Sardinia","country_id":107,"country_code":"IT","country_name":"Italy","latitude":"39.93501000","longitude":"8.57311000","wikiDataId":"Q18449763"},{"id":138304,"Name":"Donorì","state_id":1715,"state_code":"88","state_name":"Sardinia","country_id":107,"country_code":"IT","country_name":"Italy","latitude":"39.43182000","longitude":"9.12674000","wikiDataId":"Q18448279"},{"id":138306,"Name":"Dorgali","state_id":1715,"state_code":"88","state_name":"Sardinia","country_id":107,"country_code":"IT","country_name":"Italy","latitude":"40.29221000","longitude":"9.58702000","wikiDataId":"Q18499629"},{"id":138336,"Name":"Dualchi","state_id":1715,"state_code":"88","state_name":"Sardinia","country_id":107,"country_code":"IT","country_name":"Italy","latitude":"40.22935000","longitude":"8.89723000","wikiDataId":"Q18443054"},{"id":138352,"Name":"Elini","state_id":1715,"state_code":"88","state_name":"Sardinia","country_id":107,"country_code":"IT","country_name":"Italy","latitude":"39.89952000","longitude":"9.53198000","wikiDataId":"Q18503084"},{"id":138354,"Name":"Elmas","state_id":1715,"state_code":"88","state_name":"Sardinia","country_id":107,"country_code":"IT","country_name":"Italy","latitude":"39.26878000","longitude":"9.05021000","wikiDataId":"Q18503084"},{"id":138377,"Name":"Erula","state_id":1715,"state_code":"88","state_name":"Sardinia","country_id":107,"country_code":"IT","country_name":"Italy","latitude":"40.79244000","longitude":"8.94418000","wikiDataId":"Q18490379"},{"id":138380,"Name":"Escalaplano","state_id":1715,"state_code":"88","state_name":"Sardinia","country_id":107,"country_code":"IT","country_name":"Italy","latitude":"39.62574000","longitude":"9.35350000","wikiDataId":"Q18490379"},{"id":138381,"Name":"Escolca","state_id":1715,"state_code":"88","state_name":"Sardinia","country_id":107,"country_code":"IT","country_name":"Italy","latitude":"39.69861000","longitude":"9.12139000","wikiDataId":"Q18490379"},{"id":138385,"Name":"Esporlatu","state_id":1715,"state_code":"88","state_name":"Sardinia","country_id":107,"country_code":"IT","country_name":"Italy","latitude":"40.38456000","longitude":"8.98983000","wikiDataId":"Q18490379"},{"id":138387,"Name":"Esterzili","state_id":1715,"state_code":"88","state_name":"Sardinia","country_id":107,"country_code":"IT","country_name":"Italy","latitude":"39.78041000","longitude":"9.28357000","wikiDataId":"Q18490379"},{"id":138566,"Name":"Florinas","state_id":1715,"state_code":"88","state_name":"Sardinia","country_id":107,"country_code":"IT","country_name":"Italy","latitude":"40.64900000","longitude":"8.66548000","wikiDataId":"Q2044"},{"id":138568,"Name":"Fluminimaggiore","state_id":1715,"state_code":"88","state_name":"Sardinia","country_id":107,"country_code":"IT","country_name":"Italy","latitude":"39.43878000","longitude":"8.49758000","wikiDataId":"Q2044"},{"id":138569,"Name":"Flussio","state_id":1715,"state_code":"88","state_name":"Sardinia","country_id":107,"country_code":"IT","country_name":"Italy","latitude":"40.26545000","longitude":"8.53810000","wikiDataId":"Q2044"},{"id":138590,"Name":"Fonni","state_id":1715,"state_code":"88","state_name":"Sardinia","country_id":107,"country_code":"IT","country_name":"Italy","latitude":"40.11932000","longitude":"9.25347000","wikiDataId":"Q3747112"},{"id":138623,"Name":"Fordongianus","state_id":1715,"state_code":"88","state_name":"Sardinia","country_id":107,"country_code":"IT","country_name":"Italy","latitude":"39.99436000","longitude":"8.81019000","wikiDataId":"Q652620"},{"id":138759,"Name":"Furtei","state_id":1715,"state_code":"88","state_name":"Sardinia","country_id":107,"country_code":"IT","country_name":"Italy","latitude":"39.56253000","longitude":"8.94773000","wikiDataId":"Q3754734"},{"id":138773,"Name":"Gadoni","state_id":1715,"state_code":"88","state_name":"Sardinia","country_id":107,"country_code":"IT","country_name":"Italy","latitude":"39.91388000","longitude":"9.18560000","wikiDataId":"Q18490204"},{"id":138792,"Name":"Gairo Sant'Elena","state_id":1715,"state_code":"88","state_name":"Sardinia","country_id":107,"country_code":"IT","country_name":"Italy","latitude":"39.84972000","longitude":"9.50472000","wikiDataId":"Q18449329"},{"id":138822,"Name":"Galtellì","state_id":1715,"state_code":"88","state_name":"Sardinia","country_id":107,"country_code":"IT","country_name":"Italy","latitude":"40.38451000","longitude":"9.61241000","wikiDataId":"Q18503306"},{"id":138879,"Name":"Gavoi","state_id":1715,"state_code":"88","state_name":"Sardinia","country_id":107,"country_code":"IT","country_name":"Italy","latitude":"40.16130000","longitude":"9.19462000","wikiDataId":"Q18468139"},{"id":138901,"Name":"Genoni","state_id":1715,"state_code":"88","state_name":"Sardinia","country_id":107,"country_code":"IT","country_name":"Italy","latitude":"39.79361000","longitude":"9.00797000","wikiDataId":"Q18453753"},{"id":138902,"Name":"Genuri","state_id":1715,"state_code":"88","state_name":"Sardinia","country_id":107,"country_code":"IT","country_name":"Italy","latitude":"39.74327000","longitude":"8.92407000","wikiDataId":"Q18453753"},{"id":138915,"Name":"Gergei","state_id":1715,"state_code":"88","state_name":"Sardinia","country_id":107,"country_code":"IT","country_name":"Italy","latitude":"39.69878000","longitude":"9.09965000","wikiDataId":"Q18443301"},{"id":138924,"Name":"Gesico","state_id":1715,"state_code":"88","state_name":"Sardinia","country_id":107,"country_code":"IT","country_name":"Italy","latitude":"39.61636000","longitude":"9.10665000","wikiDataId":"Q101135"},{"id":138927,"Name":"Gesturi","state_id":1715,"state_code":"88","state_name":"Sardinia","country_id":107,"country_code":"IT","country_name":"Italy","latitude":"39.73237000","longitude":"9.02077000","wikiDataId":"Q101135"},{"id":138934,"Name":"Ghilarza","state_id":1715,"state_code":"88","state_name":"Sardinia","country_id":107,"country_code":"IT","country_name":"Italy","latitude":"40.12119000","longitude":"8.83612000","wikiDataId":"Q18503157"},{"id":138950,"Name":"Giave","state_id":1715,"state_code":"88","state_name":"Sardinia","country_id":107,"country_code":"IT","country_name":"Italy","latitude":"40.45224000","longitude":"8.75175000","wikiDataId":"Q3763793"},{"id":138954,"Name":"Giba","state_id":1715,"state_code":"88","state_name":"Sardinia","country_id":107,"country_code":"IT","country_name":"Italy","latitude":"39.07151000","longitude":"8.63580000","wikiDataId":"Q18506368"},{"id":138982,"Name":"Girasole","state_id":1715,"state_code":"88","state_name":"Sardinia","country_id":107,"country_code":"IT","country_name":"Italy","latitude":"39.95205000","longitude":"9.66098000","wikiDataId":"Q18454672"},{"id":139014,"Name":"Golfo Aranci","state_id":1715,"state_code":"88","state_name":"Sardinia","country_id":107,"country_code":"IT","country_name":"Italy","latitude":"40.98333000","longitude":"9.63333000","wikiDataId":"Q30026139"},{"id":139017,"Name":"Goni","state_id":1715,"state_code":"88","state_name":"Sardinia","country_id":107,"country_code":"IT","country_name":"Italy","latitude":"39.57906000","longitude":"9.28519000","wikiDataId":"Q30026139"},{"id":139018,"Name":"Gonnesa","state_id":1715,"state_code":"88","state_name":"Sardinia","country_id":107,"country_code":"IT","country_name":"Italy","latitude":"39.26535000","longitude":"8.47038000","wikiDataId":"Q30026139"},{"id":139019,"Name":"Gonnoscodina","state_id":1715,"state_code":"88","state_name":"Sardinia","country_id":107,"country_code":"IT","country_name":"Italy","latitude":"39.69962000","longitude":"8.83598000","wikiDataId":"Q30026139"},{"id":139020,"Name":"Gonnosfanadiga","state_id":1715,"state_code":"88","state_name":"Sardinia","country_id":107,"country_code":"IT","country_name":"Italy","latitude":"39.49426000","longitude":"8.66200000","wikiDataId":"Q30026139"},{"id":139021,"Name":"Gonnosnò","state_id":1715,"state_code":"88","state_name":"Sardinia","country_id":107,"country_code":"IT","country_name":"Italy","latitude":"39.76104000","longitude":"8.87135000","wikiDataId":"Q30026139"},{"id":139022,"Name":"Gonnostramatza","state_id":1715,"state_code":"88","state_name":"Sardinia","country_id":107,"country_code":"IT","country_name":"Italy","latitude":"39.68306000","longitude":"8.83283000","wikiDataId":"Q30026139"},{"id":139150,"Name":"Guamaggiore","state_id":1715,"state_code":"88","state_name":"Sardinia","country_id":107,"country_code":"IT","country_name":"Italy","latitude":"39.56849000","longitude":"9.07391000","wikiDataId":"Q18453762"},{"id":139168,"Name":"Guasila","state_id":1715,"state_code":"88","state_name":"Sardinia","country_id":107,"country_code":"IT","country_name":"Italy","latitude":"39.55980000","longitude":"9.04404000","wikiDataId":"Q18429326"},{"id":139184,"Name":"Guspini","state_id":1715,"state_code":"88","state_name":"Sardinia","country_id":107,"country_code":"IT","country_name":"Italy","latitude":"39.53954000","longitude":"8.63502000","wikiDataId":"Q3779689"},{"id":139191,"Name":"Iglesias","state_id":1715,"state_code":"88","state_name":"Sardinia","country_id":107,"country_code":"IT","country_name":"Italy","latitude":"39.30920000","longitude":"8.53720000","wikiDataId":"Q18451725"},{"id":139194,"Name":"Ilbono","state_id":1715,"state_code":"88","state_name":"Sardinia","country_id":107,"country_code":"IT","country_name":"Italy","latitude":"39.89258000","longitude":"9.54582000","wikiDataId":"Q3792920"},{"id":139196,"Name":"Illorai","state_id":1715,"state_code":"88","state_name":"Sardinia","country_id":107,"country_code":"IT","country_name":"Italy","latitude":"40.35271000","longitude":"9.00170000","wikiDataId":"Q3792920"},{"id":139221,"Name":"Irgoli","state_id":1715,"state_code":"88","state_name":"Sardinia","country_id":107,"country_code":"IT","country_name":"Italy","latitude":"40.40999000","longitude":"9.63135000","wikiDataId":"Q18492895"},{"id":139234,"Name":"Isili","state_id":1715,"state_code":"88","state_name":"Sardinia","country_id":107,"country_code":"IT","country_name":"Italy","latitude":"39.73952000","longitude":"9.11114000","wikiDataId":"Q18436956"},{"id":139269,"Name":"Ittireddu","state_id":1715,"state_code":"88","state_name":"Sardinia","country_id":107,"country_code":"IT","country_name":"Italy","latitude":"40.54398000","longitude":"8.90118000","wikiDataId":"Q1118172"},{"id":139270,"Name":"Ittiri","state_id":1715,"state_code":"88","state_name":"Sardinia","country_id":107,"country_code":"IT","country_name":"Italy","latitude":"40.59151000","longitude":"8.56976000","wikiDataId":"Q1118172"},{"id":139277,"Name":"Jerzu","state_id":1715,"state_code":"88","state_name":"Sardinia","country_id":107,"country_code":"IT","country_name":"Italy","latitude":"39.79289000","longitude":"9.51785000","wikiDataId":"Q1118172"},{"id":139287,"Name":"La Caletta","state_id":1715,"state_code":"88","state_name":"Sardinia","country_id":107,"country_code":"IT","country_name":"Italy","latitude":"40.60988000","longitude":"9.75062000","wikiDataId":"Q1328171"},{"id":139293,"Name":"La Maddalena","state_id":1715,"state_code":"88","state_name":"Sardinia","country_id":107,"country_code":"IT","country_name":"Italy","latitude":"39.14429000","longitude":"9.01223000","wikiDataId":"Q18448339"},{"id":139316,"Name":"Laconi","state_id":1715,"state_code":"88","state_name":"Sardinia","country_id":107,"country_code":"IT","country_name":"Italy","latitude":"39.85325000","longitude":"9.05196000","wikiDataId":"Q18443484"},{"id":139319,"Name":"Laerru","state_id":1715,"state_code":"88","state_name":"Sardinia","country_id":107,"country_code":"IT","country_name":"Italy","latitude":"40.81705000","longitude":"8.83650000","wikiDataId":"Q18492964"},{"id":139360,"Name":"Lanusei","state_id":1715,"state_code":"88","state_name":"Sardinia","country_id":107,"country_code":"IT","country_name":"Italy","latitude":"39.87927000","longitude":"9.54022000","wikiDataId":"Q18437448"},{"id":139377,"Name":"Las Plassas","state_id":1715,"state_code":"88","state_name":"Sardinia","country_id":107,"country_code":"IT","country_name":"Italy","latitude":"39.67979000","longitude":"8.98442000","wikiDataId":"Q3827060"},{"id":139438,"Name":"Lei","state_id":1715,"state_code":"88","state_name":"Sardinia","country_id":107,"country_code":"IT","country_name":"Italy","latitude":"40.30641000","longitude":"8.91858000","wikiDataId":"Q3828415"},{"id":139491,"Name":"Li Punti-San Giovanni","state_id":1715,"state_code":"88","state_name":"Sardinia","country_id":107,"country_code":"IT","country_name":"Italy","latitude":"40.76338000","longitude":"8.48900000","wikiDataId":"Q384901"},{"id":139564,"Name":"Loceri","state_id":1715,"state_code":"88","state_name":"Sardinia","country_id":107,"country_code":"IT","country_name":"Italy","latitude":"39.85816000","longitude":"9.58368000","wikiDataId":"Q18504882"},{"id":139567,"Name":"Loculi","state_id":1715,"state_code":"88","state_name":"Sardinia","country_id":107,"country_code":"IT","country_name":"Italy","latitude":"40.40696000","longitude":"9.61056000","wikiDataId":"Q18504882"},{"id":139574,"Name":"Lodè","state_id":1715,"state_code":"88","state_name":"Sardinia","country_id":107,"country_code":"IT","country_name":"Italy","latitude":"40.59137000","longitude":"9.53873000","wikiDataId":"Q18480359"},{"id":139571,"Name":"Lodine","state_id":1715,"state_code":"88","state_name":"Sardinia","country_id":107,"country_code":"IT","country_name":"Italy","latitude":"40.14926000","longitude":"9.21873000","wikiDataId":"Q3338247"},{"id":139577,"Name":"Loiri Porto San Paolo","state_id":1715,"state_code":"88","state_name":"Sardinia","country_id":107,"country_code":"IT","country_name":"Italy","latitude":"40.84262000","longitude":"9.49820000","wikiDataId":"Q18480359"},{"id":139618,"Name":"Lotzorai","state_id":1715,"state_code":"88","state_name":"Sardinia","country_id":107,"country_code":"IT","country_name":"Italy","latitude":"39.96940000","longitude":"9.66350000","wikiDataId":"Q3837431"},{"id":139627,"Name":"Lu Bagnu","state_id":1715,"state_code":"88","state_name":"Sardinia","country_id":107,"country_code":"IT","country_name":"Italy","latitude":"40.90184000","longitude":"8.68555000","wikiDataId":"Q18509842"},{"id":139653,"Name":"Lula","state_id":1715,"state_code":"88","state_name":"Sardinia","country_id":107,"country_code":"IT","country_name":"Italy","latitude":"40.47048000","longitude":"9.48684000","wikiDataId":"Q18503397"},{"id":139657,"Name":"Lunamatrona","state_id":1715,"state_code":"88","state_name":"Sardinia","country_id":107,"country_code":"IT","country_name":"Italy","latitude":"39.64943000","longitude":"8.89966000","wikiDataId":"Q18506464"},{"id":139663,"Name":"Luogosanto","state_id":1715,"state_code":"88","state_name":"Sardinia","country_id":107,"country_code":"IT","country_name":"Italy","latitude":"41.04681000","longitude":"9.20553000","wikiDataId":"Q18429882"},{"id":139668,"Name":"Luras","state_id":1715,"state_code":"88","state_name":"Sardinia","country_id":107,"country_code":"IT","country_name":"Italy","latitude":"40.93643000","longitude":"9.17480000","wikiDataId":"Q18429882"},{"id":139703,"Name":"Macomer","state_id":1715,"state_code":"88","state_name":"Sardinia","country_id":107,"country_code":"IT","country_name":"Italy","latitude":"40.26233000","longitude":"8.76733000","wikiDataId":"Q18495873"},{"id":139740,"Name":"Magomadas","state_id":1715,"state_code":"88","state_name":"Sardinia","country_id":107,"country_code":"IT","country_name":"Italy","latitude":"40.26321000","longitude":"8.52327000","wikiDataId":"Q18509707"},{"id":139781,"Name":"Mamoiada","state_id":1715,"state_code":"88","state_name":"Sardinia","country_id":107,"country_code":"IT","country_name":"Italy","latitude":"40.21487000","longitude":"9.28189000","wikiDataId":"Q3843959"},{"id":139784,"Name":"Mandas","state_id":1715,"state_code":"88","state_name":"Sardinia","country_id":107,"country_code":"IT","country_name":"Italy","latitude":"39.65514000","longitude":"9.12955000","wikiDataId":"Q3843959"},{"id":139817,"Name":"Mara","state_id":1715,"state_code":"88","state_name":"Sardinia","country_id":107,"country_code":"IT","country_name":"Italy","latitude":"40.41019000","longitude":"8.63664000","wikiDataId":"Q18441308"},{"id":139818,"Name":"Maracalagonis","state_id":1715,"state_code":"88","state_name":"Sardinia","country_id":107,"country_code":"IT","country_name":"Italy","latitude":"39.28574000","longitude":"9.22874000","wikiDataId":"Q18441308"},{"id":139916,"Name":"Marrubiu","state_id":1715,"state_code":"88","state_name":"Sardinia","country_id":107,"country_code":"IT","country_name":"Italy","latitude":"39.75124000","longitude":"8.63766000","wikiDataId":"Q2086222"},{"id":139939,"Name":"Martis","state_id":1715,"state_code":"88","state_name":"Sardinia","country_id":107,"country_code":"IT","country_name":"Italy","latitude":"40.77804000","longitude":"8.80897000","wikiDataId":"Q18490349"},{"id":139950,"Name":"Masainas","state_id":1715,"state_code":"88","state_name":"Sardinia","country_id":107,"country_code":"IT","country_name":"Italy","latitude":"39.04993000","longitude":"8.62924000","wikiDataId":"Q18436637"},{"id":139991,"Name":"Masullas","state_id":1715,"state_code":"88","state_name":"Sardinia","country_id":107,"country_code":"IT","country_name":"Italy","latitude":"39.70044000","longitude":"8.78371000","wikiDataId":"Q18436979"},{"id":140013,"Name":"Meana Sardo","state_id":1715,"state_code":"88","state_name":"Sardinia","country_id":107,"country_code":"IT","country_name":"Italy","latitude":"39.94467000","longitude":"9.07355000","wikiDataId":"Q3853218"},{"id":140148,"Name":"Milis","state_id":1715,"state_code":"88","state_name":"Sardinia","country_id":107,"country_code":"IT","country_name":"Italy","latitude":"40.05045000","longitude":"8.63702000","wikiDataId":"Q18443739"},{"id":140191,"Name":"Modolo","state_id":1715,"state_code":"88","state_name":"Sardinia","country_id":107,"country_code":"IT","country_name":"Italy","latitude":"40.27535000","longitude":"8.53002000","wikiDataId":"Q18458159"},{"id":140200,"Name":"Mogorella","state_id":1715,"state_code":"88","state_name":"Sardinia","country_id":107,"country_code":"IT","country_name":"Italy","latitude":"39.86447000","longitude":"8.85913000","wikiDataId":"Q18452223"},{"id":140201,"Name":"Mogoro","state_id":1715,"state_code":"88","state_name":"Sardinia","country_id":107,"country_code":"IT","country_name":"Italy","latitude":"39.68415000","longitude":"8.77661000","wikiDataId":"Q18452223"},{"id":140261,"Name":"Monastir","state_id":1715,"state_code":"88","state_name":"Sardinia","country_id":107,"country_code":"IT","country_name":"Italy","latitude":"39.38360000","longitude":"9.04445000","wikiDataId":"Q18468476"},{"id":140302,"Name":"Monserrato","state_id":1715,"state_code":"88","state_name":"Sardinia","country_id":107,"country_code":"IT","country_name":"Italy","latitude":"39.25642000","longitude":"9.14440000","wikiDataId":"Q1985002"},{"id":140467,"Name":"Monteleone Rocca Doria","state_id":1715,"state_code":"88","state_name":"Sardinia","country_id":107,"country_code":"IT","country_name":"Italy","latitude":"40.47206000","longitude":"8.56071000","wikiDataId":"Q18454897"},{"id":140553,"Name":"Monti","state_id":1715,"state_code":"88","state_name":"Sardinia","country_id":107,"country_code":"IT","country_name":"Italy","latitude":"40.80715000","longitude":"9.32553000","wikiDataId":"Q18487695"},{"id":140590,"Name":"Montresta","state_id":1715,"state_code":"88","state_name":"Sardinia","country_id":107,"country_code":"IT","country_name":"Italy","latitude":"40.37365000","longitude":"8.49962000","wikiDataId":"Q6906139"},{"id":140609,"Name":"Mores","state_id":1715,"state_code":"88","state_name":"Sardinia","country_id":107,"country_code":"IT","country_name":"Italy","latitude":"40.54745000","longitude":"8.83302000","wikiDataId":"Q6906139"},{"id":140614,"Name":"Morgongiori","state_id":1715,"state_code":"88","state_name":"Sardinia","country_id":107,"country_code":"IT","country_name":"Italy","latitude":"39.74630000","longitude":"8.77041000","wikiDataId":"Q6906139"},{"id":140686,"Name":"Muravera","state_id":1715,"state_code":"88","state_name":"Sardinia","country_id":107,"country_code":"IT","country_name":"Italy","latitude":"39.41972000","longitude":"9.57471000","wikiDataId":"Q52437"},{"id":140695,"Name":"Muros","state_id":1715,"state_code":"88","state_name":"Sardinia","country_id":107,"country_code":"IT","country_name":"Italy","latitude":"40.67902000","longitude":"8.61780000","wikiDataId":"Q18506593"},{"id":140699,"Name":"Musei","state_id":1715,"state_code":"88","state_name":"Sardinia","country_id":107,"country_code":"IT","country_name":"Italy","latitude":"39.30232000","longitude":"8.66613000","wikiDataId":"Q18437000"},{"id":140715,"Name":"Narbolia","state_id":1715,"state_code":"88","state_name":"Sardinia","country_id":107,"country_code":"IT","country_name":"Italy","latitude":"40.04784000","longitude":"8.57552000","wikiDataId":"Q18241891"},{"id":140716,"Name":"Narcao","state_id":1715,"state_code":"88","state_name":"Sardinia","country_id":107,"country_code":"IT","country_name":"Italy","latitude":"39.16750000","longitude":"8.67500000","wikiDataId":"Q18241891"},{"id":140742,"Name":"Neoneli","state_id":1715,"state_code":"88","state_name":"Sardinia","country_id":107,"country_code":"IT","country_name":"Italy","latitude":"40.06475000","longitude":"8.94673000","wikiDataId":"Q18439924"},{"id":140805,"Name":"Noragugume","state_id":1715,"state_code":"88","state_name":"Sardinia","country_id":107,"country_code":"IT","country_name":"Italy","latitude":"40.22443000","longitude":"8.92012000","wikiDataId":"Q30028227"},{"id":140806,"Name":"Norbello","state_id":1715,"state_code":"88","state_name":"Sardinia","country_id":107,"country_code":"IT","country_name":"Italy","latitude":"40.13475000","longitude":"8.83203000","wikiDataId":"Q30028227"},{"id":140843,"Name":"Nughedu San Nicolò","state_id":1715,"state_code":"88","state_name":"Sardinia","country_id":107,"country_code":"IT","country_name":"Italy","latitude":"40.55736000","longitude":"9.02142000","wikiDataId":"Q18426835"},{"id":140844,"Name":"Nughedu Santa Vittoria","state_id":1715,"state_code":"88","state_name":"Sardinia","country_id":107,"country_code":"IT","country_name":"Italy","latitude":"40.10135000","longitude":"8.95247000","wikiDataId":"Q18426835"},{"id":140845,"Name":"Nule","state_id":1715,"state_code":"88","state_name":"Sardinia","country_id":107,"country_code":"IT","country_name":"Italy","latitude":"40.46266000","longitude":"9.19076000","wikiDataId":"Q18426835"},{"id":140846,"Name":"Nulvi","state_id":1715,"state_code":"88","state_name":"Sardinia","country_id":107,"country_code":"IT","country_name":"Italy","latitude":"40.78447000","longitude":"8.74358000","wikiDataId":"Q18426835"},{"id":140849,"Name":"Nuoro","state_id":1715,"state_code":"88","state_name":"Sardinia","country_id":107,"country_code":"IT","country_name":"Italy","latitude":"40.31991000","longitude":"9.32568000","wikiDataId":"Q2529258"},{"id":140853,"Name":"Nurachi","state_id":1715,"state_code":"88","state_name":"Sardinia","country_id":107,"country_code":"IT","country_name":"Italy","latitude":"39.97451000","longitude":"8.53965000","wikiDataId":"Q18509833"},{"id":140854,"Name":"Nuragus","state_id":1715,"state_code":"88","state_name":"Sardinia","country_id":107,"country_code":"IT","country_name":"Italy","latitude":"39.77771000","longitude":"9.03724000","wikiDataId":"Q18509833"},{"id":140855,"Name":"Nurallao","state_id":1715,"state_code":"88","state_name":"Sardinia","country_id":107,"country_code":"IT","country_name":"Italy","latitude":"39.78908000","longitude":"9.07802000","wikiDataId":"Q18509833"},{"id":140856,"Name":"Nuraminis","state_id":1715,"state_code":"88","state_name":"Sardinia","country_id":107,"country_code":"IT","country_name":"Italy","latitude":"39.44258000","longitude":"9.01395000","wikiDataId":"Q18509833"},{"id":140857,"Name":"Nuraxinieddu","state_id":1715,"state_code":"88","state_name":"Sardinia","country_id":107,"country_code":"IT","country_name":"Italy","latitude":"39.93843000","longitude":"8.59910000","wikiDataId":"Q18449899"},{"id":140858,"Name":"Nureci","state_id":1715,"state_code":"88","state_name":"Sardinia","country_id":107,"country_code":"IT","country_name":"Italy","latitude":"39.82329000","longitude":"8.97484000","wikiDataId":"Q18449899"},{"id":140859,"Name":"Nurri","state_id":1715,"state_code":"88","state_name":"Sardinia","country_id":107,"country_code":"IT","country_name":"Italy","latitude":"39.71122000","longitude":"9.22990000","wikiDataId":"Q18449899"},{"id":140864,"Name":"Nuxis","state_id":1715,"state_code":"88","state_name":"Sardinia","country_id":107,"country_code":"IT","country_name":"Italy","latitude":"39.15456000","longitude":"8.73953000","wikiDataId":"Q18449899"},{"id":140884,"Name":"Olbia","state_id":1715,"state_code":"88","state_name":"Sardinia","country_id":107,"country_code":"IT","country_name":"Italy","latitude":"40.92337000","longitude":"9.49802000","wikiDataId":"Q18487724"},{"id":140896,"Name":"Olia Speciosa","state_id":1715,"state_code":"88","state_name":"Sardinia","country_id":107,"country_code":"IT","country_name":"Italy","latitude":"39.27806000","longitude":"9.52500000","wikiDataId":"Q18448462"},{"id":140897,"Name":"Oliena","state_id":1715,"state_code":"88","state_name":"Sardinia","country_id":107,"country_code":"IT","country_name":"Italy","latitude":"40.27617000","longitude":"9.40193000","wikiDataId":"Q18448462"},{"id":140905,"Name":"Ollastra","state_id":1715,"state_code":"88","state_name":"Sardinia","country_id":107,"country_code":"IT","country_name":"Italy","latitude":"39.95095000","longitude":"8.73423000","wikiDataId":"Q18448462"},{"id":140906,"Name":"Ollolai","state_id":1715,"state_code":"88","state_name":"Sardinia","country_id":107,"country_code":"IT","country_name":"Italy","latitude":"40.16805000","longitude":"9.17776000","wikiDataId":"Q18448462"},{"id":140908,"Name":"Olmedo","state_id":1715,"state_code":"88","state_name":"Sardinia","country_id":107,"country_code":"IT","country_name":"Italy","latitude":"40.65156000","longitude":"8.38021000","wikiDataId":"Q18448462"},{"id":140916,"Name":"Olzai","state_id":1715,"state_code":"88","state_name":"Sardinia","country_id":107,"country_code":"IT","country_name":"Italy","latitude":"40.18238000","longitude":"9.14679000","wikiDataId":"Q18498443"},{"id":140921,"Name":"Onanì","state_id":1715,"state_code":"88","state_name":"Sardinia","country_id":107,"country_code":"IT","country_name":"Italy","latitude":"40.48536000","longitude":"9.44324000","wikiDataId":"Q18498443"},{"id":140924,"Name":"Onifai","state_id":1715,"state_code":"88","state_name":"Sardinia","country_id":107,"country_code":"IT","country_name":"Italy","latitude":"40.40694000","longitude":"9.65005000","wikiDataId":"Q18498443"},{"id":140925,"Name":"Oniferi","state_id":1715,"state_code":"88","state_name":"Sardinia","country_id":107,"country_code":"IT","country_name":"Italy","latitude":"40.27196000","longitude":"9.17033000","wikiDataId":"Q18498443"},{"id":140937,"Name":"Orani","state_id":1715,"state_code":"88","state_name":"Sardinia","country_id":107,"country_code":"IT","country_name":"Italy","latitude":"40.25200000","longitude":"9.18149000","wikiDataId":"Q3882791"},{"id":140950,"Name":"Orgosolo","state_id":1715,"state_code":"88","state_name":"Sardinia","country_id":107,"country_code":"IT","country_name":"Italy","latitude":"40.20530000","longitude":"9.35445000","wikiDataId":"Q3885522"},{"id":140960,"Name":"Oristano","state_id":1715,"state_code":"88","state_name":"Sardinia","country_id":107,"country_code":"IT","country_name":"Italy","latitude":"39.90360000","longitude":"8.59257000","wikiDataId":"Q3885522"},{"id":140966,"Name":"Orosei","state_id":1715,"state_code":"88","state_name":"Sardinia","country_id":107,"country_code":"IT","country_name":"Italy","latitude":"40.37826000","longitude":"9.69248000","wikiDataId":"Q3885522"},{"id":140967,"Name":"Orotelli","state_id":1715,"state_code":"88","state_name":"Sardinia","country_id":107,"country_code":"IT","country_name":"Italy","latitude":"40.30663000","longitude":"9.12150000","wikiDataId":"Q3885522"},{"id":140969,"Name":"Orroli","state_id":1715,"state_code":"88","state_name":"Sardinia","country_id":107,"country_code":"IT","country_name":"Italy","latitude":"39.69237000","longitude":"9.24995000","wikiDataId":"Q3885522"},{"id":140980,"Name":"Ortacesus","state_id":1715,"state_code":"88","state_name":"Sardinia","country_id":107,"country_code":"IT","country_name":"Italy","latitude":"39.53904000","longitude":"9.08695000","wikiDataId":"Q18452368"},{"id":140991,"Name":"Ortueri","state_id":1715,"state_code":"88","state_name":"Sardinia","country_id":107,"country_code":"IT","country_name":"Italy","latitude":"40.03545000","longitude":"8.98591000","wikiDataId":"Q3886214"},{"id":140992,"Name":"Orune","state_id":1715,"state_code":"88","state_name":"Sardinia","country_id":107,"country_code":"IT","country_name":"Italy","latitude":"40.40786000","longitude":"9.36963000","wikiDataId":"Q3886214"},{"id":141002,"Name":"Oschiri","state_id":1715,"state_code":"88","state_name":"Sardinia","country_id":107,"country_code":"IT","country_name":"Italy","latitude":"40.71977000","longitude":"9.10102000","wikiDataId":"Q18493268"},{"id":141003,"Name":"Osidda","state_id":1715,"state_code":"88","state_name":"Sardinia","country_id":107,"country_code":"IT","country_name":"Italy","latitude":"40.52368000","longitude":"9.22053000","wikiDataId":"Q18493268"},{"id":141006,"Name":"Osilo","state_id":1715,"state_code":"88","state_name":"Sardinia","country_id":107,"country_code":"IT","country_name":"Italy","latitude":"40.74349000","longitude":"8.67113000","wikiDataId":"Q18487730"},{"id":141008,"Name":"Osini","state_id":1715,"state_code":"88","state_name":"Sardinia","country_id":107,"country_code":"IT","country_name":"Italy","latitude":"39.82257000","longitude":"9.49640000","wikiDataId":"Q18487730"},{"id":141026,"Name":"Ossi","state_id":1715,"state_code":"88","state_name":"Sardinia","country_id":107,"country_code":"IT","country_name":"Italy","latitude":"40.67483000","longitude":"8.59254000","wikiDataId":"Q1811799"},{"id":141047,"Name":"Ottana","state_id":1715,"state_code":"88","state_name":"Sardinia","country_id":107,"country_code":"IT","country_name":"Italy","latitude":"40.23402000","longitude":"9.04459000","wikiDataId":"Q18493275"},{"id":141049,"Name":"Ottava","state_id":1715,"state_code":"88","state_name":"Sardinia","country_id":107,"country_code":"IT","country_name":"Italy","latitude":"40.78525000","longitude":"8.47543000","wikiDataId":"Q3887155"},{"id":141059,"Name":"Ovodda","state_id":1715,"state_code":"88","state_name":"Sardinia","country_id":107,"country_code":"IT","country_name":"Italy","latitude":"40.09525000","longitude":"9.16103000","wikiDataId":"Q3887155"},{"id":141062,"Name":"Ozieri","state_id":1715,"state_code":"88","state_name":"Sardinia","country_id":107,"country_code":"IT","country_name":"Italy","latitude":"40.58630000","longitude":"9.00340000","wikiDataId":"Q3887155"},{"id":141067,"Name":"Pabillonis","state_id":1715,"state_code":"88","state_name":"Sardinia","country_id":107,"country_code":"IT","country_name":"Italy","latitude":"39.59228000","longitude":"8.72143000","wikiDataId":"Q18442909"},{"id":141086,"Name":"Padria","state_id":1715,"state_code":"88","state_name":"Sardinia","country_id":107,"country_code":"IT","country_name":"Italy","latitude":"40.39635000","longitude":"8.62992000","wikiDataId":"Q16585747"},{"id":141087,"Name":"Padru","state_id":1715,"state_code":"88","state_name":"Sardinia","country_id":107,"country_code":"IT","country_name":"Italy","latitude":"40.76619000","longitude":"9.52100000","wikiDataId":"Q16585747"},{"id":58225,"Name":"Palau","state_id":1715,"state_code":"88","state_name":"Sardinia","country_id":107,"country_code":"IT","country_name":"Italy","latitude":"41.17936000","longitude":"9.38190000","wikiDataId":"Q18437567"},{"id":58257,"Name":"Palmas Arborea","state_id":1715,"state_code":"88","state_name":"Sardinia","country_id":107,"country_code":"IT","country_name":"Italy","latitude":"39.87670000","longitude":"8.64391000","wikiDataId":"Q18489720"},{"id":58349,"Name":"Pattada","state_id":1715,"state_code":"88","state_name":"Sardinia","country_id":107,"country_code":"IT","country_name":"Italy","latitude":"40.58067000","longitude":"9.11129000","wikiDataId":"Q18489737"},{"id":58352,"Name":"Pau","state_id":1715,"state_code":"88","state_name":"Sardinia","country_id":107,"country_code":"IT","country_name":"Italy","latitude":"39.79167000","longitude":"8.80222000","wikiDataId":"Q18489737"},{"id":58354,"Name":"Pauli Arbarei","state_id":1715,"state_code":"88","state_name":"Sardinia","country_id":107,"country_code":"IT","country_name":"Italy","latitude":"39.66183000","longitude":"8.92212000","wikiDataId":"Q18489737"},{"id":58355,"Name":"Paulilatino","state_id":1715,"state_code":"88","state_name":"Sardinia","country_id":107,"country_code":"IT","country_name":"Italy","latitude":"40.08470000","longitude":"8.76449000","wikiDataId":"Q18489737"},{"id":58416,"Name":"Perdasdefogu","state_id":1715,"state_code":"88","state_name":"Sardinia","country_id":107,"country_code":"IT","country_name":"Italy","latitude":"39.67959000","longitude":"9.44082000","wikiDataId":"Q18452390"},{"id":58417,"Name":"Perdaxius","state_id":1715,"state_code":"88","state_name":"Sardinia","country_id":107,"country_code":"IT","country_name":"Italy","latitude":"39.16028000","longitude":"8.61083000","wikiDataId":"Q18452390"},{"id":58421,"Name":"Perfugas","state_id":1715,"state_code":"88","state_name":"Sardinia","country_id":107,"country_code":"IT","country_name":"Italy","latitude":"40.83231000","longitude":"8.88354000","wikiDataId":"Q42801"},{"id":58669,"Name":"Pimentel","state_id":1715,"state_code":"88","state_name":"Sardinia","country_id":107,"country_code":"IT","country_name":"Italy","latitude":"39.48718000","longitude":"9.06516000","wikiDataId":"Q18442975"},{"id":58705,"Name":"Piscinas","state_id":1715,"state_code":"88","state_name":"Sardinia","country_id":107,"country_code":"IT","country_name":"Italy","latitude":"39.07435000","longitude":"8.66634000","wikiDataId":"Q18468538"},{"id":58739,"Name":"Ploaghe","state_id":1715,"state_code":"88","state_name":"Sardinia","country_id":107,"country_code":"IT","country_name":"Italy","latitude":"40.67068000","longitude":"8.74962000","wikiDataId":"Q18440181"},{"id":58766,"Name":"Poggio dei Pini","state_id":1715,"state_code":"88","state_name":"Sardinia","country_id":107,"country_code":"IT","country_name":"Italy","latitude":"39.14717000","longitude":"8.97139000","wikiDataId":"Q2604595"},{"id":58821,"Name":"Pompu","state_id":1715,"state_code":"88","state_name":"Sardinia","country_id":107,"country_code":"IT","country_name":"Italy","latitude":"39.72518000","longitude":"8.79640000","wikiDataId":"Q3907798"},{"id":58925,"Name":"Porto Cervo","state_id":1715,"state_code":"88","state_name":"Sardinia","country_id":107,"country_code":"IT","country_name":"Italy","latitude":"41.14063000","longitude":"9.53267000","wikiDataId":"Q919630"},{"id":58938,"Name":"Porto Torres","state_id":1715,"state_code":"88","state_name":"Sardinia","country_id":107,"country_code":"IT","country_name":"Italy","latitude":"40.83375000","longitude":"8.40531000","wikiDataId":"Q1431610"},{"id":58949,"Name":"Portoscuso","state_id":1715,"state_code":"88","state_name":"Sardinia","country_id":107,"country_code":"IT","country_name":"Italy","latitude":"39.20739000","longitude":"8.38086000","wikiDataId":"Q3909190"},{"id":58952,"Name":"Posada","state_id":1715,"state_code":"88","state_name":"Sardinia","country_id":107,"country_code":"IT","country_name":"Italy","latitude":"40.63203000","longitude":"9.71904000","wikiDataId":"Q3909190"},{"id":58987,"Name":"Pozzomaggiore","state_id":1715,"state_code":"88","state_name":"Sardinia","country_id":107,"country_code":"IT","country_name":"Italy","latitude":"40.39767000","longitude":"8.65931000","wikiDataId":"Q18436703"},{"id":59119,"Name":"Provincia di Cagliari","state_id":1715,"state_code":"88","state_name":"Sardinia","country_id":107,"country_code":"IT","country_name":"Italy","latitude":"39.24502000","longitude":"9.09119000","wikiDataId":"Q16149"},{"id":59153,"Name":"Provincia di Nuoro","state_id":1715,"state_code":"88","state_name":"Sardinia","country_id":107,"country_code":"IT","country_name":"Italy","latitude":"40.21397000","longitude":"9.37095000","wikiDataId":"Q16220"},{"id":59154,"Name":"Provincia di Oristano","state_id":1715,"state_code":"88","state_name":"Sardinia","country_id":107,"country_code":"IT","country_name":"Italy","latitude":"40.01682000","longitude":"8.73131000","wikiDataId":"Q16225"},{"id":59173,"Name":"Provincia di Sassari","state_id":1715,"state_code":"88","state_name":"Sardinia","country_id":107,"country_code":"IT","country_name":"Italy","latitude":"40.77014000","longitude":"8.75885000","wikiDataId":"Q16272"},{"id":59200,"Name":"Pula","state_id":1715,"state_code":"88","state_name":"Sardinia","country_id":107,"country_code":"IT","country_name":"Italy","latitude":"39.00727000","longitude":"9.00223000","wikiDataId":"Q18447264"},{"id":59208,"Name":"Putifigari","state_id":1715,"state_code":"88","state_name":"Sardinia","country_id":107,"country_code":"IT","country_name":"Italy","latitude":"40.56145000","longitude":"8.46063000","wikiDataId":"Q3925694"},{"id":59231,"Name":"Quartu Sant'Elena","state_id":1715,"state_code":"88","state_name":"Sardinia","country_id":107,"country_code":"IT","country_name":"Italy","latitude":"39.22935000","longitude":"9.25004000","wikiDataId":"Q3927284"},{"id":59232,"Name":"Quartucciu","state_id":1715,"state_code":"88","state_name":"Sardinia","country_id":107,"country_code":"IT","country_name":"Italy","latitude":"39.25262000","longitude":"9.17764000","wikiDataId":"Q3927284"},{"id":59392,"Name":"Riola Sardo","state_id":1715,"state_code":"88","state_name":"Sardinia","country_id":107,"country_code":"IT","country_name":"Italy","latitude":"39.99361000","longitude":"8.54127000","wikiDataId":"Q157864"},{"id":59574,"Name":"Romana","state_id":1715,"state_code":"88","state_name":"Sardinia","country_id":107,"country_code":"IT","country_name":"Italy","latitude":"40.48439000","longitude":"8.58571000","wikiDataId":"Q18482419"},{"id":59700,"Name":"Ruinas","state_id":1715,"state_code":"88","state_name":"Sardinia","country_id":107,"country_code":"IT","country_name":"Italy","latitude":"39.90631000","longitude":"8.89705000","wikiDataId":"Q18482526"},{"id":59722,"Name":"Sadali","state_id":1715,"state_code":"88","state_name":"Sardinia","country_id":107,"country_code":"IT","country_name":"Italy","latitude":"39.81456000","longitude":"9.27246000","wikiDataId":"Q18496925"},{"id":59723,"Name":"Sagama","state_id":1715,"state_code":"88","state_name":"Sardinia","country_id":107,"country_code":"IT","country_name":"Italy","latitude":"40.26155000","longitude":"8.57752000","wikiDataId":"Q18496925"},{"id":59799,"Name":"Samassi","state_id":1715,"state_code":"88","state_name":"Sardinia","country_id":107,"country_code":"IT","country_name":"Italy","latitude":"39.48208000","longitude":"8.90538000","wikiDataId":"Q18441622"},{"id":59800,"Name":"Samatzai","state_id":1715,"state_code":"88","state_name":"Sardinia","country_id":107,"country_code":"IT","country_name":"Italy","latitude":"39.48297000","longitude":"9.03466000","wikiDataId":"Q18441622"},{"id":59816,"Name":"Samugheo","state_id":1715,"state_code":"88","state_name":"Sardinia","country_id":107,"country_code":"IT","country_name":"Italy","latitude":"39.94854000","longitude":"8.94152000","wikiDataId":"Q2858881"},{"id":59824,"Name":"San Basilio","state_id":1715,"state_code":"88","state_name":"Sardinia","country_id":107,"country_code":"IT","country_name":"Italy","latitude":"39.53785000","longitude":"9.19753000","wikiDataId":"Q18439681"},{"id":59930,"Name":"San Gavino Monreale","state_id":1715,"state_code":"88","state_name":"Sardinia","country_id":107,"country_code":"IT","country_name":"Italy","latitude":"39.55008000","longitude":"8.79065000","wikiDataId":"Q18438659"},{"id":59989,"Name":"San Giovanni Suergiu","state_id":1715,"state_code":"88","state_name":"Sardinia","country_id":107,"country_code":"IT","country_name":"Italy","latitude":"39.10955000","longitude":"8.52039000","wikiDataId":"Q18462847"},{"id":60135,"Name":"San Nicola","state_id":1715,"state_code":"88","state_name":"Sardinia","country_id":107,"country_code":"IT","country_name":"Italy","latitude":"40.61055000","longitude":"8.98841000","wikiDataId":"Q18451143"},{"id":60149,"Name":"San Nicolò d'Arcidano","state_id":1715,"state_code":"88","state_name":"Sardinia","country_id":107,"country_code":"IT","country_name":"Italy","latitude":"39.68417000","longitude":"8.64361000","wikiDataId":"Q2905711"},{"id":60143,"Name":"San Nicolo'Gerrei","state_id":1715,"state_code":"88","state_name":"Sardinia","country_id":107,"country_code":"IT","country_name":"Italy","latitude":"39.49833000","longitude":"9.30611000","wikiDataId":"Q18448561"},{"id":60249,"Name":"San Sperate","state_id":1715,"state_code":"88","state_name":"Sardinia","country_id":107,"country_code":"IT","country_name":"Italy","latitude":"39.35758000","longitude":"9.00814000","wikiDataId":"Q7415310"},{"id":60253,"Name":"San Teodoro","state_id":1715,"state_code":"88","state_name":"Sardinia","country_id":107,"country_code":"IT","country_name":"Italy","latitude":"40.77354000","longitude":"9.66929000","wikiDataId":"Q7415310"},{"id":60264,"Name":"San Vero Milis","state_id":1715,"state_code":"88","state_name":"Sardinia","country_id":107,"country_code":"IT","country_name":"Italy","latitude":"40.01377000","longitude":"8.59833000","wikiDataId":"Q18502438"},{"id":60272,"Name":"San Vito","state_id":1715,"state_code":"88","state_name":"Sardinia","country_id":107,"country_code":"IT","country_name":"Italy","latitude":"39.44142000","longitude":"9.54065000","wikiDataId":"Q18438682"},{"id":60308,"Name":"Sanluri","state_id":1715,"state_code":"88","state_name":"Sardinia","country_id":107,"country_code":"IT","country_name":"Italy","latitude":"39.56176000","longitude":"8.89969000","wikiDataId":"Q18505539"},{"id":60345,"Name":"Sant'Andrea Frius","state_id":1715,"state_code":"88","state_name":"Sardinia","country_id":107,"country_code":"IT","country_name":"Italy","latitude":"39.47917000","longitude":"9.17000000","wikiDataId":"Q18502481"},{"id":60374,"Name":"Sant'Anna Arresi","state_id":1715,"state_code":"88","state_name":"Sardinia","country_id":107,"country_code":"IT","country_name":"Italy","latitude":"39.00618000","longitude":"8.64236000","wikiDataId":"Q18503622"},{"id":60377,"Name":"Sant'Antioco","state_id":1715,"state_code":"88","state_name":"Sardinia","country_id":107,"country_code":"IT","country_name":"Italy","latitude":"39.07017000","longitude":"8.45243000","wikiDataId":"Q18503622"},{"id":60384,"Name":"Sant'Antonio di Gallura","state_id":1715,"state_code":"88","state_name":"Sardinia","country_id":107,"country_code":"IT","country_name":"Italy","latitude":"40.99146000","longitude":"9.30153000","wikiDataId":"Q18441677"},{"id":60439,"Name":"Santa Giusta","state_id":1715,"state_code":"88","state_name":"Sardinia","country_id":107,"country_code":"IT","country_name":"Italy","latitude":"39.88070000","longitude":"8.60916000","wikiDataId":"Q18429452"},{"id":60461,"Name":"Santa Maria Coghinas","state_id":1715,"state_code":"88","state_name":"Sardinia","country_id":107,"country_code":"IT","country_name":"Italy","latitude":"40.90423000","longitude":"8.86383000","wikiDataId":"Q2368450"},{"id":60467,"Name":"Santa Maria Navarrese","state_id":1715,"state_code":"88","state_name":"Sardinia","country_id":107,"country_code":"IT","country_name":"Italy","latitude":"39.99029000","longitude":"9.68398000","wikiDataId":"Q1650999"},{"id":60495,"Name":"Santa Teresa Gallura","state_id":1715,"state_code":"88","state_name":"Sardinia","country_id":107,"country_code":"IT","country_name":"Italy","latitude":"41.23859000","longitude":"9.18873000","wikiDataId":"Q18427524"},{"id":60501,"Name":"Santadi","state_id":1715,"state_code":"88","state_name":"Sardinia","country_id":107,"country_code":"IT","country_name":"Italy","latitude":"39.09356000","longitude":"8.71259000","wikiDataId":"Q18447405"},{"id":60531,"Name":"Santu Lussurgiu","state_id":1715,"state_code":"88","state_name":"Sardinia","country_id":107,"country_code":"IT","country_name":"Italy","latitude":"40.14110000","longitude":"8.65539000","wikiDataId":"Q18446287"},{"id":60543,"Name":"Sardara","state_id":1715,"state_code":"88","state_name":"Sardinia","country_id":107,"country_code":"IT","country_name":"Italy","latitude":"39.61465000","longitude":"8.82088000","wikiDataId":"Q18466198"},{"id":60557,"Name":"Sarroch","state_id":1715,"state_code":"88","state_name":"Sardinia","country_id":107,"country_code":"IT","country_name":"Italy","latitude":"39.06577000","longitude":"9.00937000","wikiDataId":"Q18498862"},{"id":60562,"Name":"Sarule","state_id":1715,"state_code":"88","state_name":"Sardinia","country_id":107,"country_code":"IT","country_name":"Italy","latitude":"40.22796000","longitude":"9.16644000","wikiDataId":"Q18430445"},{"id":60568,"Name":"Sassari","state_id":1715,"state_code":"88","state_name":"Sardinia","country_id":107,"country_code":"IT","country_name":"Italy","latitude":"40.72586000","longitude":"8.55552000","wikiDataId":"Q18455889"},{"id":60624,"Name":"Scano di Montiferro","state_id":1715,"state_code":"88","state_name":"Sardinia","country_id":107,"country_code":"IT","country_name":"Italy","latitude":"40.21525000","longitude":"8.58692000","wikiDataId":"Q18469932"},{"id":60682,"Name":"Sedilo","state_id":1715,"state_code":"88","state_name":"Sardinia","country_id":107,"country_code":"IT","country_name":"Italy","latitude":"40.17292000","longitude":"8.91993000","wikiDataId":"Q1633376"},{"id":60683,"Name":"Sedini","state_id":1715,"state_code":"88","state_name":"Sardinia","country_id":107,"country_code":"IT","country_name":"Italy","latitude":"40.85277000","longitude":"8.81670000","wikiDataId":"Q1633376"},{"id":60687,"Name":"Segariu","state_id":1715,"state_code":"88","state_name":"Sardinia","country_id":107,"country_code":"IT","country_name":"Italy","latitude":"39.56403000","longitude":"8.98163000","wikiDataId":"Q1633376"},{"id":60693,"Name":"Selargius","state_id":1715,"state_code":"88","state_name":"Sardinia","country_id":107,"country_code":"IT","country_name":"Italy","latitude":"39.25779000","longitude":"9.16323000","wikiDataId":"Q1633376"},{"id":60697,"Name":"Selegas","state_id":1715,"state_code":"88","state_name":"Sardinia","country_id":107,"country_code":"IT","country_name":"Italy","latitude":"39.56780000","longitude":"9.10348000","wikiDataId":"Q18494013"},{"id":60713,"Name":"Semestene","state_id":1715,"state_code":"88","state_name":"Sardinia","country_id":107,"country_code":"IT","country_name":"Italy","latitude":"40.39846000","longitude":"8.72542000","wikiDataId":"Q18490549"},{"id":60721,"Name":"Seneghe","state_id":1715,"state_code":"88","state_name":"Sardinia","country_id":107,"country_code":"IT","country_name":"Italy","latitude":"40.08128000","longitude":"8.61353000","wikiDataId":"Q18477381"},{"id":60725,"Name":"Senis","state_id":1715,"state_code":"88","state_name":"Sardinia","country_id":107,"country_code":"IT","country_name":"Italy","latitude":"39.82318000","longitude":"8.93916000","wikiDataId":"Q18477381"},{"id":60729,"Name":"Sennariolo","state_id":1715,"state_code":"88","state_name":"Sardinia","country_id":107,"country_code":"IT","country_name":"Italy","latitude":"40.21235000","longitude":"8.55572000","wikiDataId":"Q18477381"},{"id":60730,"Name":"Sennori","state_id":1715,"state_code":"88","state_name":"Sardinia","country_id":107,"country_code":"IT","country_name":"Italy","latitude":"40.78780000","longitude":"8.59285000","wikiDataId":"Q18477381"},{"id":60731,"Name":"Senorbì","state_id":1715,"state_code":"88","state_name":"Sardinia","country_id":107,"country_code":"IT","country_name":"Italy","latitude":"39.53341000","longitude":"9.13168000","wikiDataId":"Q18477381"},{"id":60736,"Name":"Serdiana","state_id":1715,"state_code":"88","state_name":"Sardinia","country_id":107,"country_code":"IT","country_name":"Italy","latitude":"39.37457000","longitude":"9.15851000","wikiDataId":"Q18477381"},{"id":60762,"Name":"Serramanna","state_id":1715,"state_code":"88","state_name":"Sardinia","country_id":107,"country_code":"IT","country_name":"Italy","latitude":"39.42335000","longitude":"8.92243000","wikiDataId":"Q18448031"},{"id":60781,"Name":"Serrenti","state_id":1715,"state_code":"88","state_name":"Sardinia","country_id":107,"country_code":"IT","country_name":"Italy","latitude":"39.49277000","longitude":"8.97659000","wikiDataId":"Q2273991"},{"id":60782,"Name":"Serri","state_id":1715,"state_code":"88","state_name":"Sardinia","country_id":107,"country_code":"IT","country_name":"Italy","latitude":"39.70150000","longitude":"9.14490000","wikiDataId":"Q2273991"},{"id":60805,"Name":"Sestu","state_id":1715,"state_code":"88","state_name":"Sardinia","country_id":107,"country_code":"IT","country_name":"Italy","latitude":"39.29846000","longitude":"9.09248000","wikiDataId":"Q18488731"},{"id":60814,"Name":"Settimo San Pietro","state_id":1715,"state_code":"88","state_name":"Sardinia","country_id":107,"country_code":"IT","country_name":"Italy","latitude":"39.29110000","longitude":"9.18570000","wikiDataId":"Q18430581"},{"id":60818,"Name":"Setzu","state_id":1715,"state_code":"88","state_name":"Sardinia","country_id":107,"country_code":"IT","country_name":"Italy","latitude":"39.72306000","longitude":"8.93972000","wikiDataId":"Q18430581"},{"id":60819,"Name":"Seui","state_id":1715,"state_code":"88","state_name":"Sardinia","country_id":107,"country_code":"IT","country_name":"Italy","latitude":"39.83908000","longitude":"9.32347000","wikiDataId":"Q18430581"},{"id":60820,"Name":"Seulo","state_id":1715,"state_code":"88","state_name":"Sardinia","country_id":107,"country_code":"IT","country_name":"Italy","latitude":"39.86955000","longitude":"9.23606000","wikiDataId":"Q18430581"},{"id":60833,"Name":"Siamaggiore","state_id":1715,"state_code":"88","state_name":"Sardinia","country_id":107,"country_code":"IT","country_name":"Italy","latitude":"39.94966000","longitude":"8.63461000","wikiDataId":"Q18497882"},{"id":60834,"Name":"Siamanna","state_id":1715,"state_code":"88","state_name":"Sardinia","country_id":107,"country_code":"IT","country_name":"Italy","latitude":"39.91936000","longitude":"8.76185000","wikiDataId":"Q18497882"},{"id":60837,"Name":"Siapiccia","state_id":1715,"state_code":"88","state_name":"Sardinia","country_id":107,"country_code":"IT","country_name":"Italy","latitude":"39.92765000","longitude":"8.76270000","wikiDataId":"Q18429480"},{"id":60841,"Name":"Siddi","state_id":1715,"state_code":"88","state_name":"Sardinia","country_id":107,"country_code":"IT","country_name":"Italy","latitude":"39.67255000","longitude":"8.88815000","wikiDataId":"Q7506929"},{"id":60848,"Name":"Silanus","state_id":1715,"state_code":"88","state_name":"Sardinia","country_id":107,"country_code":"IT","country_name":"Italy","latitude":"40.28709000","longitude":"8.89199000","wikiDataId":"Q3828428"},{"id":60858,"Name":"Silì","state_id":1715,"state_code":"88","state_name":"Sardinia","country_id":107,"country_code":"IT","country_name":"Italy","latitude":"39.91789000","longitude":"8.62194000","wikiDataId":"Q18450107"},{"id":60850,"Name":"Siligo","state_id":1715,"state_code":"88","state_name":"Sardinia","country_id":107,"country_code":"IT","country_name":"Italy","latitude":"40.57483000","longitude":"8.72835000","wikiDataId":"Q3828428"},{"id":60851,"Name":"Siliqua","state_id":1715,"state_code":"88","state_name":"Sardinia","country_id":107,"country_code":"IT","country_name":"Italy","latitude":"39.30100000","longitude":"8.80584000","wikiDataId":"Q3828428"},{"id":60852,"Name":"Silius","state_id":1715,"state_code":"88","state_name":"Sardinia","country_id":107,"country_code":"IT","country_name":"Italy","latitude":"39.51695000","longitude":"9.29360000","wikiDataId":"Q3828428"},{"id":60859,"Name":"Simala","state_id":1715,"state_code":"88","state_name":"Sardinia","country_id":107,"country_code":"IT","country_name":"Italy","latitude":"39.72099000","longitude":"8.82802000","wikiDataId":"Q18450107"},{"id":60860,"Name":"Simaxis","state_id":1715,"state_code":"88","state_name":"Sardinia","country_id":107,"country_code":"IT","country_name":"Italy","latitude":"39.92995000","longitude":"8.68979000","wikiDataId":"Q18450107"},{"id":60864,"Name":"Sindia","state_id":1715,"state_code":"88","state_name":"Sardinia","country_id":107,"country_code":"IT","country_name":"Italy","latitude":"40.29518000","longitude":"8.65707000","wikiDataId":"Q18450107"},{"id":60865,"Name":"Sini","state_id":1715,"state_code":"88","state_name":"Sardinia","country_id":107,"country_code":"IT","country_name":"Italy","latitude":"39.75353000","longitude":"8.90486000","wikiDataId":"Q18450107"},{"id":60868,"Name":"Siniscola","state_id":1715,"state_code":"88","state_name":"Sardinia","country_id":107,"country_code":"IT","country_name":"Italy","latitude":"40.57344000","longitude":"9.69695000","wikiDataId":"Q17652434"},{"id":60869,"Name":"Sinnai","state_id":1715,"state_code":"88","state_name":"Sardinia","country_id":107,"country_code":"IT","country_name":"Italy","latitude":"39.30286000","longitude":"9.20283000","wikiDataId":"Q17652434"},{"id":60873,"Name":"Siris","state_id":1715,"state_code":"88","state_name":"Sardinia","country_id":107,"country_code":"IT","country_name":"Italy","latitude":"39.71228000","longitude":"8.77507000","wikiDataId":"Q17652434"},{"id":60882,"Name":"Siurgus Donigala","state_id":1715,"state_code":"88","state_name":"Sardinia","country_id":107,"country_code":"IT","country_name":"Italy","latitude":"39.59961000","longitude":"9.18746000","wikiDataId":"Q1699950"},{"id":60895,"Name":"Soddì","state_id":1715,"state_code":"88","state_name":"Sardinia","country_id":107,"country_code":"IT","country_name":"Italy","latitude":"40.12991000","longitude":"8.87798000","wikiDataId":"Q18486112"},{"id":60901,"Name":"Solanas","state_id":1715,"state_code":"88","state_name":"Sardinia","country_id":107,"country_code":"IT","country_name":"Italy","latitude":"39.93031000","longitude":"8.55340000","wikiDataId":"Q2124831"},{"id":60908,"Name":"Solarussa","state_id":1715,"state_code":"88","state_name":"Sardinia","country_id":107,"country_code":"IT","country_name":"Italy","latitude":"39.95499000","longitude":"8.67393000","wikiDataId":"Q18477441"},{"id":60913,"Name":"Soleminis","state_id":1715,"state_code":"88","state_name":"Sardinia","country_id":107,"country_code":"IT","country_name":"Italy","latitude":"39.34760000","longitude":"9.18127000","wikiDataId":"Q18477441"},{"id":60955,"Name":"Sorgono","state_id":1715,"state_code":"88","state_name":"Sardinia","country_id":107,"country_code":"IT","country_name":"Italy","latitude":"40.02595000","longitude":"9.10203000","wikiDataId":"Q1710080"},{"id":60965,"Name":"Sorradile","state_id":1715,"state_code":"88","state_name":"Sardinia","country_id":107,"country_code":"IT","country_name":"Italy","latitude":"40.10634000","longitude":"8.93236000","wikiDataId":"Q1710080"},{"id":60967,"Name":"Sorso","state_id":1715,"state_code":"88","state_name":"Sardinia","country_id":107,"country_code":"IT","country_name":"Italy","latitude":"40.79949000","longitude":"8.57570000","wikiDataId":"Q1710080"},{"id":61077,"Name":"Stintino","state_id":1715,"state_code":"88","state_name":"Sardinia","country_id":107,"country_code":"IT","country_name":"Italy","latitude":"40.95201000","longitude":"8.21978000","wikiDataId":"Q18503692"},{"id":61106,"Name":"Su Planu","state_id":1715,"state_code":"88","state_name":"Sardinia","country_id":107,"country_code":"IT","country_name":"Italy","latitude":"39.25487000","longitude":"9.10660000","wikiDataId":"Q18448801"},{"id":61112,"Name":"Suelli","state_id":1715,"state_code":"88","state_name":"Sardinia","country_id":107,"country_code":"IT","country_name":"Italy","latitude":"39.56257000","longitude":"9.13245000","wikiDataId":"Q18448801"},{"id":61121,"Name":"Suni","state_id":1715,"state_code":"88","state_name":"Sardinia","country_id":107,"country_code":"IT","country_name":"Italy","latitude":"40.28085000","longitude":"8.54942000","wikiDataId":"Q14544570"},{"id":61139,"Name":"Tadasuni","state_id":1715,"state_code":"88","state_name":"Sardinia","country_id":107,"country_code":"IT","country_name":"Italy","latitude":"40.10995000","longitude":"8.88353000","wikiDataId":"Q18489295"},{"id":61153,"Name":"Talana","state_id":1715,"state_code":"88","state_name":"Sardinia","country_id":107,"country_code":"IT","country_name":"Italy","latitude":"40.04157000","longitude":"9.49554000","wikiDataId":"Q18500406"},{"id":61207,"Name":"Telti","state_id":1715,"state_code":"88","state_name":"Sardinia","country_id":107,"country_code":"IT","country_name":"Italy","latitude":"40.87575000","longitude":"9.35328000","wikiDataId":"Q18436369"},{"id":61210,"Name":"Tempio Pausania","state_id":1715,"state_code":"88","state_name":"Sardinia","country_id":107,"country_code":"IT","country_name":"Italy","latitude":"40.90068000","longitude":"9.10456000","wikiDataId":"Q18436369"},{"id":61222,"Name":"Tergu","state_id":1715,"state_code":"88","state_name":"Sardinia","country_id":107,"country_code":"IT","country_name":"Italy","latitude":"40.86652000","longitude":"8.71467000","wikiDataId":"Q53379"},{"id":61238,"Name":"Terralba","state_id":1715,"state_code":"88","state_name":"Sardinia","country_id":107,"country_code":"IT","country_name":"Italy","latitude":"39.72056000","longitude":"8.63504000","wikiDataId":"Q18498968"},{"id":61254,"Name":"Tertenia","state_id":1715,"state_code":"88","state_name":"Sardinia","country_id":107,"country_code":"IT","country_name":"Italy","latitude":"39.69518000","longitude":"9.57878000","wikiDataId":"Q18505625"},{"id":61265,"Name":"Teti","state_id":1715,"state_code":"88","state_name":"Sardinia","country_id":107,"country_code":"IT","country_name":"Italy","latitude":"40.09737000","longitude":"9.11923000","wikiDataId":"Q18503713"},{"id":61268,"Name":"Teulada","state_id":1715,"state_code":"88","state_name":"Sardinia","country_id":107,"country_code":"IT","country_name":"Italy","latitude":"38.96658000","longitude":"8.77149000","wikiDataId":"Q18441166"},{"id":61272,"Name":"Thiesi","state_id":1715,"state_code":"88","state_name":"Sardinia","country_id":107,"country_code":"IT","country_name":"Italy","latitude":"40.52398000","longitude":"8.72001000","wikiDataId":"Q18441166"},{"id":61273,"Name":"Tiana","state_id":1715,"state_code":"88","state_name":"Sardinia","country_id":107,"country_code":"IT","country_name":"Italy","latitude":"40.06746000","longitude":"9.14817000","wikiDataId":"Q18441166"},{"id":61279,"Name":"Tinnura","state_id":1715,"state_code":"88","state_name":"Sardinia","country_id":107,"country_code":"IT","country_name":"Italy","latitude":"40.26916000","longitude":"8.54815000","wikiDataId":"Q18441166"},{"id":61286,"Name":"Tissi","state_id":1715,"state_code":"88","state_name":"Sardinia","country_id":107,"country_code":"IT","country_name":"Italy","latitude":"40.67832000","longitude":"8.56127000","wikiDataId":"Q18441166"},{"id":61307,"Name":"Tonara","state_id":1715,"state_code":"88","state_name":"Sardinia","country_id":107,"country_code":"IT","country_name":"Italy","latitude":"40.02465000","longitude":"9.17204000","wikiDataId":"Q18503718"},{"id":61340,"Name":"Torpè","state_id":1715,"state_code":"88","state_name":"Sardinia","country_id":107,"country_code":"IT","country_name":"Italy","latitude":"40.62780000","longitude":"9.67916000","wikiDataId":"Q18288162"},{"id":61342,"Name":"Torralba","state_id":1715,"state_code":"88","state_name":"Sardinia","country_id":107,"country_code":"IT","country_name":"Italy","latitude":"40.51296000","longitude":"8.76532000","wikiDataId":"Q18288162"},{"id":61411,"Name":"Tortolì","state_id":1715,"state_code":"88","state_name":"Sardinia","country_id":107,"country_code":"IT","country_name":"Italy","latitude":"39.92626000","longitude":"9.65569000","wikiDataId":"Q18441845"},{"id":61430,"Name":"Tramatza","state_id":1715,"state_code":"88","state_name":"Sardinia","country_id":107,"country_code":"IT","country_name":"Italy","latitude":"40.00292000","longitude":"8.64944000","wikiDataId":"Q18455320"},{"id":61447,"Name":"Tratalias","state_id":1715,"state_code":"88","state_name":"Sardinia","country_id":107,"country_code":"IT","country_name":"Italy","latitude":"39.10347000","longitude":"8.57858000","wikiDataId":"Q18448043"},{"id":61498,"Name":"Tresnuraghes","state_id":1715,"state_code":"88","state_name":"Sardinia","country_id":107,"country_code":"IT","country_name":"Italy","latitude":"40.25235000","longitude":"8.52092000","wikiDataId":"Q18435782"},{"id":61523,"Name":"Triei","state_id":1715,"state_code":"88","state_name":"Sardinia","country_id":107,"country_code":"IT","country_name":"Italy","latitude":"40.03498000","longitude":"9.63995000","wikiDataId":"Q3998444"},{"id":61530,"Name":"Trinità d'Agultu","state_id":1715,"state_code":"88","state_name":"Sardinia","country_id":107,"country_code":"IT","country_name":"Italy","latitude":"40.98589000","longitude":"8.91377000","wikiDataId":"Q17638895"},{"id":61531,"Name":"Trinità d'Agultu e Vignola","state_id":1715,"state_code":"88","state_name":"Sardinia","country_id":107,"country_code":"IT","country_name":"Italy","latitude":"40.98377000","longitude":"8.91562000","wikiDataId":"Q17638895"},{"id":61567,"Name":"Tuili","state_id":1715,"state_code":"88","state_name":"Sardinia","country_id":107,"country_code":"IT","country_name":"Italy","latitude":"39.71477000","longitude":"8.96020000","wikiDataId":"Q222063"},{"id":61568,"Name":"Tula","state_id":1715,"state_code":"88","state_name":"Sardinia","country_id":107,"country_code":"IT","country_name":"Italy","latitude":"40.73246000","longitude":"8.98392000","wikiDataId":"Q222063"},{"id":61576,"Name":"Turri","state_id":1715,"state_code":"88","state_name":"Sardinia","country_id":107,"country_code":"IT","country_name":"Italy","latitude":"39.70476000","longitude":"8.91656000","wikiDataId":"Q222063"},{"id":61596,"Name":"Ulà Tirso","state_id":1715,"state_code":"88","state_name":"Sardinia","country_id":107,"country_code":"IT","country_name":"Italy","latitude":"40.04570000","longitude":"8.90326000","wikiDataId":"Q547157"},{"id":61593,"Name":"Ulassai","state_id":1715,"state_code":"88","state_name":"Sardinia","country_id":107,"country_code":"IT","country_name":"Italy","latitude":"39.81033000","longitude":"9.49962000","wikiDataId":"Q4002732"},{"id":61600,"Name":"Uras","state_id":1715,"state_code":"88","state_name":"Sardinia","country_id":107,"country_code":"IT","country_name":"Italy","latitude":"39.69799000","longitude":"8.70143000","wikiDataId":"Q547157"},{"id":61607,"Name":"Uri","state_id":1715,"state_code":"88","state_name":"Sardinia","country_id":107,"country_code":"IT","country_name":"Italy","latitude":"40.63841000","longitude":"8.48881000","wikiDataId":"Q547157"},{"id":61609,"Name":"Urzulei","state_id":1715,"state_code":"88","state_name":"Sardinia","country_id":107,"country_code":"IT","country_name":"Italy","latitude":"40.09284000","longitude":"9.50800000","wikiDataId":"Q547157"},{"id":61611,"Name":"Usellus","state_id":1715,"state_code":"88","state_name":"Sardinia","country_id":107,"country_code":"IT","country_name":"Italy","latitude":"39.80833000","longitude":"8.85167000","wikiDataId":"Q547157"},{"id":61612,"Name":"Usini","state_id":1715,"state_code":"88","state_name":"Sardinia","country_id":107,"country_code":"IT","country_name":"Italy","latitude":"40.66416000","longitude":"8.53919000","wikiDataId":"Q547157"},{"id":61614,"Name":"Ussana","state_id":1715,"state_code":"88","state_name":"Sardinia","country_id":107,"country_code":"IT","country_name":"Italy","latitude":"39.39374000","longitude":"9.07496000","wikiDataId":"Q18491916"},{"id":61615,"Name":"Ussaramanna","state_id":1715,"state_code":"88","state_name":"Sardinia","country_id":107,"country_code":"IT","country_name":"Italy","latitude":"39.69250000","longitude":"8.90850000","wikiDataId":"Q18491916"},{"id":61616,"Name":"Ussassai","state_id":1715,"state_code":"88","state_name":"Sardinia","country_id":107,"country_code":"IT","country_name":"Italy","latitude":"39.80998000","longitude":"9.39508000","wikiDataId":"Q18491916"},{"id":61620,"Name":"Uta","state_id":1715,"state_code":"88","state_name":"Sardinia","country_id":107,"country_code":"IT","country_name":"Italy","latitude":"39.29186000","longitude":"8.95234000","wikiDataId":"Q18491916"},{"id":61706,"Name":"Valledoria","state_id":1715,"state_code":"88","state_name":"Sardinia","country_id":107,"country_code":"IT","country_name":"Italy","latitude":"40.92867000","longitude":"8.82321000","wikiDataId":"Q18427098"},{"id":61714,"Name":"Vallermosa","state_id":1715,"state_code":"88","state_name":"Sardinia","country_id":107,"country_code":"IT","country_name":"Italy","latitude":"39.36389000","longitude":"8.79556000","wikiDataId":"Q18463323"},{"id":61929,"Name":"Viddalba","state_id":1715,"state_code":"88","state_name":"Sardinia","country_id":107,"country_code":"IT","country_name":"Italy","latitude":"40.91259000","longitude":"8.89009000","wikiDataId":"Q4011328"},{"id":62020,"Name":"Villa San Pietro","state_id":1715,"state_code":"88","state_name":"Sardinia","country_id":107,"country_code":"IT","country_name":"Italy","latitude":"39.03554000","longitude":"8.99695000","wikiDataId":"Q18496832"},{"id":62023,"Name":"Villa Sant'Antonio","state_id":1715,"state_code":"88","state_name":"Sardinia","country_id":107,"country_code":"IT","country_name":"Italy","latitude":"39.85915000","longitude":"8.90153000","wikiDataId":"Q18427125"},{"id":62029,"Name":"Villa Verde","state_id":1715,"state_code":"88","state_name":"Sardinia","country_id":107,"country_code":"IT","country_name":"Italy","latitude":"39.79551000","longitude":"8.82114000","wikiDataId":"Q18427125"},{"id":62050,"Name":"Villacidro","state_id":1715,"state_code":"88","state_name":"Sardinia","country_id":107,"country_code":"IT","country_name":"Italy","latitude":"39.45734000","longitude":"8.74105000","wikiDataId":"Q18497162"},{"id":62072,"Name":"Villagrande Strisaili","state_id":1715,"state_code":"88","state_name":"Sardinia","country_id":107,"country_code":"IT","country_name":"Italy","latitude":"39.95929000","longitude":"9.50943000","wikiDataId":"Q18427129"},{"id":62082,"Name":"Villamar","state_id":1715,"state_code":"88","state_name":"Sardinia","country_id":107,"country_code":"IT","country_name":"Italy","latitude":"39.61884000","longitude":"8.95877000","wikiDataId":"Q18455377"},{"id":62084,"Name":"Villamassargia","state_id":1715,"state_code":"88","state_name":"Sardinia","country_id":107,"country_code":"IT","country_name":"Italy","latitude":"39.27484000","longitude":"8.64110000","wikiDataId":"Q18455377"},{"id":62101,"Name":"Villanova Monteleone","state_id":1715,"state_code":"88","state_name":"Sardinia","country_id":107,"country_code":"IT","country_name":"Italy","latitude":"40.50264000","longitude":"8.47115000","wikiDataId":"Q2526072"},{"id":62103,"Name":"Villanova Truschedu","state_id":1715,"state_code":"88","state_name":"Sardinia","country_id":107,"country_code":"IT","country_name":"Italy","latitude":"39.98842000","longitude":"8.75177000","wikiDataId":"Q2526072"},{"id":62104,"Name":"Villanova Tulo","state_id":1715,"state_code":"88","state_name":"Sardinia","country_id":107,"country_code":"IT","country_name":"Italy","latitude":"39.77995000","longitude":"9.21424000","wikiDataId":"Q2526072"},{"id":62111,"Name":"Villanovaforru","state_id":1715,"state_code":"88","state_name":"Sardinia","country_id":107,"country_code":"IT","country_name":"Italy","latitude":"39.63196000","longitude":"8.86979000","wikiDataId":"Q18500510"},{"id":62112,"Name":"Villanovafranca","state_id":1715,"state_code":"88","state_name":"Sardinia","country_id":107,"country_code":"IT","country_name":"Italy","latitude":"39.64442000","longitude":"9.00244000","wikiDataId":"Q18500510"},{"id":62116,"Name":"Villaperuccio","state_id":1715,"state_code":"88","state_name":"Sardinia","country_id":107,"country_code":"IT","country_name":"Italy","latitude":"39.11183000","longitude":"8.67004000","wikiDataId":"Q18509498"},{"id":62120,"Name":"Villaputzu","state_id":1715,"state_code":"88","state_name":"Sardinia","country_id":107,"country_code":"IT","country_name":"Italy","latitude":"39.44058000","longitude":"9.57564000","wikiDataId":"Q18494851"},{"id":62133,"Name":"Villasalto","state_id":1715,"state_code":"88","state_name":"Sardinia","country_id":107,"country_code":"IT","country_name":"Italy","latitude":"39.49209000","longitude":"9.39023000","wikiDataId":"Q18447569"},{"id":62136,"Name":"Villasimius","state_id":1715,"state_code":"88","state_name":"Sardinia","country_id":107,"country_code":"IT","country_name":"Italy","latitude":"39.14481000","longitude":"9.51823000","wikiDataId":"Q4012906"},{"id":62138,"Name":"Villasor","state_id":1715,"state_code":"88","state_name":"Sardinia","country_id":107,"country_code":"IT","country_name":"Italy","latitude":"39.38130000","longitude":"8.94270000","wikiDataId":"Q18510326"},{"id":62139,"Name":"Villaspeciosa","state_id":1715,"state_code":"88","state_name":"Sardinia","country_id":107,"country_code":"IT","country_name":"Italy","latitude":"39.31142000","longitude":"8.92584000","wikiDataId":"Q18510326"},{"id":62144,"Name":"Villaurbana","state_id":1715,"state_code":"88","state_name":"Sardinia","country_id":107,"country_code":"IT","country_name":"Italy","latitude":"39.88505000","longitude":"8.77831000","wikiDataId":"Q18499108"},{"id":62240,"Name":"Zeddiani","state_id":1715,"state_code":"88","state_name":"Sardinia","country_id":107,"country_code":"IT","country_name":"Italy","latitude":"39.98898000","longitude":"8.59580000","wikiDataId":"Q18433442"},{"id":62252,"Name":"Zerfaliu","state_id":1715,"state_code":"88","state_name":"Sardinia","country_id":107,"country_code":"IT","country_name":"Italy","latitude":"39.96088000","longitude":"8.70971000","wikiDataId":"Q4024209"}]