[{"id":31493,"Name":"Cantón San Fernando","state_id":2923,"state_code":"A","state_name":"Azuay","country_id":64,"country_code":"EC","country_name":"Ecuador","latitude":"-3.13349000","longitude":"-79.26893000","wikiDataId":"Q2449055"},{"id":31501,"Name":"Cuenca","state_id":2923,"state_code":"A","state_name":"Azuay","country_id":64,"country_code":"EC","country_name":"Ecuador","latitude":"-2.90055000","longitude":"-79.00453000","wikiDataId":"Q1014957"},{"id":31507,"Name":"Gualaceo","state_id":2923,"state_code":"A","state_name":"Azuay","country_id":64,"country_code":"EC","country_name":"Ecuador","latitude":"-2.89264000","longitude":"-78.77814000","wikiDataId":"Q1992935"},{"id":31519,"Name":"La Unión","state_id":2923,"state_code":"A","state_name":"Azuay","country_id":64,"country_code":"EC","country_name":"Ecuador","latitude":"-2.85000000","longitude":"-78.78333000","wikiDataId":"Q6465577"},{"id":31521,"Name":"Llacao","state_id":2923,"state_code":"A","state_name":"Azuay","country_id":64,"country_code":"EC","country_name":"Ecuador","latitude":"-2.86667000","longitude":"-78.88333000","wikiDataId":"Q379338"},{"id":31535,"Name":"Nulti","state_id":2923,"state_code":"A","state_name":"Azuay","country_id":64,"country_code":"EC","country_name":"Ecuador","latitude":"-2.91667000","longitude":"-78.85000000","wikiDataId":"Q683938"}]