[{"id":53375,"Name":"Ágios Athanásios","state_id":2120,"state_code":"A2","state_name":"East Attica Regional Unit","country_id":85,"country_code":"GR","country_name":"Greece","latitude":"41.07463000","longitude":"24.24545000","wikiDataId":"Q12180002"},{"id":52440,"Name":"Alexandroupoli","state_id":2120,"state_code":"A2","state_name":"East Attica Regional Unit","country_id":85,"country_code":"GR","country_name":"Greece","latitude":"40.84995000","longitude":"25.87644000","wikiDataId":"Q190847"},{"id":52456,"Name":"Amygdaleónas","state_id":2120,"state_code":"A2","state_name":"East Attica Regional Unit","country_id":85,"country_code":"GR","country_name":"Greece","latitude":"40.96346000","longitude":"24.36007000","wikiDataId":"Q3154319"},{"id":53398,"Name":"Áratos","state_id":2120,"state_code":"A2","state_name":"East Attica Regional Unit","country_id":85,"country_code":"GR","country_name":"Greece","latitude":"41.08139000","longitude":"25.55186000","wikiDataId":"Q4784439"},{"id":52502,"Name":"Arísvi","state_id":2120,"state_code":"A2","state_name":"East Attica Regional Unit","country_id":85,"country_code":"GR","country_name":"Greece","latitude":"41.07000000","longitude":"25.59041000","wikiDataId":"Q624641"},{"id":52497,"Name":"Arrianá","state_id":2120,"state_code":"A2","state_name":"East Attica Regional Unit","country_id":85,"country_code":"GR","country_name":"Greece","latitude":"41.08131000","longitude":"25.69494000","wikiDataId":"Q21779010"},{"id":53408,"Name":"Ávato","state_id":2120,"state_code":"A2","state_name":"East Attica Regional Unit","country_id":85,"country_code":"GR","country_name":"Greece","latitude":"40.96279000","longitude":"24.80441000","wikiDataId":"Q4827843"},{"id":52535,"Name":"Choristí","state_id":2120,"state_code":"A2","state_name":"East Attica Regional Unit","country_id":85,"country_code":"GR","country_name":"Greece","latitude":"41.13056000","longitude":"24.20843000","wikiDataId":"Q1247513"},{"id":52538,"Name":"Chrysochóri","state_id":2120,"state_code":"A2","state_name":"East Attica Regional Unit","country_id":85,"country_code":"GR","country_name":"Greece","latitude":"40.93328000","longitude":"24.71088000","wikiDataId":"Q1076595"},{"id":52539,"Name":"Chrysoúpolis","state_id":2120,"state_code":"A2","state_name":"East Attica Regional Unit","country_id":85,"country_code":"GR","country_name":"Greece","latitude":"40.98556000","longitude":"24.69389000","wikiDataId":"Q2007855"},{"id":52555,"Name":"Didymóteicho","state_id":2120,"state_code":"A2","state_name":"East Attica Regional Unit","country_id":85,"country_code":"GR","country_name":"Greece","latitude":"41.34806000","longitude":"26.49611000","wikiDataId":"Q932648"},{"id":52565,"Name":"Dráma","state_id":2120,"state_code":"A2","state_name":"East Attica Regional Unit","country_id":85,"country_code":"GR","country_name":"Greece","latitude":"41.15283000","longitude":"24.14730000","wikiDataId":"Q212841"},{"id":52571,"Name":"Echínos","state_id":2120,"state_code":"A2","state_name":"East Attica Regional Unit","country_id":85,"country_code":"GR","country_name":"Greece","latitude":"41.27558000","longitude":"24.97237000","wikiDataId":"Q269251"},{"id":52576,"Name":"Elaiochóri","state_id":2120,"state_code":"A2","state_name":"East Attica Regional Unit","country_id":85,"country_code":"GR","country_name":"Greece","latitude":"40.82030000","longitude":"24.24373000","wikiDataId":"Q683126"},{"id":52579,"Name":"Eleftherés","state_id":2120,"state_code":"A2","state_name":"East Attica Regional Unit","country_id":85,"country_code":"GR","country_name":"Greece","latitude":"40.84666000","longitude":"24.25431000","wikiDataId":"Q2464206"},{"id":52578,"Name":"Eleftheroúpolis","state_id":2120,"state_code":"A2","state_name":"East Attica Regional Unit","country_id":85,"country_code":"GR","country_name":"Greece","latitude":"40.91389000","longitude":"24.25139000","wikiDataId":"Q2418571"},{"id":53418,"Name":"Évlalo","state_id":2120,"state_code":"A2","state_name":"East Attica Regional Unit","country_id":85,"country_code":"GR","country_name":"Greece","latitude":"40.98333000","longitude":"24.80000000","wikiDataId":"Q5418527"},{"id":52616,"Name":"Féres","state_id":2120,"state_code":"A2","state_name":"East Attica Regional Unit","country_id":85,"country_code":"GR","country_name":"Greece","latitude":"40.89305000","longitude":"26.17234000","wikiDataId":"Q943354"},{"id":52603,"Name":"Fillýra","state_id":2120,"state_code":"A2","state_name":"East Attica Regional Unit","country_id":85,"country_code":"GR","country_name":"Greece","latitude":"41.11667000","longitude":"25.63333000","wikiDataId":"Q2466188"},{"id":52610,"Name":"Fotolívos","state_id":2120,"state_code":"A2","state_name":"East Attica Regional Unit","country_id":85,"country_code":"GR","country_name":"Greece","latitude":"41.06013000","longitude":"24.04724000","wikiDataId":"Q25081740"},{"id":52612,"Name":"Fteliá","state_id":2120,"state_code":"A2","state_name":"East Attica Regional Unit","country_id":85,"country_code":"GR","country_name":"Greece","latitude":"41.08266000","longitude":"24.18968000","wikiDataId":"Q5506812"},{"id":52632,"Name":"Genisséa","state_id":2120,"state_code":"A2","state_name":"East Attica Regional Unit","country_id":85,"country_code":"GR","country_name":"Greece","latitude":"41.06165000","longitude":"24.96248000","wikiDataId":"Q3659157"},{"id":53420,"Name":"Íasmos","state_id":2120,"state_code":"A2","state_name":"East Attica Regional Unit","country_id":85,"country_code":"GR","country_name":"Greece","latitude":"41.12747000","longitude":"25.18573000","wikiDataId":"Q16632494"},{"id":52661,"Name":"Iliokentima","state_id":2120,"state_code":"A2","state_name":"East Attica Regional Unit","country_id":85,"country_code":"GR","country_name":"Greece","latitude":"40.94931000","longitude":"24.78859000","wikiDataId":"Q213874"},{"id":52679,"Name":"Kalampáki","state_id":2120,"state_code":"A2","state_name":"East Attica Regional Unit","country_id":85,"country_code":"GR","country_name":"Greece","latitude":"41.05000000","longitude":"24.18333000","wikiDataId":"Q2712273"},{"id":52690,"Name":"Kalí Vrýsi","state_id":2120,"state_code":"A2","state_name":"East Attica Regional Unit","country_id":85,"country_code":"GR","country_name":"Greece","latitude":"41.14653000","longitude":"23.90667000","wikiDataId":"Q3405567"},{"id":52683,"Name":"Kallífytos","state_id":2120,"state_code":"A2","state_name":"East Attica Regional Unit","country_id":85,"country_code":"GR","country_name":"Greece","latitude":"41.17280000","longitude":"24.21527000","wikiDataId":"Q626774"},{"id":52691,"Name":"Kalós Agrós","state_id":2120,"state_code":"A2","state_name":"East Attica Regional Unit","country_id":85,"country_code":"GR","country_name":"Greece","latitude":"41.10543000","longitude":"24.08570000","wikiDataId":"Q12078952"},{"id":52696,"Name":"Kamariótissa","state_id":2120,"state_code":"A2","state_name":"East Attica Regional Unit","country_id":85,"country_code":"GR","country_name":"Greece","latitude":"40.47501000","longitude":"25.47456000","wikiDataId":"Q1722850"},{"id":52723,"Name":"Kastaniés","state_id":2120,"state_code":"A2","state_name":"East Attica Regional Unit","country_id":85,"country_code":"GR","country_name":"Greece","latitude":"41.64551000","longitude":"26.47676000","wikiDataId":"Q3558218"},{"id":52815,"Name":"Káto Nevrokópi","state_id":2120,"state_code":"A2","state_name":"East Attica Regional Unit","country_id":85,"country_code":"GR","country_name":"Greece","latitude":"41.35000000","longitude":"23.86667000","wikiDataId":"Q3409187"},{"id":52735,"Name":"Kavála","state_id":2120,"state_code":"A2","state_name":"East Attica Regional Unit","country_id":85,"country_code":"GR","country_name":"Greece","latitude":"40.93959000","longitude":"24.40687000","wikiDataId":"Q187352"},{"id":52737,"Name":"Kavýli","state_id":2120,"state_code":"A2","state_name":"East Attica Regional Unit","country_id":85,"country_code":"GR","country_name":"Greece","latitude":"41.56225000","longitude":"26.51470000","wikiDataId":"Q3558285"},{"id":52739,"Name":"Keramotí","state_id":2120,"state_code":"A2","state_name":"East Attica Regional Unit","country_id":85,"country_code":"GR","country_name":"Greece","latitude":"40.85591000","longitude":"24.70595000","wikiDataId":"Q1739185"},{"id":52748,"Name":"Kimméria","state_id":2120,"state_code":"A2","state_name":"East Attica Regional Unit","country_id":85,"country_code":"GR","country_name":"Greece","latitude":"41.14788000","longitude":"24.93869000","wikiDataId":"Q3555734"},{"id":52755,"Name":"Kokkinóchoma","state_id":2120,"state_code":"A2","state_name":"East Attica Regional Unit","country_id":85,"country_code":"GR","country_name":"Greece","latitude":"40.92690000","longitude":"24.30805000","wikiDataId":"Q1549738"},{"id":52762,"Name":"Komotiní","state_id":2120,"state_code":"A2","state_name":"East Attica Regional Unit","country_id":85,"country_code":"GR","country_name":"Greece","latitude":"41.11917000","longitude":"25.40535000","wikiDataId":"Q208403"},{"id":52785,"Name":"Krinídes","state_id":2120,"state_code":"A2","state_name":"East Attica Regional Unit","country_id":85,"country_code":"GR","country_name":"Greece","latitude":"41.01396000","longitude":"24.29647000","wikiDataId":"Q771125"},{"id":52798,"Name":"Kyprínos","state_id":2120,"state_code":"A2","state_name":"East Attica Regional Unit","country_id":85,"country_code":"GR","country_name":"Greece","latitude":"41.57542000","longitude":"26.22905000","wikiDataId":"Q747508"},{"id":52829,"Name":"Kýria","state_id":2120,"state_code":"A2","state_name":"East Attica Regional Unit","country_id":85,"country_code":"GR","country_name":"Greece","latitude":"41.09900000","longitude":"24.28915000","wikiDataId":"Q3395585"},{"id":52834,"Name":"Lagós","state_id":2120,"state_code":"A2","state_name":"East Attica Regional Unit","country_id":85,"country_code":"GR","country_name":"Greece","latitude":"41.45102000","longitude":"26.46067000","wikiDataId":"Q3565344"},{"id":52876,"Name":"Lávara","state_id":2120,"state_code":"A2","state_name":"East Attica Regional Unit","country_id":85,"country_code":"GR","country_name":"Greece","latitude":"41.26957000","longitude":"26.38522000","wikiDataId":"Q1805894"},{"id":52853,"Name":"Limenária","state_id":2120,"state_code":"A2","state_name":"East Attica Regional Unit","country_id":85,"country_code":"GR","country_name":"Greece","latitude":"40.62741000","longitude":"24.57650000","wikiDataId":"Q1014258"},{"id":52882,"Name":"Lýkeio","state_id":2120,"state_code":"A2","state_name":"East Attica Regional Unit","country_id":85,"country_code":"GR","country_name":"Greece","latitude":"41.06413000","longitude":"25.68570000","wikiDataId":"Q3740106"},{"id":52935,"Name":"Mikrópolis","state_id":2120,"state_code":"A2","state_name":"East Attica Regional Unit","country_id":85,"country_code":"GR","country_name":"Greece","latitude":"41.19351000","longitude":"23.81570000","wikiDataId":"Q985630"},{"id":52959,"Name":"Mýki","state_id":2120,"state_code":"A2","state_name":"East Attica Regional Unit","country_id":85,"country_code":"GR","country_name":"Greece","latitude":"41.24384000","longitude":"24.92084000","wikiDataId":"Q16322844"},{"id":53011,"Name":"Néa Iraklítsa","state_id":2120,"state_code":"A2","state_name":"East Attica Regional Unit","country_id":85,"country_code":"GR","country_name":"Greece","latitude":"40.86442000","longitude":"24.31650000","wikiDataId":"Q12249458"},{"id":53013,"Name":"Néa Karváli","state_id":2120,"state_code":"A2","state_name":"East Attica Regional Unit","country_id":85,"country_code":"GR","country_name":"Greece","latitude":"40.96148000","longitude":"24.51132000","wikiDataId":"Q1722488"},{"id":53014,"Name":"Néa Karyá","state_id":2120,"state_code":"A2","state_name":"East Attica Regional Unit","country_id":85,"country_code":"GR","country_name":"Greece","latitude":"40.90621000","longitude":"24.70726000","wikiDataId":"Q1722488"},{"id":53031,"Name":"Néa Péramos","state_id":2120,"state_code":"A2","state_name":"East Attica Regional Unit","country_id":85,"country_code":"GR","country_name":"Greece","latitude":"40.83854000","longitude":"24.30130000","wikiDataId":"Q3555810"},{"id":53040,"Name":"Néa Výssa","state_id":2120,"state_code":"A2","state_name":"East Attica Regional Unit","country_id":85,"country_code":"GR","country_name":"Greece","latitude":"41.58449000","longitude":"26.54318000","wikiDataId":"Q1014288"},{"id":52967,"Name":"Neochóri","state_id":2120,"state_code":"A2","state_name":"East Attica Regional Unit","country_id":85,"country_code":"GR","country_name":"Greece","latitude":"41.51131000","longitude":"26.45740000","wikiDataId":"Q6992141"},{"id":52976,"Name":"Nikísiani","state_id":2120,"state_code":"A2","state_name":"East Attica Regional Unit","country_id":85,"country_code":"GR","country_name":"Greece","latitude":"40.94739000","longitude":"24.14311000","wikiDataId":"Q2272672"},{"id":53062,"Name":"Orestiáda","state_id":2120,"state_code":"A2","state_name":"East Attica Regional Unit","country_id":85,"country_code":"GR","country_name":"Greece","latitude":"41.50306000","longitude":"26.52972000","wikiDataId":"Q992228"},{"id":53161,"Name":"Páchni","state_id":2120,"state_code":"A2","state_name":"East Attica Regional Unit","country_id":85,"country_code":"GR","country_name":"Greece","latitude":"41.30506000","longitude":"24.89438000","wikiDataId":"Q2384736"},{"id":53078,"Name":"Palaió Tsiflíki","state_id":2120,"state_code":"A2","state_name":"East Attica Regional Unit","country_id":85,"country_code":"GR","country_name":"Greece","latitude":"40.90495000","longitude":"24.35083000","wikiDataId":"Q1014231"},{"id":53071,"Name":"Palaiochóri","state_id":2120,"state_code":"A2","state_name":"East Attica Regional Unit","country_id":85,"country_code":"GR","country_name":"Greece","latitude":"40.94338000","longitude":"24.17747000","wikiDataId":"Q1236193"},{"id":53093,"Name":"Paralía Ofryníou","state_id":2120,"state_code":"A2","state_name":"East Attica Regional Unit","country_id":85,"country_code":"GR","country_name":"Greece","latitude":"40.76663000","longitude":"23.90039000","wikiDataId":"Q1229905"},{"id":53096,"Name":"Paranésti","state_id":2120,"state_code":"A2","state_name":"East Attica Regional Unit","country_id":85,"country_code":"GR","country_name":"Greece","latitude":"41.26667000","longitude":"24.50000000","wikiDataId":"Q957192"},{"id":53173,"Name":"Péplos","state_id":2120,"state_code":"A2","state_name":"East Attica Regional Unit","country_id":85,"country_code":"GR","country_name":"Greece","latitude":"40.95755000","longitude":"26.26577000","wikiDataId":"Q213679"},{"id":53117,"Name":"Peteinós","state_id":2120,"state_code":"A2","state_name":"East Attica Regional Unit","country_id":85,"country_code":"GR","country_name":"Greece","latitude":"41.10056000","longitude":"24.89847000","wikiDataId":"Q12200538"},{"id":53118,"Name":"Petrochóri","state_id":2120,"state_code":"A2","state_name":"East Attica Regional Unit","country_id":85,"country_code":"GR","country_name":"Greece","latitude":"41.08742000","longitude":"24.84092000","wikiDataId":"Q12200538"},{"id":53120,"Name":"Petroússa","state_id":2120,"state_code":"A2","state_name":"East Attica Regional Unit","country_id":85,"country_code":"GR","country_name":"Greece","latitude":"41.19470000","longitude":"24.01731000","wikiDataId":"Q1997297"},{"id":53140,"Name":"Potamiá","state_id":2120,"state_code":"A2","state_name":"East Attica Regional Unit","country_id":85,"country_code":"GR","country_name":"Greece","latitude":"40.71633000","longitude":"24.72859000","wikiDataId":"Q1418080"},{"id":53150,"Name":"Prínos","state_id":2120,"state_code":"A2","state_name":"East Attica Regional Unit","country_id":85,"country_code":"GR","country_name":"Greece","latitude":"40.74090000","longitude":"24.57787000","wikiDataId":"Q213898"},{"id":53145,"Name":"Prosotsáni","state_id":2120,"state_code":"A2","state_name":"East Attica Regional Unit","country_id":85,"country_code":"GR","country_name":"Greece","latitude":"41.18333000","longitude":"23.96667000","wikiDataId":"Q1115715"},{"id":53201,"Name":"Rízia","state_id":2120,"state_code":"A2","state_name":"East Attica Regional Unit","country_id":85,"country_code":"GR","country_name":"Greece","latitude":"41.62490000","longitude":"26.42771000","wikiDataId":"Q3558311"},{"id":53205,"Name":"Samothráki","state_id":2120,"state_code":"A2","state_name":"East Attica Regional Unit","country_id":85,"country_code":"GR","country_name":"Greece","latitude":"40.47333000","longitude":"25.52222000","wikiDataId":"Q21406482"},{"id":53264,"Name":"Sápes","state_id":2120,"state_code":"A2","state_name":"East Attica Regional Unit","country_id":85,"country_code":"GR","country_name":"Greece","latitude":"41.02861000","longitude":"25.69306000","wikiDataId":"Q2643560"},{"id":53266,"Name":"Sélero","state_id":2120,"state_code":"A2","state_name":"East Attica Regional Unit","country_id":85,"country_code":"GR","country_name":"Greece","latitude":"41.13382000","longitude":"24.99408000","wikiDataId":"Q3384116"},{"id":53216,"Name":"Sitagroí","state_id":2120,"state_code":"A2","state_name":"East Attica Regional Unit","country_id":85,"country_code":"GR","country_name":"Greece","latitude":"41.11067000","longitude":"24.02755000","wikiDataId":"Q2405927"},{"id":53230,"Name":"Smínthi","state_id":2120,"state_code":"A2","state_name":"East Attica Regional Unit","country_id":85,"country_code":"GR","country_name":"Greece","latitude":"41.23333000","longitude":"24.86667000","wikiDataId":"Q7544797"},{"id":53235,"Name":"Souflí","state_id":2120,"state_code":"A2","state_name":"East Attica Regional Unit","country_id":85,"country_code":"GR","country_name":"Greece","latitude":"41.19194000","longitude":"26.29944000","wikiDataId":"Q1014206"},{"id":53282,"Name":"Thásos","state_id":2120,"state_code":"A2","state_name":"East Attica Regional Unit","country_id":85,"country_code":"GR","country_name":"Greece","latitude":"40.77806000","longitude":"24.70944000","wikiDataId":"Q557754"},{"id":53298,"Name":"Tycheró","state_id":2120,"state_code":"A2","state_name":"East Attica Regional Unit","country_id":85,"country_code":"GR","country_name":"Greece","latitude":"41.02878000","longitude":"26.29455000","wikiDataId":"Q779647"},{"id":53345,"Name":"Vólakas","state_id":2120,"state_code":"A2","state_name":"East Attica Regional Unit","country_id":85,"country_code":"GR","country_name":"Greece","latitude":"41.31661000","longitude":"24.00215000","wikiDataId":"Q2275334"},{"id":53353,"Name":"Xánthi","state_id":2120,"state_code":"A2","state_name":"East Attica Regional Unit","country_id":85,"country_code":"GR","country_name":"Greece","latitude":"41.13488000","longitude":"24.88800000","wikiDataId":"Q210296"},{"id":53350,"Name":"Xiropótamos","state_id":2120,"state_code":"A2","state_name":"East Attica Regional Unit","country_id":85,"country_code":"GR","country_name":"Greece","latitude":"41.19206000","longitude":"24.10385000","wikiDataId":"Q3395958"},{"id":53351,"Name":"Xylaganí","state_id":2120,"state_code":"A2","state_name":"East Attica Regional Unit","country_id":85,"country_code":"GR","country_name":"Greece","latitude":"40.97437000","longitude":"25.42022000","wikiDataId":"Q3555860"},{"id":53365,"Name":"Zygós","state_id":2120,"state_code":"A2","state_name":"East Attica Regional Unit","country_id":85,"country_code":"GR","country_name":"Greece","latitude":"41.01320000","longitude":"24.38132000","wikiDataId":"Q8075892"}]