[{"id":102986,"Name":"Akalla","state_id":1551,"state_code":"AB","state_name":"Stockholm County","country_id":213,"country_code":"SE","country_name":"Sweden","latitude":"59.41465000","longitude":"17.91398000","wikiDataId":"Q16156813"},{"id":104004,"Name":"Åkersberga","state_id":1551,"state_code":"AB","state_name":"Stockholm County","country_id":213,"country_code":"SE","country_name":"Sweden","latitude":"59.47944000","longitude":"18.29967000","wikiDataId":"Q54728"},{"id":102988,"Name":"Alby","state_id":1551,"state_code":"AB","state_name":"Stockholm County","country_id":213,"country_code":"SE","country_name":"Sweden","latitude":"59.23350000","longitude":"17.85380000","wikiDataId":"Q934689"},{"id":103987,"Name":"Älmsta","state_id":1551,"state_code":"AB","state_name":"Stockholm County","country_id":213,"country_code":"SE","country_name":"Sweden","latitude":"59.96667000","longitude":"18.80000000","wikiDataId":"Q3185307"},{"id":103988,"Name":"Älta","state_id":1551,"state_code":"AB","state_name":"Stockholm County","country_id":213,"country_code":"SE","country_name":"Sweden","latitude":"59.26667000","longitude":"18.18333000","wikiDataId":"Q2180312"},{"id":103014,"Name":"Arnö","state_id":1551,"state_code":"AB","state_name":"Stockholm County","country_id":213,"country_code":"SE","country_name":"Sweden","latitude":"60.11667000","longitude":"18.63333000","wikiDataId":"Q32221173"},{"id":104013,"Name":"Årsta","state_id":1551,"state_code":"AB","state_name":"Stockholm County","country_id":213,"country_code":"SE","country_name":"Sweden","latitude":"59.29780000","longitude":"18.05140000","wikiDataId":"Q2777887"},{"id":103037,"Name":"Bergshamra","state_id":1551,"state_code":"AB","state_name":"Stockholm County","country_id":213,"country_code":"SE","country_name":"Sweden","latitude":"59.38083000","longitude":"18.03427000","wikiDataId":"Q820082"},{"id":103066,"Name":"Bollmora","state_id":1551,"state_code":"AB","state_name":"Stockholm County","country_id":213,"country_code":"SE","country_name":"Sweden","latitude":"59.24196000","longitude":"18.22762000","wikiDataId":"Q891467"},{"id":103070,"Name":"Boo","state_id":1551,"state_code":"AB","state_name":"Stockholm County","country_id":213,"country_code":"SE","country_name":"Sweden","latitude":"59.33333000","longitude":"18.28333000","wikiDataId":"Q54752"},{"id":103085,"Name":"Brevik","state_id":1551,"state_code":"AB","state_name":"Stockholm County","country_id":213,"country_code":"SE","country_name":"Sweden","latitude":"59.35000000","longitude":"18.20000000","wikiDataId":"Q2157979"},{"id":103086,"Name":"Bro","state_id":1551,"state_code":"AB","state_name":"Stockholm County","country_id":213,"country_code":"SE","country_name":"Sweden","latitude":"59.51667000","longitude":"17.63333000","wikiDataId":"Q2430301"},{"id":103088,"Name":"Bromma","state_id":1551,"state_code":"AB","state_name":"Stockholm County","country_id":213,"country_code":"SE","country_name":"Sweden","latitude":"59.34000000","longitude":"17.94000000","wikiDataId":"Q923113"},{"id":103091,"Name":"Brunn","state_id":1551,"state_code":"AB","state_name":"Stockholm County","country_id":213,"country_code":"SE","country_name":"Sweden","latitude":"59.28000000","longitude":"18.43000000","wikiDataId":"Q514830"},{"id":103092,"Name":"Brunna","state_id":1551,"state_code":"AB","state_name":"Stockholm County","country_id":213,"country_code":"SE","country_name":"Sweden","latitude":"59.51667000","longitude":"17.75000000","wikiDataId":"Q1987306"},{"id":103108,"Name":"Dalarö","state_id":1551,"state_code":"AB","state_name":"Stockholm County","country_id":213,"country_code":"SE","country_name":"Sweden","latitude":"59.13306000","longitude":"18.40639000","wikiDataId":"Q748257"},{"id":103123,"Name":"Djurö","state_id":1551,"state_code":"AB","state_name":"Stockholm County","country_id":213,"country_code":"SE","country_name":"Sweden","latitude":"59.32653000","longitude":"18.71152000","wikiDataId":"Q2071947"},{"id":103121,"Name":"Djursholm","state_id":1551,"state_code":"AB","state_name":"Stockholm County","country_id":213,"country_code":"SE","country_name":"Sweden","latitude":"59.39926000","longitude":"18.05619000","wikiDataId":"Q404977"},{"id":103133,"Name":"Ekerö","state_id":1551,"state_code":"AB","state_name":"Stockholm County","country_id":213,"country_code":"SE","country_name":"Sweden","latitude":"59.29100000","longitude":"17.81212000","wikiDataId":"Q384083"},{"id":103143,"Name":"Enebyberg","state_id":1551,"state_code":"AB","state_name":"Stockholm County","country_id":213,"country_code":"SE","country_name":"Sweden","latitude":"59.43333000","longitude":"18.05000000","wikiDataId":"Q5376722"},{"id":103147,"Name":"Eriksberg","state_id":1551,"state_code":"AB","state_name":"Stockholm County","country_id":213,"country_code":"SE","country_name":"Sweden","latitude":"59.24241000","longitude":"17.81631000","wikiDataId":"Q1449662"},{"id":103168,"Name":"Fisksätra","state_id":1551,"state_code":"AB","state_name":"Stockholm County","country_id":213,"country_code":"SE","country_name":"Sweden","latitude":"59.29153000","longitude":"18.25490000","wikiDataId":"Q2250574"},{"id":103169,"Name":"Fittja","state_id":1551,"state_code":"AB","state_name":"Stockholm County","country_id":213,"country_code":"SE","country_name":"Sweden","latitude":"59.24868000","longitude":"17.85991000","wikiDataId":"Q2250574"},{"id":103199,"Name":"Gamla Stan","state_id":1551,"state_code":"AB","state_name":"Stockholm County","country_id":213,"country_code":"SE","country_name":"Sweden","latitude":"59.32627000","longitude":"18.07251000","wikiDataId":"Q2642771"},{"id":103235,"Name":"Gustavsberg","state_id":1551,"state_code":"AB","state_name":"Stockholm County","country_id":213,"country_code":"SE","country_name":"Sweden","latitude":"59.32684000","longitude":"18.38975000","wikiDataId":"Q1011837"},{"id":103257,"Name":"Hallstavik","state_id":1551,"state_code":"AB","state_name":"Stockholm County","country_id":213,"country_code":"SE","country_name":"Sweden","latitude":"60.05000000","longitude":"18.60000000","wikiDataId":"Q496201"},{"id":103264,"Name":"Handen","state_id":1551,"state_code":"AB","state_name":"Stockholm County","country_id":213,"country_code":"SE","country_name":"Sweden","latitude":"59.16809000","longitude":"18.13796000","wikiDataId":"Q1574991"},{"id":103265,"Name":"Haninge","state_id":1551,"state_code":"AB","state_name":"Stockholm County","country_id":213,"country_code":"SE","country_name":"Sweden","latitude":"59.16775000","longitude":"18.14478000","wikiDataId":"Q1574991"},{"id":103278,"Name":"Hemmesta","state_id":1551,"state_code":"AB","state_name":"Stockholm County","country_id":213,"country_code":"SE","country_name":"Sweden","latitude":"59.32273000","longitude":"18.48675000","wikiDataId":"Q2273941"},{"id":103336,"Name":"Hölö","state_id":1551,"state_code":"AB","state_name":"Stockholm County","country_id":213,"country_code":"SE","country_name":"Sweden","latitude":"59.01667000","longitude":"17.53333000","wikiDataId":"Q2431323"},{"id":103303,"Name":"Huddinge","state_id":1551,"state_code":"AB","state_name":"Stockholm County","country_id":213,"country_code":"SE","country_name":"Sweden","latitude":"59.23705000","longitude":"17.98192000","wikiDataId":"Q3055207"},{"id":103351,"Name":"Jakobsberg","state_id":1551,"state_code":"AB","state_name":"Stockholm County","country_id":213,"country_code":"SE","country_name":"Sweden","latitude":"59.42268000","longitude":"17.83508000","wikiDataId":"Q1370248"},{"id":103363,"Name":"Järna","state_id":1551,"state_code":"AB","state_name":"Stockholm County","country_id":213,"country_code":"SE","country_name":"Sweden","latitude":"59.09165000","longitude":"17.56615000","wikiDataId":"Q1456393"},{"id":103357,"Name":"Jordbro","state_id":1551,"state_code":"AB","state_name":"Stockholm County","country_id":213,"country_code":"SE","country_name":"Sweden","latitude":"59.14972000","longitude":"18.11667000","wikiDataId":"Q1703720"},{"id":103397,"Name":"Kista","state_id":1551,"state_code":"AB","state_name":"Stockholm County","country_id":213,"country_code":"SE","country_name":"Sweden","latitude":"59.40316000","longitude":"17.94479000","wikiDataId":"Q1017607"},{"id":103410,"Name":"Kopparmora","state_id":1551,"state_code":"AB","state_name":"Stockholm County","country_id":213,"country_code":"SE","country_name":"Sweden","latitude":"59.33306000","longitude":"18.58306000","wikiDataId":"Q2723730"},{"id":103422,"Name":"Kummelnäs","state_id":1551,"state_code":"AB","state_name":"Stockholm County","country_id":213,"country_code":"SE","country_name":"Sweden","latitude":"59.35000000","longitude":"18.28333000","wikiDataId":"Q2020762"},{"id":103427,"Name":"Kungsängen","state_id":1551,"state_code":"AB","state_name":"Stockholm County","country_id":213,"country_code":"SE","country_name":"Sweden","latitude":"59.47857000","longitude":"17.74834000","wikiDataId":"Q1632006"},{"id":103426,"Name":"Kungsholmen","state_id":1551,"state_code":"AB","state_name":"Stockholm County","country_id":213,"country_code":"SE","country_name":"Sweden","latitude":"59.33183000","longitude":"18.04118000","wikiDataId":"Q594557"},{"id":103505,"Name":"Långvik","state_id":1551,"state_code":"AB","state_name":"Stockholm County","country_id":213,"country_code":"SE","country_name":"Sweden","latitude":"59.24583000","longitude":"18.51667000","wikiDataId":"Q2100144"},{"id":103463,"Name":"Lidingö","state_id":1551,"state_code":"AB","state_name":"Stockholm County","country_id":213,"country_code":"SE","country_name":"Sweden","latitude":"59.36303000","longitude":"18.15096000","wikiDataId":"Q3120654"},{"id":103471,"Name":"Lindholmen","state_id":1551,"state_code":"AB","state_name":"Stockholm County","country_id":213,"country_code":"SE","country_name":"Sweden","latitude":"59.58333000","longitude":"18.10000000","wikiDataId":"Q1916777"},{"id":103558,"Name":"Märsta","state_id":1551,"state_code":"AB","state_name":"Stockholm County","country_id":213,"country_code":"SE","country_name":"Sweden","latitude":"59.62157000","longitude":"17.85476000","wikiDataId":"Q54748"},{"id":103561,"Name":"Mölnbo","state_id":1551,"state_code":"AB","state_name":"Stockholm County","country_id":213,"country_code":"SE","country_name":"Sweden","latitude":"59.05000000","longitude":"17.41667000","wikiDataId":"Q1886612"},{"id":103571,"Name":"Mörtnäs","state_id":1551,"state_code":"AB","state_name":"Stockholm County","country_id":213,"country_code":"SE","country_name":"Sweden","latitude":"59.31862000","longitude":"18.44312000","wikiDataId":"Q2934594"},{"id":103572,"Name":"Nacka","state_id":1551,"state_code":"AB","state_name":"Stockholm County","country_id":213,"country_code":"SE","country_name":"Sweden","latitude":"59.31053000","longitude":"18.16372000","wikiDataId":"Q2934594"},{"id":103588,"Name":"Norrtälje","state_id":1551,"state_code":"AB","state_name":"Stockholm County","country_id":213,"country_code":"SE","country_name":"Sweden","latitude":"59.75799000","longitude":"18.70496000","wikiDataId":"Q3588743"},{"id":103596,"Name":"Nykvarn","state_id":1551,"state_code":"AB","state_name":"Stockholm County","country_id":213,"country_code":"SE","country_name":"Sweden","latitude":"59.80000000","longitude":"18.30000000","wikiDataId":"Q32300326"},{"id":103600,"Name":"Nynäshamn","state_id":1551,"state_code":"AB","state_name":"Stockholm County","country_id":213,"country_code":"SE","country_name":"Sweden","latitude":"58.90337000","longitude":"17.94793000","wikiDataId":"Q738338"},{"id":104042,"Name":"Ösmo","state_id":1551,"state_code":"AB","state_name":"Stockholm County","country_id":213,"country_code":"SE","country_name":"Sweden","latitude":"58.98333000","longitude":"17.90000000","wikiDataId":"Q972028"},{"id":104045,"Name":"Östermalm","state_id":1551,"state_code":"AB","state_name":"Stockholm County","country_id":213,"country_code":"SE","country_name":"Sweden","latitude":"59.33879000","longitude":"18.08487000","wikiDataId":"Q298357"},{"id":103634,"Name":"Pershagen","state_id":1551,"state_code":"AB","state_name":"Stockholm County","country_id":213,"country_code":"SE","country_name":"Sweden","latitude":"59.15494000","longitude":"17.65340000","wikiDataId":"Q2082788"},{"id":103669,"Name":"Råsunda","state_id":1551,"state_code":"AB","state_name":"Stockholm County","country_id":213,"country_code":"SE","country_name":"Sweden","latitude":"59.36588000","longitude":"17.99569000","wikiDataId":"Q2145009"},{"id":103645,"Name":"Resarö","state_id":1551,"state_code":"AB","state_name":"Stockholm County","country_id":213,"country_code":"SE","country_name":"Sweden","latitude":"59.42910000","longitude":"18.33386000","wikiDataId":"Q3148672"},{"id":103646,"Name":"Rimbo","state_id":1551,"state_code":"AB","state_name":"Stockholm County","country_id":213,"country_code":"SE","country_name":"Sweden","latitude":"59.75000000","longitude":"18.36667000","wikiDataId":"Q131882"},{"id":103648,"Name":"Rindö","state_id":1551,"state_code":"AB","state_name":"Stockholm County","country_id":213,"country_code":"SE","country_name":"Sweden","latitude":"59.39688000","longitude":"18.39434000","wikiDataId":"Q1019412"},{"id":103673,"Name":"Rönninge","state_id":1551,"state_code":"AB","state_name":"Stockholm County","country_id":213,"country_code":"SE","country_name":"Sweden","latitude":"59.20000000","longitude":"17.73333000","wikiDataId":"Q5391401"},{"id":103657,"Name":"Rosersberg","state_id":1551,"state_code":"AB","state_name":"Stockholm County","country_id":213,"country_code":"SE","country_name":"Sweden","latitude":"59.58333000","longitude":"17.88333000","wikiDataId":"Q3146766"},{"id":103678,"Name":"Saltsjöbaden","state_id":1551,"state_code":"AB","state_name":"Stockholm County","country_id":213,"country_code":"SE","country_name":"Sweden","latitude":"59.28333000","longitude":"18.30000000","wikiDataId":"Q990771"},{"id":103684,"Name":"Segeltorp","state_id":1551,"state_code":"AB","state_name":"Stockholm County","country_id":213,"country_code":"SE","country_name":"Sweden","latitude":"59.27597000","longitude":"17.93072000","wikiDataId":"Q2424642"},{"id":103686,"Name":"Sigtuna","state_id":1551,"state_code":"AB","state_name":"Stockholm County","country_id":213,"country_code":"SE","country_name":"Sweden","latitude":"59.61731000","longitude":"17.72361000","wikiDataId":"Q3183470"},{"id":103717,"Name":"Skänninge","state_id":1551,"state_code":"AB","state_name":"Stockholm County","country_id":213,"country_code":"SE","country_name":"Sweden","latitude":"59.93333000","longitude":"18.48333000","wikiDataId":"Q59052"},{"id":103823,"Name":"Södermalm","state_id":1551,"state_code":"AB","state_name":"Stockholm County","country_id":213,"country_code":"SE","country_name":"Sweden","latitude":"59.31278000","longitude":"18.07577000","wikiDataId":"Q515680"},{"id":103824,"Name":"Södertälje","state_id":1551,"state_code":"AB","state_name":"Stockholm County","country_id":213,"country_code":"SE","country_name":"Sweden","latitude":"59.19554000","longitude":"17.62525000","wikiDataId":"Q26518"},{"id":103737,"Name":"Sollentuna","state_id":1551,"state_code":"AB","state_name":"Stockholm County","country_id":213,"country_code":"SE","country_name":"Sweden","latitude":"59.42804000","longitude":"17.95093000","wikiDataId":"Q221990"},{"id":103739,"Name":"Solna","state_id":1551,"state_code":"AB","state_name":"Stockholm County","country_id":213,"country_code":"SE","country_name":"Sweden","latitude":"59.36004000","longitude":"18.00086000","wikiDataId":"Q28476747"},{"id":103747,"Name":"Stavsnäs","state_id":1551,"state_code":"AB","state_name":"Stockholm County","country_id":213,"country_code":"SE","country_name":"Sweden","latitude":"59.28333000","longitude":"18.68333000","wikiDataId":"Q2887420"},{"id":103749,"Name":"Stenhamra","state_id":1551,"state_code":"AB","state_name":"Stockholm County","country_id":213,"country_code":"SE","country_name":"Sweden","latitude":"59.33440000","longitude":"17.68842000","wikiDataId":"Q2524833"},{"id":103758,"Name":"Stockholm","state_id":1551,"state_code":"AB","state_name":"Stockholm County","country_id":213,"country_code":"SE","country_name":"Sweden","latitude":"59.33258000","longitude":"18.06490000","wikiDataId":"Q1754"},{"id":103773,"Name":"Strömma","state_id":1551,"state_code":"AB","state_name":"Stockholm County","country_id":213,"country_code":"SE","country_name":"Sweden","latitude":"59.28333000","longitude":"18.53333000","wikiDataId":"Q1800844"},{"id":103783,"Name":"Sundbyberg","state_id":1551,"state_code":"AB","state_name":"Stockholm County","country_id":213,"country_code":"SE","country_name":"Sweden","latitude":"59.36128000","longitude":"17.97114000","wikiDataId":"Q2553069"},{"id":103841,"Name":"Tensta","state_id":1551,"state_code":"AB","state_name":"Stockholm County","country_id":213,"country_code":"SE","country_name":"Sweden","latitude":"59.39390000","longitude":"17.90111000","wikiDataId":"Q2264128"},{"id":103881,"Name":"Tullinge","state_id":1551,"state_code":"AB","state_name":"Stockholm County","country_id":213,"country_code":"SE","country_name":"Sweden","latitude":"59.20000000","longitude":"17.90000000","wikiDataId":"Q3622685"},{"id":103882,"Name":"Tumba","state_id":1551,"state_code":"AB","state_name":"Stockholm County","country_id":213,"country_code":"SE","country_name":"Sweden","latitude":"59.19858000","longitude":"17.83317000","wikiDataId":"Q83715"},{"id":103900,"Name":"Upplands Väsby","state_id":1551,"state_code":"AB","state_name":"Stockholm County","country_id":213,"country_code":"SE","country_name":"Sweden","latitude":"59.51839000","longitude":"17.91128000","wikiDataId":"Q54343"},{"id":103918,"Name":"Vallentuna","state_id":1551,"state_code":"AB","state_name":"Stockholm County","country_id":213,"country_code":"SE","country_name":"Sweden","latitude":"59.53436000","longitude":"18.07758000","wikiDataId":"Q54358"},{"id":103978,"Name":"Vårby","state_id":1551,"state_code":"AB","state_name":"Stockholm County","country_id":213,"country_code":"SE","country_name":"Sweden","latitude":"59.26671000","longitude":"17.88407000","wikiDataId":"Q500217"},{"id":103981,"Name":"Vårsta","state_id":1551,"state_code":"AB","state_name":"Stockholm County","country_id":213,"country_code":"SE","country_name":"Sweden","latitude":"59.16528000","longitude":"17.79722000","wikiDataId":"Q2117458"},{"id":103927,"Name":"Vasastan","state_id":1551,"state_code":"AB","state_name":"Stockholm County","country_id":213,"country_code":"SE","country_name":"Sweden","latitude":"59.34571000","longitude":"18.04985000","wikiDataId":"Q1986670"},{"id":103929,"Name":"Vaxholm","state_id":1551,"state_code":"AB","state_name":"Stockholm County","country_id":213,"country_code":"SE","country_name":"Sweden","latitude":"59.40225000","longitude":"18.35317000","wikiDataId":"Q1001109"}]