[{"id":16151,"Name":"Airdrie","state_id":872,"state_code":"AB","state_name":"Alberta","country_id":39,"country_code":"CA","country_name":"Canada","latitude":"51.30011000","longitude":"-114.03528000","wikiDataId":"Q408537"},{"id":16178,"Name":"Athabasca","state_id":872,"state_code":"AB","state_name":"Alberta","country_id":39,"country_code":"CA","country_name":"Canada","latitude":"54.71687000","longitude":"-113.28537000","wikiDataId":"Q754638"},{"id":16190,"Name":"Banff","state_id":872,"state_code":"AB","state_name":"Alberta","country_id":39,"country_code":"CA","country_name":"Canada","latitude":"51.17622000","longitude":"-115.56982000","wikiDataId":"Q58337"},{"id":16192,"Name":"Barrhead","state_id":872,"state_code":"AB","state_name":"Alberta","country_id":39,"country_code":"CA","country_name":"Canada","latitude":"54.13345000","longitude":"-114.40211000","wikiDataId":"Q808905"},{"id":16196,"Name":"Bassano","state_id":872,"state_code":"AB","state_name":"Alberta","country_id":39,"country_code":"CA","country_name":"Canada","latitude":"50.78342000","longitude":"-112.46854000","wikiDataId":"Q773061"},{"id":16204,"Name":"Beaumont","state_id":872,"state_code":"AB","state_name":"Alberta","country_id":39,"country_code":"CA","country_name":"Canada","latitude":"53.35013000","longitude":"-113.41871000","wikiDataId":"Q253903"},{"id":16207,"Name":"Beaverlodge","state_id":872,"state_code":"AB","state_name":"Alberta","country_id":39,"country_code":"CA","country_name":"Canada","latitude":"55.21664000","longitude":"-119.43605000","wikiDataId":"Q813506"},{"id":16219,"Name":"Black Diamond","state_id":872,"state_code":"AB","state_name":"Alberta","country_id":39,"country_code":"CA","country_name":"Canada","latitude":"50.70011000","longitude":"-114.23530000","wikiDataId":"Q880216"},{"id":16220,"Name":"Blackfalds","state_id":872,"state_code":"AB","state_name":"Alberta","country_id":39,"country_code":"CA","country_name":"Canada","latitude":"52.38342000","longitude":"-113.78530000","wikiDataId":"Q2747793"},{"id":16226,"Name":"Bon Accord","state_id":872,"state_code":"AB","state_name":"Alberta","country_id":39,"country_code":"CA","country_name":"Canada","latitude":"53.83345000","longitude":"-113.41872000","wikiDataId":"Q3323039"},{"id":16229,"Name":"Bonnyville","state_id":872,"state_code":"AB","state_name":"Alberta","country_id":39,"country_code":"CA","country_name":"Canada","latitude":"54.26684000","longitude":"-110.73505000","wikiDataId":"Q892841"},{"id":16234,"Name":"Bow Island","state_id":872,"state_code":"AB","state_name":"Alberta","country_id":39,"country_code":"CA","country_name":"Canada","latitude":"49.86676000","longitude":"-111.36843000","wikiDataId":"Q573968"},{"id":16245,"Name":"Brooks","state_id":872,"state_code":"AB","state_name":"Alberta","country_id":39,"country_code":"CA","country_name":"Canada","latitude":"50.58341000","longitude":"-111.88509000","wikiDataId":"Q1055838"},{"id":16259,"Name":"Calgary","state_id":872,"state_code":"AB","state_name":"Alberta","country_id":39,"country_code":"CA","country_name":"Canada","latitude":"51.05011000","longitude":"-114.08529000","wikiDataId":"Q36312"},{"id":16260,"Name":"Calmar","state_id":872,"state_code":"AB","state_name":"Alberta","country_id":39,"country_code":"CA","country_name":"Canada","latitude":"53.26683000","longitude":"-113.81874000","wikiDataId":"Q2593164"},{"id":16265,"Name":"Camrose","state_id":872,"state_code":"AB","state_name":"Alberta","country_id":39,"country_code":"CA","country_name":"Canada","latitude":"53.01684000","longitude":"-112.83525000","wikiDataId":"Q775610"},{"id":16267,"Name":"Canmore","state_id":872,"state_code":"AB","state_name":"Alberta","country_id":39,"country_code":"CA","country_name":"Canada","latitude":"51.08335000","longitude":"-115.35206000","wikiDataId":"Q991515"},{"id":16277,"Name":"Cardston","state_id":872,"state_code":"AB","state_name":"Alberta","country_id":39,"country_code":"CA","country_name":"Canada","latitude":"49.19998000","longitude":"-113.30190000","wikiDataId":"Q1743545"},{"id":16284,"Name":"Carstairs","state_id":872,"state_code":"AB","state_name":"Alberta","country_id":39,"country_code":"CA","country_name":"Canada","latitude":"51.56681000","longitude":"-114.10200000","wikiDataId":"Q1886298"},{"id":16305,"Name":"Chestermere","state_id":872,"state_code":"AB","state_name":"Alberta","country_id":39,"country_code":"CA","country_name":"Canada","latitude":"51.03341000","longitude":"-113.81867000","wikiDataId":"Q999303"},{"id":16314,"Name":"Claresholm","state_id":872,"state_code":"AB","state_name":"Alberta","country_id":39,"country_code":"CA","country_name":"Canada","latitude":"50.03332000","longitude":"-113.58524000","wikiDataId":"Q1746566"},{"id":16316,"Name":"Coaldale","state_id":872,"state_code":"AB","state_name":"Alberta","country_id":39,"country_code":"CA","country_name":"Canada","latitude":"49.71670000","longitude":"-112.61854000","wikiDataId":"Q2651028"},{"id":16317,"Name":"Coalhurst","state_id":872,"state_code":"AB","state_name":"Alberta","country_id":39,"country_code":"CA","country_name":"Canada","latitude":"49.74640000","longitude":"-112.93246000","wikiDataId":"Q501627"},{"id":16320,"Name":"Cochrane","state_id":872,"state_code":"AB","state_name":"Alberta","country_id":39,"country_code":"CA","country_name":"Canada","latitude":"51.18341000","longitude":"-114.46871000","wikiDataId":"Q1105163"},{"id":16323,"Name":"Cold Lake","state_id":872,"state_code":"AB","state_name":"Alberta","country_id":39,"country_code":"CA","country_name":"Canada","latitude":"54.46525000","longitude":"-110.18154000","wikiDataId":"Q1017691"},{"id":16349,"Name":"Crossfield","state_id":872,"state_code":"AB","state_name":"Alberta","country_id":39,"country_code":"CA","country_name":"Canada","latitude":"51.43341000","longitude":"-114.03528000","wikiDataId":"Q2306577"},{"id":16371,"Name":"Devon","state_id":872,"state_code":"AB","state_name":"Alberta","country_id":39,"country_code":"CA","country_name":"Canada","latitude":"53.36683000","longitude":"-113.73533000","wikiDataId":"Q2105198"},{"id":16372,"Name":"Didsbury","state_id":872,"state_code":"AB","state_name":"Alberta","country_id":39,"country_code":"CA","country_name":"Canada","latitude":"51.66681000","longitude":"-114.13529000","wikiDataId":"Q1743949"},{"id":16383,"Name":"Drayton Valley","state_id":872,"state_code":"AB","state_name":"Alberta","country_id":39,"country_code":"CA","country_name":"Canada","latitude":"53.21682000","longitude":"-114.98544000","wikiDataId":"Q1022731"},{"id":16396,"Name":"Edmonton","state_id":872,"state_code":"AB","state_name":"Alberta","country_id":39,"country_code":"CA","country_name":"Canada","latitude":"53.55014000","longitude":"-113.46871000","wikiDataId":"Q2096"},{"id":16398,"Name":"Edson","state_id":872,"state_code":"AB","state_name":"Alberta","country_id":39,"country_code":"CA","country_name":"Canada","latitude":"53.58345000","longitude":"-116.43559000","wikiDataId":"Q493025"},{"id":16399,"Name":"Elk Point","state_id":872,"state_code":"AB","state_name":"Alberta","country_id":39,"country_code":"CA","country_name":"Canada","latitude":"53.90017000","longitude":"-110.90170000","wikiDataId":"Q2093074"},{"id":16413,"Name":"Fairview","state_id":872,"state_code":"AB","state_name":"Alberta","country_id":39,"country_code":"CA","country_name":"Canada","latitude":"56.06675000","longitude":"-118.38606000","wikiDataId":"Q1743603"},{"id":16415,"Name":"Falher","state_id":872,"state_code":"AB","state_name":"Alberta","country_id":39,"country_code":"CA","country_name":"Canada","latitude":"55.73339000","longitude":"-117.20262000","wikiDataId":"Q1744221"},{"id":16429,"Name":"Fort Macleod","state_id":872,"state_code":"AB","state_name":"Alberta","country_id":39,"country_code":"CA","country_name":"Canada","latitude":"49.71671000","longitude":"-113.41857000","wikiDataId":"Q2128700"},{"id":16430,"Name":"Fort McMurray","state_id":872,"state_code":"AB","state_name":"Alberta","country_id":39,"country_code":"CA","country_name":"Canada","latitude":"56.72676000","longitude":"-111.38103000","wikiDataId":"Q2128700"},{"id":16433,"Name":"Fort Saskatchewan","state_id":872,"state_code":"AB","state_name":"Alberta","country_id":39,"country_code":"CA","country_name":"Canada","latitude":"53.71684000","longitude":"-113.21870000","wikiDataId":"Q1007407"},{"id":16438,"Name":"Fox Creek","state_id":872,"state_code":"AB","state_name":"Alberta","country_id":39,"country_code":"CA","country_name":"Canada","latitude":"54.40007000","longitude":"-116.80238000","wikiDataId":"Q5476673"},{"id":16450,"Name":"Gibbons","state_id":872,"state_code":"AB","state_name":"Alberta","country_id":39,"country_code":"CA","country_name":"Canada","latitude":"53.83345000","longitude":"-113.33531000","wikiDataId":"Q2650984"},{"id":16463,"Name":"Grand Centre","state_id":872,"state_code":"AB","state_name":"Alberta","country_id":39,"country_code":"CA","country_name":"Canada","latitude":"54.41628000","longitude":"-110.21304000","wikiDataId":"Q3113519"},{"id":16466,"Name":"Grande Cache","state_id":872,"state_code":"AB","state_name":"Alberta","country_id":39,"country_code":"CA","country_name":"Canada","latitude":"53.88335000","longitude":"-119.13585000","wikiDataId":"Q1542954"},{"id":16467,"Name":"Grande Prairie","state_id":872,"state_code":"AB","state_name":"Alberta","country_id":39,"country_code":"CA","country_name":"Canada","latitude":"55.16667000","longitude":"-118.80271000","wikiDataId":"Q642900"},{"id":16476,"Name":"Grimshaw","state_id":872,"state_code":"AB","state_name":"Alberta","country_id":39,"country_code":"CA","country_name":"Canada","latitude":"56.18339000","longitude":"-117.60270000","wikiDataId":"Q5609343"},{"id":16488,"Name":"Hanna","state_id":872,"state_code":"AB","state_name":"Alberta","country_id":39,"country_code":"CA","country_name":"Canada","latitude":"51.63343000","longitude":"-111.90181000","wikiDataId":"Q747623"},{"id":16502,"Name":"Heritage Pointe","state_id":872,"state_code":"AB","state_name":"Alberta","country_id":39,"country_code":"CA","country_name":"Canada","latitude":"50.84213000","longitude":"-114.00493000","wikiDataId":"Q2270394"},{"id":16503,"Name":"High Level","state_id":872,"state_code":"AB","state_name":"Alberta","country_id":39,"country_code":"CA","country_name":"Canada","latitude":"58.51688000","longitude":"-117.13605000","wikiDataId":"Q430949"},{"id":16504,"Name":"High Prairie","state_id":872,"state_code":"AB","state_name":"Alberta","country_id":39,"country_code":"CA","country_name":"Canada","latitude":"55.43340000","longitude":"-116.48580000","wikiDataId":"Q1743462"},{"id":16505,"Name":"High River","state_id":872,"state_code":"AB","state_name":"Alberta","country_id":39,"country_code":"CA","country_name":"Canada","latitude":"50.58341000","longitude":"-113.86867000","wikiDataId":"Q1743705"},{"id":16506,"Name":"Hinton","state_id":872,"state_code":"AB","state_name":"Alberta","country_id":39,"country_code":"CA","country_name":"Canada","latitude":"53.40009000","longitude":"-117.58567000","wikiDataId":"Q1016692"},{"id":16526,"Name":"Irricana","state_id":872,"state_code":"AB","state_name":"Alberta","country_id":39,"country_code":"CA","country_name":"Canada","latitude":"51.32372000","longitude":"-113.60475000","wikiDataId":"Q2003126"},{"id":16528,"Name":"Jasper Park Lodge","state_id":872,"state_code":"AB","state_name":"Alberta","country_id":39,"country_code":"CA","country_name":"Canada","latitude":"52.88633000","longitude":"-118.05625000","wikiDataId":"Q6161208"},{"id":16543,"Name":"Killam","state_id":872,"state_code":"AB","state_name":"Alberta","country_id":39,"country_code":"CA","country_name":"Canada","latitude":"52.78344000","longitude":"-111.85175000","wikiDataId":"Q1004121"},{"id":16575,"Name":"Lac La Biche","state_id":872,"state_code":"AB","state_name":"Alberta","country_id":39,"country_code":"CA","country_name":"Canada","latitude":"54.76690000","longitude":"-111.96861000","wikiDataId":"Q984088"},{"id":16585,"Name":"Lacombe","state_id":872,"state_code":"AB","state_name":"Alberta","country_id":39,"country_code":"CA","country_name":"Canada","latitude":"52.46681000","longitude":"-113.73530000","wikiDataId":"Q1743833"},{"id":16592,"Name":"Lamont","state_id":872,"state_code":"AB","state_name":"Alberta","country_id":39,"country_code":"CA","country_name":"Canada","latitude":"53.76686000","longitude":"-112.80195000","wikiDataId":"Q1743848"},{"id":16602,"Name":"Larkspur","state_id":872,"state_code":"AB","state_name":"Alberta","country_id":39,"country_code":"CA","country_name":"Canada","latitude":"53.47942000","longitude":"-113.38142000","wikiDataId":"Q3217608"},{"id":16603,"Name":"Laurel","state_id":872,"state_code":"AB","state_name":"Alberta","country_id":39,"country_code":"CA","country_name":"Canada","latitude":"53.44667000","longitude":"-113.38197000","wikiDataId":"Q3217608"},{"id":16610,"Name":"Leduc","state_id":872,"state_code":"AB","state_name":"Alberta","country_id":39,"country_code":"CA","country_name":"Canada","latitude":"53.26682000","longitude":"-113.55201000","wikiDataId":"Q1207513"},{"id":16614,"Name":"Lethbridge","state_id":872,"state_code":"AB","state_name":"Alberta","country_id":39,"country_code":"CA","country_name":"Canada","latitude":"49.69999000","longitude":"-112.81856000","wikiDataId":"Q270887"},{"id":16625,"Name":"Lloydminster","state_id":872,"state_code":"AB","state_name":"Alberta","country_id":39,"country_code":"CA","country_name":"Canada","latitude":"53.27237000","longitude":"-110.02256000","wikiDataId":"Q985674"},{"id":16645,"Name":"Magrath","state_id":872,"state_code":"AB","state_name":"Alberta","country_id":39,"country_code":"CA","country_name":"Canada","latitude":"49.41668000","longitude":"-112.86856000","wikiDataId":"Q608478"},{"id":16653,"Name":"Manning","state_id":872,"state_code":"AB","state_name":"Alberta","country_id":39,"country_code":"CA","country_name":"Canada","latitude":"56.91683000","longitude":"-117.61945000","wikiDataId":"Q955573"},{"id":16654,"Name":"Mannville","state_id":872,"state_code":"AB","state_name":"Alberta","country_id":39,"country_code":"CA","country_name":"Canada","latitude":"53.33764000","longitude":"-111.17750000","wikiDataId":"Q955573"},{"id":16657,"Name":"Maple Ridge","state_id":872,"state_code":"AB","state_name":"Alberta","country_id":39,"country_code":"CA","country_name":"Canada","latitude":"53.50172000","longitude":"-113.36274000","wikiDataId":"Q16740"},{"id":16671,"Name":"Mayerthorpe","state_id":872,"state_code":"AB","state_name":"Alberta","country_id":39,"country_code":"CA","country_name":"Canada","latitude":"53.95015000","longitude":"-115.13547000","wikiDataId":"Q2356021"},{"id":16675,"Name":"Medicine Hat","state_id":872,"state_code":"AB","state_name":"Alberta","country_id":39,"country_code":"CA","country_name":"Canada","latitude":"50.03928000","longitude":"-110.67661000","wikiDataId":"Q368241"},{"id":16689,"Name":"Mill Woods Town Centre","state_id":872,"state_code":"AB","state_name":"Alberta","country_id":39,"country_code":"CA","country_name":"Canada","latitude":"53.45639000","longitude":"-113.42751000","wikiDataId":"Q6850915"},{"id":16691,"Name":"Millet","state_id":872,"state_code":"AB","state_name":"Alberta","country_id":39,"country_code":"CA","country_name":"Canada","latitude":"53.10013000","longitude":"-113.46870000","wikiDataId":"Q1911758"},{"id":16719,"Name":"Morinville","state_id":872,"state_code":"AB","state_name":"Alberta","country_id":39,"country_code":"CA","country_name":"Canada","latitude":"53.80014000","longitude":"-113.65203000","wikiDataId":"Q1746026"},{"id":16729,"Name":"Nanton","state_id":872,"state_code":"AB","state_name":"Alberta","country_id":39,"country_code":"CA","country_name":"Canada","latitude":"50.35008000","longitude":"-113.76866000","wikiDataId":"Q1744143"},{"id":16774,"Name":"Okotoks","state_id":872,"state_code":"AB","state_name":"Alberta","country_id":39,"country_code":"CA","country_name":"Canada","latitude":"50.72885000","longitude":"-113.98281000","wikiDataId":"Q1363726"},{"id":16775,"Name":"Olds","state_id":872,"state_code":"AB","state_name":"Alberta","country_id":39,"country_code":"CA","country_name":"Canada","latitude":"51.78341000","longitude":"-114.10199000","wikiDataId":"Q991692"},{"id":16803,"Name":"Peace River","state_id":872,"state_code":"AB","state_name":"Alberta","country_id":39,"country_code":"CA","country_name":"Canada","latitude":"56.23715000","longitude":"-117.29176000","wikiDataId":"Q1743985"},{"id":16810,"Name":"Penhold","state_id":872,"state_code":"AB","state_name":"Alberta","country_id":39,"country_code":"CA","country_name":"Canada","latitude":"52.13342000","longitude":"-113.86870000","wikiDataId":"Q3921021"},{"id":16820,"Name":"Picture Butte","state_id":872,"state_code":"AB","state_name":"Alberta","country_id":39,"country_code":"CA","country_name":"Canada","latitude":"49.88330000","longitude":"-112.78516000","wikiDataId":"Q4464252"},{"id":16824,"Name":"Pincher Creek","state_id":872,"state_code":"AB","state_name":"Alberta","country_id":39,"country_code":"CA","country_name":"Canada","latitude":"49.48328000","longitude":"-113.95195000","wikiDataId":"Q1744046"},{"id":16834,"Name":"Ponoka","state_id":872,"state_code":"AB","state_name":"Alberta","country_id":39,"country_code":"CA","country_name":"Canada","latitude":"52.67680000","longitude":"-113.58147000","wikiDataId":"Q1744063"},{"id":16861,"Name":"Provost","state_id":872,"state_code":"AB","state_name":"Alberta","country_id":39,"country_code":"CA","country_name":"Canada","latitude":"52.35014000","longitude":"-110.26828000","wikiDataId":"Q1744077"},{"id":16871,"Name":"Raymond","state_id":872,"state_code":"AB","state_name":"Alberta","country_id":39,"country_code":"CA","country_name":"Canada","latitude":"49.44998000","longitude":"-112.65185000","wikiDataId":"Q1001461"},{"id":16873,"Name":"Red Deer","state_id":872,"state_code":"AB","state_name":"Alberta","country_id":39,"country_code":"CA","country_name":"Canada","latitude":"52.26682000","longitude":"-113.80200000","wikiDataId":"Q23025"},{"id":16889,"Name":"Rideau Park","state_id":872,"state_code":"AB","state_name":"Alberta","country_id":39,"country_code":"CA","country_name":"Canada","latitude":"53.47899000","longitude":"-113.50470000","wikiDataId":"Q52998"},{"id":16892,"Name":"Rimbey","state_id":872,"state_code":"AB","state_name":"Alberta","country_id":39,"country_code":"CA","country_name":"Canada","latitude":"52.63340000","longitude":"-114.23532000","wikiDataId":"Q7334420"},{"id":16901,"Name":"Rocky Mountain House","state_id":872,"state_code":"AB","state_name":"Alberta","country_id":39,"country_code":"CA","country_name":"Canada","latitude":"52.36683000","longitude":"-114.91880000","wikiDataId":"Q1743575"},{"id":17029,"Name":"Sexsmith","state_id":872,"state_code":"AB","state_name":"Alberta","country_id":39,"country_code":"CA","country_name":"Canada","latitude":"55.34998000","longitude":"-118.78602000","wikiDataId":"Q1008802"},{"id":17040,"Name":"Sherwood Park","state_id":872,"state_code":"AB","state_name":"Alberta","country_id":39,"country_code":"CA","country_name":"Canada","latitude":"53.51684000","longitude":"-113.31870000","wikiDataId":"Q139473"},{"id":17044,"Name":"Silver Berry","state_id":872,"state_code":"AB","state_name":"Alberta","country_id":39,"country_code":"CA","country_name":"Canada","latitude":"53.45787000","longitude":"-113.38170000","wikiDataId":"Q7507390"},{"id":17049,"Name":"Slave Lake","state_id":872,"state_code":"AB","state_name":"Alberta","country_id":39,"country_code":"CA","country_name":"Canada","latitude":"55.28344000","longitude":"-114.76896000","wikiDataId":"Q163977"},{"id":17052,"Name":"Smoky Lake","state_id":872,"state_code":"AB","state_name":"Alberta","country_id":39,"country_code":"CA","country_name":"Canada","latitude":"54.11687000","longitude":"-112.46863000","wikiDataId":"Q1744205"},{"id":17061,"Name":"Spirit River","state_id":872,"state_code":"AB","state_name":"Alberta","country_id":39,"country_code":"CA","country_name":"Canada","latitude":"55.78327000","longitude":"-118.83607000","wikiDataId":"Q1744192"},{"id":17062,"Name":"Springbrook","state_id":872,"state_code":"AB","state_name":"Alberta","country_id":39,"country_code":"CA","country_name":"Canada","latitude":"52.17920000","longitude":"-113.87981000","wikiDataId":"Q1744192"},{"id":17065,"Name":"Spruce Grove","state_id":872,"state_code":"AB","state_name":"Alberta","country_id":39,"country_code":"CA","country_name":"Canada","latitude":"53.53344000","longitude":"-113.91874000","wikiDataId":"Q1013456"},{"id":17068,"Name":"St. Albert","state_id":872,"state_code":"AB","state_name":"Alberta","country_id":39,"country_code":"CA","country_name":"Canada","latitude":"53.63344000","longitude":"-113.63533000","wikiDataId":"Q939127"},{"id":17078,"Name":"Stettler","state_id":872,"state_code":"AB","state_name":"Alberta","country_id":39,"country_code":"CA","country_name":"Canada","latitude":"52.31683000","longitude":"-112.71861000","wikiDataId":"Q1746019"},{"id":17082,"Name":"Stony Plain","state_id":872,"state_code":"AB","state_name":"Alberta","country_id":39,"country_code":"CA","country_name":"Canada","latitude":"53.53343000","longitude":"-114.00205000","wikiDataId":"Q1744021"},{"id":17084,"Name":"Strathmore","state_id":872,"state_code":"AB","state_name":"Alberta","country_id":39,"country_code":"CA","country_name":"Canada","latitude":"51.05011000","longitude":"-113.38523000","wikiDataId":"Q1018325"},{"id":17088,"Name":"Sundre","state_id":872,"state_code":"AB","state_name":"Alberta","country_id":39,"country_code":"CA","country_name":"Canada","latitude":"51.80010000","longitude":"-114.63532000","wikiDataId":"Q3243949"},{"id":17092,"Name":"Swan Hills","state_id":872,"state_code":"AB","state_name":"Alberta","country_id":39,"country_code":"CA","country_name":"Canada","latitude":"54.71681000","longitude":"-115.40226000","wikiDataId":"Q928787"},{"id":17097,"Name":"Sylvan Lake","state_id":872,"state_code":"AB","state_name":"Alberta","country_id":39,"country_code":"CA","country_name":"Canada","latitude":"52.31100000","longitude":"-114.08375000","wikiDataId":"Q2046751"},{"id":17098,"Name":"Taber","state_id":872,"state_code":"AB","state_name":"Alberta","country_id":39,"country_code":"CA","country_name":"Canada","latitude":"49.78703000","longitude":"-112.14603000","wikiDataId":"Q1746037"},{"id":17099,"Name":"Tamarack","state_id":872,"state_code":"AB","state_name":"Alberta","country_id":39,"country_code":"CA","country_name":"Canada","latitude":"53.46441000","longitude":"-113.36235000","wikiDataId":"Q1746037"},{"id":17110,"Name":"Three Hills","state_id":872,"state_code":"AB","state_name":"Alberta","country_id":39,"country_code":"CA","country_name":"Canada","latitude":"51.70012000","longitude":"-113.26863000","wikiDataId":"Q1743795"},{"id":17118,"Name":"Tofield","state_id":872,"state_code":"AB","state_name":"Alberta","country_id":39,"country_code":"CA","country_name":"Canada","latitude":"53.36684000","longitude":"-112.66862000","wikiDataId":"Q2146186"},{"id":17131,"Name":"Two Hills","state_id":872,"state_code":"AB","state_name":"Alberta","country_id":39,"country_code":"CA","country_name":"Canada","latitude":"53.71686000","longitude":"-111.75181000","wikiDataId":"Q1746071"},{"id":17143,"Name":"Valleyview","state_id":872,"state_code":"AB","state_name":"Alberta","country_id":39,"country_code":"CA","country_name":"Canada","latitude":"55.06673000","longitude":"-117.28585000","wikiDataId":"Q1743736"},{"id":17151,"Name":"Vegreville","state_id":872,"state_code":"AB","state_name":"Alberta","country_id":39,"country_code":"CA","country_name":"Canada","latitude":"53.50015000","longitude":"-112.05182000","wikiDataId":"Q1276220"},{"id":17154,"Name":"Vermilion","state_id":872,"state_code":"AB","state_name":"Alberta","country_id":39,"country_code":"CA","country_name":"Canada","latitude":"53.35409000","longitude":"-110.85849000","wikiDataId":"Q3845986"},{"id":17158,"Name":"Viking","state_id":872,"state_code":"AB","state_name":"Alberta","country_id":39,"country_code":"CA","country_name":"Canada","latitude":"53.10014000","longitude":"-111.76844000","wikiDataId":"Q3558263"},{"id":17163,"Name":"Vulcan","state_id":872,"state_code":"AB","state_name":"Alberta","country_id":39,"country_code":"CA","country_name":"Canada","latitude":"50.40008000","longitude":"-113.25189000","wikiDataId":"Q1746129"},{"id":17166,"Name":"Wainwright","state_id":872,"state_code":"AB","state_name":"Alberta","country_id":39,"country_code":"CA","country_name":"Canada","latitude":"52.83482000","longitude":"-110.85342000","wikiDataId":"Q835304"},{"id":17187,"Name":"Wembley","state_id":872,"state_code":"AB","state_name":"Alberta","country_id":39,"country_code":"CA","country_name":"Canada","latitude":"55.14995000","longitude":"-119.13602000","wikiDataId":"Q7982171"},{"id":17194,"Name":"Westlake","state_id":872,"state_code":"AB","state_name":"Alberta","country_id":39,"country_code":"CA","country_name":"Canada","latitude":"55.22228000","longitude":"-118.80415000","wikiDataId":"Q991329"},{"id":17195,"Name":"Westlock","state_id":872,"state_code":"AB","state_name":"Alberta","country_id":39,"country_code":"CA","country_name":"Canada","latitude":"54.15016000","longitude":"-113.86876000","wikiDataId":"Q1004113"},{"id":17197,"Name":"Wetaskiwin","state_id":872,"state_code":"AB","state_name":"Alberta","country_id":39,"country_code":"CA","country_name":"Canada","latitude":"52.96683000","longitude":"-113.36869000","wikiDataId":"Q950050"},{"id":17203,"Name":"Whitecourt","state_id":872,"state_code":"AB","state_name":"Alberta","country_id":39,"country_code":"CA","country_name":"Canada","latitude":"54.15015000","longitude":"-115.68548000","wikiDataId":"Q984214"},{"id":17205,"Name":"Wild Rose","state_id":872,"state_code":"AB","state_name":"Alberta","country_id":39,"country_code":"CA","country_name":"Canada","latitude":"53.47080000","longitude":"-113.38119000","wikiDataId":"Q2058"}]