[{"id":19148,"Name":"Bankim","state_id":2663,"state_code":"AD","state_name":"Adamawa","country_id":38,"country_code":"CM","country_name":"Cameroon","latitude":"6.08303000","longitude":"11.49050000","wikiDataId":"Q2629132"},{"id":19150,"Name":"Banyo","state_id":2663,"state_code":"AD","state_name":"Adamawa","country_id":38,"country_code":"CM","country_name":"Cameroon","latitude":"6.75000000","longitude":"11.81667000","wikiDataId":"Q520600"},{"id":19162,"Name":"Bélel","state_id":2663,"state_code":"AD","state_name":"Adamawa","country_id":38,"country_code":"CM","country_name":"Cameroon","latitude":"7.05000000","longitude":"14.43333000","wikiDataId":"Q2929807"},{"id":19168,"Name":"Djohong","state_id":2663,"state_code":"AD","state_name":"Adamawa","country_id":38,"country_code":"CM","country_name":"Cameroon","latitude":"6.83333000","longitude":"14.70000000","wikiDataId":"Q1100817"},{"id":19187,"Name":"Kontcha","state_id":2663,"state_code":"AD","state_name":"Adamawa","country_id":38,"country_code":"CM","country_name":"Cameroon","latitude":"7.96667000","longitude":"12.23333000","wikiDataId":"Q2443778"},{"id":19203,"Name":"Mayo-Banyo","state_id":2663,"state_code":"AD","state_name":"Adamawa","country_id":38,"country_code":"CM","country_name":"Cameroon","latitude":"6.58138000","longitude":"11.73522000","wikiDataId":"Q2443291"},{"id":19218,"Name":"Meïganga","state_id":2663,"state_code":"AD","state_name":"Adamawa","country_id":38,"country_code":"CM","country_name":"Cameroon","latitude":"6.51667000","longitude":"14.30000000","wikiDataId":"Q2629052"},{"id":19236,"Name":"Ngaoundéré","state_id":2663,"state_code":"AD","state_name":"Adamawa","country_id":38,"country_code":"CM","country_name":"Cameroon","latitude":"7.32765000","longitude":"13.58472000","wikiDataId":"Q745906"},{"id":19256,"Name":"Somié","state_id":2663,"state_code":"AD","state_name":"Adamawa","country_id":38,"country_code":"CM","country_name":"Cameroon","latitude":"6.45843000","longitude":"11.43299000","wikiDataId":"Q2708780"},{"id":19258,"Name":"Tibati","state_id":2663,"state_code":"AD","state_name":"Adamawa","country_id":38,"country_code":"CM","country_name":"Cameroon","latitude":"6.46504000","longitude":"12.62843000","wikiDataId":"Q2005262"},{"id":19259,"Name":"Tignère","state_id":2663,"state_code":"AD","state_name":"Adamawa","country_id":38,"country_code":"CM","country_name":"Cameroon","latitude":"7.36667000","longitude":"12.65000000","wikiDataId":"Q2005262"},{"id":19262,"Name":"Vina","state_id":2663,"state_code":"AD","state_name":"Adamawa","country_id":38,"country_code":"CM","country_name":"Cameroon","latitude":"7.16365000","longitude":"13.72711000","wikiDataId":"Q667019"}]