[{"id":76876,"Name":"Ganye","state_id":320,"state_code":"AD","state_name":"Adamawa","country_id":161,"country_code":"NG","country_name":"Nigeria","latitude":"8.43497000","longitude":"12.05107000","wikiDataId":"Q3056264"},{"id":76885,"Name":"Gombi","state_id":320,"state_code":"AD","state_name":"Adamawa","country_id":161,"country_code":"NG","country_name":"Nigeria","latitude":"10.16756000","longitude":"12.73684000","wikiDataId":"Q591598"},{"id":76904,"Name":"Holma","state_id":320,"state_code":"AD","state_name":"Adamawa","country_id":161,"country_code":"NG","country_name":"Nigeria","latitude":"9.89863000","longitude":"13.05450000","wikiDataId":"Q5637733"},{"id":76962,"Name":"Jimeta","state_id":320,"state_code":"AD","state_name":"Adamawa","country_id":161,"country_code":"NG","country_name":"Nigeria","latitude":"9.27949000","longitude":"12.45819000","wikiDataId":"Q1689268"},{"id":77013,"Name":"Madagali","state_id":320,"state_code":"AD","state_name":"Adamawa","country_id":161,"country_code":"NG","country_name":"Nigeria","latitude":"10.88942000","longitude":"13.62832000","wikiDataId":"Q8673"},{"id":77027,"Name":"Mayo-Belwa","state_id":320,"state_code":"AD","state_name":"Adamawa","country_id":161,"country_code":"NG","country_name":"Nigeria","latitude":"9.05421000","longitude":"12.05794000","wikiDataId":"Q994096"},{"id":77035,"Name":"Mubi","state_id":320,"state_code":"AD","state_name":"Adamawa","country_id":161,"country_code":"NG","country_name":"Nigeria","latitude":"10.26858000","longitude":"13.26701000","wikiDataId":"Q1951627"},{"id":77041,"Name":"Ngurore","state_id":320,"state_code":"AD","state_name":"Adamawa","country_id":161,"country_code":"NG","country_name":"Nigeria","latitude":"9.28871000","longitude":"12.24026000","wikiDataId":"Q1951627"},{"id":77046,"Name":"Numan","state_id":320,"state_code":"AD","state_name":"Adamawa","country_id":161,"country_code":"NG","country_name":"Nigeria","latitude":"9.46374000","longitude":"12.03062000","wikiDataId":"Q2750772"},{"id":77114,"Name":"Toungo","state_id":320,"state_code":"AD","state_name":"Adamawa","country_id":161,"country_code":"NG","country_name":"Nigeria","latitude":"8.11733000","longitude":"12.04611000","wikiDataId":"Q336350"},{"id":77146,"Name":"Yola","state_id":320,"state_code":"AD","state_name":"Adamawa","country_id":161,"country_code":"NG","country_name":"Nigeria","latitude":"9.20839000","longitude":"12.48146000","wikiDataId":"Q994114"}]