[{"id":111081,"Name":"Akutan","state_id":1400,"state_code":"AK","state_name":"Alaska","country_id":233,"country_code":"US","country_name":"United States","latitude":"54.13350000","longitude":"-165.77686000","wikiDataId":"Q79354"},{"id":111143,"Name":"Aleutians East Borough","state_id":1400,"state_code":"AK","state_name":"Alaska","country_id":233,"country_code":"US","country_name":"United States","latitude":"54.85000000","longitude":"-163.41667000","wikiDataId":"Q504371"},{"id":111144,"Name":"Aleutians West Census Area","state_id":1400,"state_code":"AK","state_name":"Alaska","country_id":233,"country_code":"US","country_name":"United States","latitude":"52.16298000","longitude":"-174.28505000","wikiDataId":"Q185533"},{"id":111303,"Name":"Anchor Point","state_id":1400,"state_code":"AK","state_name":"Alaska","country_id":233,"country_code":"US","country_name":"United States","latitude":"59.77667000","longitude":"-151.83139000","wikiDataId":"Q489206"},{"id":111305,"Name":"Anchorage","state_id":1400,"state_code":"AK","state_name":"Alaska","country_id":233,"country_code":"US","country_name":"United States","latitude":"61.21806000","longitude":"-149.90028000","wikiDataId":"Q39450"},{"id":111306,"Name":"Anchorage Municipality","state_id":1400,"state_code":"AK","state_name":"Alaska","country_id":233,"country_code":"US","country_name":"United States","latitude":"61.16667000","longitude":"-149.25056000","wikiDataId":"Q49297981"},{"id":111724,"Name":"Badger","state_id":1400,"state_code":"AK","state_name":"Alaska","country_id":233,"country_code":"US","country_name":"United States","latitude":"64.80000000","longitude":"-147.53333000","wikiDataId":"Q600967"},{"id":111852,"Name":"Barrow","state_id":1400,"state_code":"AK","state_name":"Alaska","country_id":233,"country_code":"US","country_name":"United States","latitude":"71.29058000","longitude":"-156.78872000","wikiDataId":"Q79809"},{"id":111976,"Name":"Bear Creek","state_id":1400,"state_code":"AK","state_name":"Alaska","country_id":233,"country_code":"US","country_name":"United States","latitude":"60.16417000","longitude":"-149.39500000","wikiDataId":"Q2117474"},{"id":112281,"Name":"Bethel","state_id":1400,"state_code":"AK","state_name":"Alaska","country_id":233,"country_code":"US","country_name":"United States","latitude":"60.79222000","longitude":"-161.75583000","wikiDataId":"Q80022"},{"id":112284,"Name":"Bethel Census Area","state_id":1400,"state_code":"AK","state_name":"Alaska","country_id":233,"country_code":"US","country_name":"United States","latitude":"60.75056000","longitude":"-160.50056000","wikiDataId":"Q500312"},{"id":112325,"Name":"Big Lake","state_id":1400,"state_code":"AK","state_name":"Alaska","country_id":233,"country_code":"US","country_name":"United States","latitude":"61.52139000","longitude":"-149.95444000","wikiDataId":"Q859012"},{"id":112813,"Name":"Bristol Bay Borough","state_id":1400,"state_code":"AK","state_name":"Alaska","country_id":233,"country_code":"US","country_name":"United States","latitude":"58.75056000","longitude":"-156.83333000","wikiDataId":"Q501130"},{"id":113124,"Name":"Butte","state_id":1400,"state_code":"AK","state_name":"Alaska","country_id":233,"country_code":"US","country_name":"United States","latitude":"61.54222000","longitude":"-149.03333000","wikiDataId":"Q1018029"},{"id":113917,"Name":"Chevak","state_id":1400,"state_code":"AK","state_name":"Alaska","country_id":233,"country_code":"US","country_name":"United States","latitude":"61.52778000","longitude":"-165.58639000","wikiDataId":"Q79343"},{"id":114045,"Name":"City and Borough of Wrangell","state_id":1400,"state_code":"AK","state_name":"Alaska","country_id":233,"country_code":"US","country_name":"United States","latitude":"56.41331000","longitude":"-132.32009000","wikiDataId":"Q949191"},{"id":114374,"Name":"Cohoe","state_id":1400,"state_code":"AK","state_name":"Alaska","country_id":233,"country_code":"US","country_name":"United States","latitude":"60.36861000","longitude":"-151.30639000","wikiDataId":"Q2642177"},{"id":114412,"Name":"College","state_id":1400,"state_code":"AK","state_name":"Alaska","country_id":233,"country_code":"US","country_name":"United States","latitude":"64.85694000","longitude":"-147.80278000","wikiDataId":"Q996048"},{"id":114640,"Name":"Cordova","state_id":1400,"state_code":"AK","state_name":"Alaska","country_id":233,"country_code":"US","country_name":"United States","latitude":"60.54320000","longitude":"-145.75867000","wikiDataId":"Q79607"},{"id":114756,"Name":"Craig","state_id":1400,"state_code":"AK","state_name":"Alaska","country_id":233,"country_code":"US","country_name":"United States","latitude":"55.47639000","longitude":"-133.14833000","wikiDataId":"Q3002001"},{"id":115227,"Name":"Deltana","state_id":1400,"state_code":"AK","state_name":"Alaska","country_id":233,"country_code":"US","country_name":"United States","latitude":"63.87217000","longitude":"-145.21773000","wikiDataId":"Q312149"},{"id":115235,"Name":"Denali Borough","state_id":1400,"state_code":"AK","state_name":"Alaska","country_id":233,"country_code":"US","country_name":"United States","latitude":"63.78889000","longitude":"-150.19167000","wikiDataId":"Q179950"},{"id":115315,"Name":"Diamond Ridge","state_id":1400,"state_code":"AK","state_name":"Alaska","country_id":233,"country_code":"US","country_name":"United States","latitude":"59.67611000","longitude":"-151.55750000","wikiDataId":"Q2740303"},{"id":115340,"Name":"Dillingham","state_id":1400,"state_code":"AK","state_name":"Alaska","country_id":233,"country_code":"US","country_name":"United States","latitude":"59.03972000","longitude":"-158.45750000","wikiDataId":"Q79383"},{"id":115341,"Name":"Dillingham Census Area","state_id":1400,"state_code":"AK","state_name":"Alaska","country_id":233,"country_code":"US","country_name":"United States","latitude":"59.76193000","longitude":"-158.31848000","wikiDataId":"Q277728"},{"id":115578,"Name":"Dutch Harbor","state_id":1400,"state_code":"AK","state_name":"Alaska","country_id":233,"country_code":"US","country_name":"United States","latitude":"53.88980000","longitude":"-166.54220000","wikiDataId":"Q777022"},{"id":115612,"Name":"Eagle River","state_id":1400,"state_code":"AK","state_name":"Alaska","country_id":233,"country_code":"US","country_name":"United States","latitude":"61.32139000","longitude":"-149.56778000","wikiDataId":"Q5325228"},{"id":115909,"Name":"Eielson Air Force Base","state_id":1400,"state_code":"AK","state_name":"Alaska","country_id":233,"country_code":"US","country_name":"United States","latitude":"64.66327000","longitude":"-147.05442000","wikiDataId":"Q181297"},{"id":116049,"Name":"Elmendorf Air Force Base","state_id":1400,"state_code":"AK","state_name":"Alaska","country_id":233,"country_code":"US","country_name":"United States","latitude":"61.25703000","longitude":"-149.63139000","wikiDataId":"Q972273"},{"id":116206,"Name":"Ester","state_id":1400,"state_code":"AK","state_name":"Alaska","country_id":233,"country_code":"US","country_name":"United States","latitude":"64.84722000","longitude":"-148.01444000","wikiDataId":"Q389443"},{"id":116290,"Name":"Fairbanks","state_id":1400,"state_code":"AK","state_name":"Alaska","country_id":233,"country_code":"US","country_name":"United States","latitude":"64.83778000","longitude":"-147.71639000","wikiDataId":"Q79638"},{"id":116291,"Name":"Fairbanks North Star Borough","state_id":1400,"state_code":"AK","state_name":"Alaska","country_id":233,"country_code":"US","country_name":"United States","latitude":"64.83333000","longitude":"-146.41667000","wikiDataId":"Q512901"},{"id":116401,"Name":"Farm Loop","state_id":1400,"state_code":"AK","state_name":"Alaska","country_id":233,"country_code":"US","country_name":"United States","latitude":"61.63891000","longitude":"-149.14215000","wikiDataId":"Q942831"},{"id":116404,"Name":"Farmers Loop","state_id":1400,"state_code":"AK","state_name":"Alaska","country_id":233,"country_code":"US","country_name":"United States","latitude":"64.90822000","longitude":"-147.69866000","wikiDataId":"Q980067"},{"id":116531,"Name":"Fishhook","state_id":1400,"state_code":"AK","state_name":"Alaska","country_id":233,"country_code":"US","country_name":"United States","latitude":"61.74402000","longitude":"-149.23613000","wikiDataId":"Q1420757"},{"id":116959,"Name":"Fritz Creek","state_id":1400,"state_code":"AK","state_name":"Alaska","country_id":233,"country_code":"US","country_name":"United States","latitude":"59.73611000","longitude":"-151.29528000","wikiDataId":"Q2740315"},{"id":117124,"Name":"Gateway","state_id":1400,"state_code":"AK","state_name":"Alaska","country_id":233,"country_code":"US","country_name":"United States","latitude":"61.57278000","longitude":"-149.24083000","wikiDataId":"Q225480"},{"id":117230,"Name":"Girdwood","state_id":1400,"state_code":"AK","state_name":"Alaska","country_id":233,"country_code":"US","country_name":"United States","latitude":"60.94250000","longitude":"-149.16639000","wikiDataId":"Q3055477"},{"id":117843,"Name":"Haines","state_id":1400,"state_code":"AK","state_name":"Alaska","country_id":233,"country_code":"US","country_name":"United States","latitude":"59.23595000","longitude":"-135.44533000","wikiDataId":"Q79546"},{"id":117844,"Name":"Haines Borough","state_id":1400,"state_code":"AK","state_name":"Alaska","country_id":233,"country_code":"US","country_name":"United States","latitude":"59.25056000","longitude":"-135.50056000","wikiDataId":"Q512981"},{"id":118219,"Name":"Healy","state_id":1400,"state_code":"AK","state_name":"Alaska","country_id":233,"country_code":"US","country_name":"United States","latitude":"63.85694000","longitude":"-148.96611000","wikiDataId":"Q1592383"},{"id":118597,"Name":"Homer","state_id":1400,"state_code":"AK","state_name":"Alaska","country_id":233,"country_code":"US","country_name":"United States","latitude":"59.64250000","longitude":"-151.54940000","wikiDataId":"Q79441"},{"id":118632,"Name":"Hoonah-Angoon Census Area","state_id":1400,"state_code":"AK","state_name":"Alaska","country_id":233,"country_code":"US","country_name":"United States","latitude":"57.94807000","longitude":"-134.94153000","wikiDataId":"Q500827"},{"id":118634,"Name":"Hooper Bay","state_id":1400,"state_code":"AK","state_name":"Alaska","country_id":233,"country_code":"US","country_name":"United States","latitude":"61.53111000","longitude":"-166.09667000","wikiDataId":"Q80144"},{"id":118701,"Name":"Houston","state_id":1400,"state_code":"AK","state_name":"Alaska","country_id":233,"country_code":"US","country_name":"United States","latitude":"61.63028000","longitude":"-149.81806000","wikiDataId":"Q80122"},{"id":119338,"Name":"Juneau","state_id":1400,"state_code":"AK","state_name":"Alaska","country_id":233,"country_code":"US","country_name":"United States","latitude":"58.30194000","longitude":"-134.41972000","wikiDataId":"Q29445"},{"id":119364,"Name":"Kalifornsky","state_id":1400,"state_code":"AK","state_name":"Alaska","country_id":233,"country_code":"US","country_name":"United States","latitude":"60.41833000","longitude":"-151.29000000","wikiDataId":"Q921285"},{"id":119440,"Name":"Kenai","state_id":1400,"state_code":"AK","state_name":"Alaska","country_id":233,"country_code":"US","country_name":"United States","latitude":"60.55444000","longitude":"-151.25833000","wikiDataId":"Q79422"},{"id":119441,"Name":"Kenai Peninsula Borough","state_id":1400,"state_code":"AK","state_name":"Alaska","country_id":233,"country_code":"US","country_name":"United States","latitude":"60.41667000","longitude":"-151.25056000","wikiDataId":"Q512713"},{"id":119523,"Name":"Ketchikan","state_id":1400,"state_code":"AK","state_name":"Alaska","country_id":233,"country_code":"US","country_name":"United States","latitude":"55.34180000","longitude":"-131.64757000","wikiDataId":"Q43981"},{"id":119524,"Name":"Ketchikan Gateway Borough","state_id":1400,"state_code":"AK","state_name":"Alaska","country_id":233,"country_code":"US","country_name":"United States","latitude":"55.50056000","longitude":"-131.41667000","wikiDataId":"Q506064"},{"id":119583,"Name":"King Cove","state_id":1400,"state_code":"AK","state_name":"Alaska","country_id":233,"country_code":"US","country_name":"United States","latitude":"55.06087000","longitude":"-162.31853000","wikiDataId":"Q108861"},{"id":119677,"Name":"Knik-Fairview","state_id":1400,"state_code":"AK","state_name":"Alaska","country_id":233,"country_code":"US","country_name":"United States","latitude":"61.51262000","longitude":"-149.60012000","wikiDataId":"Q1023640"},{"id":119698,"Name":"Kodiak","state_id":1400,"state_code":"AK","state_name":"Alaska","country_id":233,"country_code":"US","country_name":"United States","latitude":"57.78852000","longitude":"-152.40533000","wikiDataId":"Q79985"},{"id":119699,"Name":"Kodiak Island Borough","state_id":1400,"state_code":"AK","state_name":"Alaska","country_id":233,"country_code":"US","country_name":"United States","latitude":"57.33333000","longitude":"-153.33333000","wikiDataId":"Q514093"},{"id":119700,"Name":"Kodiak Station","state_id":1400,"state_code":"AK","state_name":"Alaska","country_id":233,"country_code":"US","country_name":"United States","latitude":"57.76587000","longitude":"-152.60004000","wikiDataId":"Q2232774"},{"id":119712,"Name":"Kotzebue","state_id":1400,"state_code":"AK","state_name":"Alaska","country_id":233,"country_code":"US","country_name":"United States","latitude":"66.89846000","longitude":"-162.59809000","wikiDataId":"Q79810"},{"id":120003,"Name":"Lake and Peninsula Borough","state_id":1400,"state_code":"AK","state_name":"Alaska","country_id":233,"country_code":"US","country_name":"United States","latitude":"57.00056000","longitude":"-158.00056000","wikiDataId":"Q511679"},{"id":120024,"Name":"Lakes","state_id":1400,"state_code":"AK","state_name":"Alaska","country_id":233,"country_code":"US","country_name":"United States","latitude":"61.60713000","longitude":"-149.30861000","wikiDataId":"Q180085"},{"id":120256,"Name":"Lazy Mountain","state_id":1400,"state_code":"AK","state_name":"Alaska","country_id":233,"country_code":"US","country_name":"United States","latitude":"61.62611000","longitude":"-148.94556000","wikiDataId":"Q928166"},{"id":121399,"Name":"Matanuska-Susitna Borough","state_id":1400,"state_code":"AK","state_name":"Alaska","country_id":233,"country_code":"US","country_name":"United States","latitude":"62.50056000","longitude":"-150.00556000","wikiDataId":"Q512925"},{"id":121561,"Name":"Meadow Lakes","state_id":1400,"state_code":"AK","state_name":"Alaska","country_id":233,"country_code":"US","country_name":"United States","latitude":"61.62472000","longitude":"-149.60111000","wikiDataId":"Q545384"},{"id":121735,"Name":"Metlakatla","state_id":1400,"state_code":"AK","state_name":"Alaska","country_id":233,"country_code":"US","country_name":"United States","latitude":"55.12848000","longitude":"-131.57519000","wikiDataId":"Q2037538"},{"id":122898,"Name":"Nikiski","state_id":1400,"state_code":"AK","state_name":"Alaska","country_id":233,"country_code":"US","country_name":"United States","latitude":"60.69028000","longitude":"-151.28889000","wikiDataId":"Q2740269"},{"id":122934,"Name":"Nome","state_id":1400,"state_code":"AK","state_name":"Alaska","country_id":233,"country_code":"US","country_name":"United States","latitude":"64.50111000","longitude":"-165.40639000","wikiDataId":"Q79996"},{"id":122935,"Name":"Nome Census Area","state_id":1400,"state_code":"AK","state_name":"Alaska","country_id":233,"country_code":"US","country_name":"United States","latitude":"64.83333000","longitude":"-163.75056000","wikiDataId":"Q503023"},{"id":123084,"Name":"North Pole","state_id":1400,"state_code":"AK","state_name":"Alaska","country_id":233,"country_code":"US","country_name":"United States","latitude":"64.75111000","longitude":"-147.34944000","wikiDataId":"Q79494"},{"id":123107,"Name":"North Slope Borough","state_id":1400,"state_code":"AK","state_name":"Alaska","country_id":233,"country_code":"US","country_name":"United States","latitude":"69.25056000","longitude":"-152.00056000","wikiDataId":"Q511806"},{"id":123173,"Name":"Northwest Arctic Borough","state_id":1400,"state_code":"AK","state_name":"Alaska","country_id":233,"country_code":"US","country_name":"United States","latitude":"66.83333000","longitude":"-161.00056000","wikiDataId":"Q511723"},{"id":123760,"Name":"Palmer","state_id":1400,"state_code":"AK","state_name":"Alaska","country_id":233,"country_code":"US","country_name":"United States","latitude":"61.59941000","longitude":"-149.11456000","wikiDataId":"Q79849"},{"id":124108,"Name":"Petersburg","state_id":1400,"state_code":"AK","state_name":"Alaska","country_id":233,"country_code":"US","country_name":"United States","latitude":"56.81250000","longitude":"-132.95556000","wikiDataId":"Q80027"},{"id":124110,"Name":"Petersburg Borough","state_id":1400,"state_code":"AK","state_name":"Alaska","country_id":233,"country_code":"US","country_name":"United States","latitude":"56.76529000","longitude":"-133.19313000","wikiDataId":"Q25408755"},{"id":124724,"Name":"Prudhoe Bay","state_id":1400,"state_code":"AK","state_name":"Alaska","country_id":233,"country_code":"US","country_name":"United States","latitude":"70.25528000","longitude":"-148.33722000","wikiDataId":"Q1013046"},{"id":125130,"Name":"Ridgeway","state_id":1400,"state_code":"AK","state_name":"Alaska","country_id":233,"country_code":"US","country_name":"United States","latitude":"60.53194000","longitude":"-151.08528000","wikiDataId":"Q1783316"},{"id":125724,"Name":"Salcha","state_id":1400,"state_code":"AK","state_name":"Alaska","country_id":233,"country_code":"US","country_name":"United States","latitude":"64.52399000","longitude":"-146.90210000","wikiDataId":"Q1936564"},{"id":125860,"Name":"Sand Point","state_id":1400,"state_code":"AK","state_name":"Alaska","country_id":233,"country_code":"US","country_name":"United States","latitude":"55.33655000","longitude":"-160.49880000","wikiDataId":"Q79400"},{"id":126187,"Name":"Seward","state_id":1400,"state_code":"AK","state_name":"Alaska","country_id":233,"country_code":"US","country_name":"United States","latitude":"60.10426000","longitude":"-149.44350000","wikiDataId":"Q79919"},{"id":126470,"Name":"Sitka","state_id":1400,"state_code":"AK","state_name":"Alaska","country_id":233,"country_code":"US","country_name":"United States","latitude":"57.05315000","longitude":"-135.33088000","wikiDataId":"Q79804"},{"id":126471,"Name":"Sitka City and Borough","state_id":1400,"state_code":"AK","state_name":"Alaska","country_id":233,"country_code":"US","country_name":"United States","latitude":"57.08255000","longitude":"-135.26917000","wikiDataId":"Q79804"},{"id":126475,"Name":"Skagway Municipality","state_id":1400,"state_code":"AK","state_name":"Alaska","country_id":233,"country_code":"US","country_name":"United States","latitude":"59.46852000","longitude":"-135.30596000","wikiDataId":"Q113892"},{"id":126567,"Name":"Soldotna","state_id":1400,"state_code":"AK","state_name":"Alaska","country_id":233,"country_code":"US","country_name":"United States","latitude":"60.48778000","longitude":"-151.05833000","wikiDataId":"Q79393"},{"id":126766,"Name":"Southeast Fairbanks Census Area","state_id":1400,"state_code":"AK","state_name":"Alaska","country_id":233,"country_code":"US","country_name":"United States","latitude":"63.75056000","longitude":"-143.25056000","wikiDataId":"Q500845"},{"id":127031,"Name":"Sterling","state_id":1400,"state_code":"AK","state_name":"Alaska","country_id":233,"country_code":"US","country_name":"United States","latitude":"60.53722000","longitude":"-150.76472000","wikiDataId":"Q1928157"},{"id":127316,"Name":"Sutton-Alpine","state_id":1400,"state_code":"AK","state_name":"Alaska","country_id":233,"country_code":"US","country_name":"United States","latitude":"61.77789000","longitude":"-148.76450000","wikiDataId":"Q607768"},{"id":127409,"Name":"Tanaina","state_id":1400,"state_code":"AK","state_name":"Alaska","country_id":233,"country_code":"US","country_name":"United States","latitude":"61.62694000","longitude":"-149.42806000","wikiDataId":"Q1729157"},{"id":127697,"Name":"Tok","state_id":1400,"state_code":"AK","state_name":"Alaska","country_id":233,"country_code":"US","country_name":"United States","latitude":"63.33667000","longitude":"-142.98556000","wikiDataId":"Q2093690"},{"id":127966,"Name":"Unalaska","state_id":1400,"state_code":"AK","state_name":"Alaska","country_id":233,"country_code":"US","country_name":"United States","latitude":"53.87413000","longitude":"-166.53408000","wikiDataId":"Q79982"},{"id":128083,"Name":"Valdez","state_id":1400,"state_code":"AK","state_name":"Alaska","country_id":233,"country_code":"US","country_name":"United States","latitude":"61.13083000","longitude":"-146.34833000","wikiDataId":"Q80037"},{"id":128084,"Name":"Valdez-Cordova Census Area","state_id":1400,"state_code":"AK","state_name":"Alaska","country_id":233,"country_code":"US","country_name":"United States","latitude":"61.50056000","longitude":"-144.50056000","wikiDataId":"Q508618"},{"id":128593,"Name":"Wasilla","state_id":1400,"state_code":"AK","state_name":"Alaska","country_id":233,"country_code":"US","country_name":"United States","latitude":"61.58090000","longitude":"-149.44150000","wikiDataId":"Q79957"},{"id":129304,"Name":"Willow","state_id":1400,"state_code":"AK","state_name":"Alaska","country_id":233,"country_code":"US","country_name":"United States","latitude":"61.74722000","longitude":"-150.03750000","wikiDataId":"Q923710"},{"id":129601,"Name":"Wrangell","state_id":1400,"state_code":"AK","state_name":"Alaska","country_id":233,"country_code":"US","country_name":"United States","latitude":"56.47083000","longitude":"-132.37667000","wikiDataId":"Q43983"},{"id":129646,"Name":"Y","state_id":1400,"state_code":"AK","state_name":"Alaska","country_id":233,"country_code":"US","country_name":"United States","latitude":"62.16129000","longitude":"-149.85075000","wikiDataId":"Q1375266"},{"id":129652,"Name":"Yakutat City and Borough","state_id":1400,"state_code":"AK","state_name":"Alaska","country_id":233,"country_code":"US","country_name":"United States","latitude":"59.66667000","longitude":"-139.13333000","wikiDataId":"Q487681"},{"id":129731,"Name":"Yukon-Koyukuk Census Area","state_id":1400,"state_code":"AK","state_name":"Alaska","country_id":233,"country_code":"US","country_name":"United States","latitude":"65.70000000","longitude":"-152.71667000","wikiDataId":"Q500818"}]