[{"id":57593,"Name":"Addanki","state_id":4017,"state_code":"AP","state_name":"Andhra Pradesh","country_id":101,"country_code":"IN","country_name":"India","latitude":"15.81061000","longitude":"79.97338000","wikiDataId":"Q2350169"},{"id":134452,"Name":"Adoni","state_id":4017,"state_code":"AP","state_name":"Andhra Pradesh","country_id":101,"country_code":"IN","country_name":"India","latitude":"15.62788000","longitude":"77.27495000","wikiDataId":"Q490906"},{"id":57620,"Name":"Akasahebpet","state_id":4017,"state_code":"AP","state_name":"Andhra Pradesh","country_id":101,"country_code":"IN","country_name":"India","latitude":"17.50455000","longitude":"82.56597000","wikiDataId":"Q582949"},{"id":57623,"Name":"Akividu","state_id":4017,"state_code":"AP","state_name":"Andhra Pradesh","country_id":101,"country_code":"IN","country_name":"India","latitude":"16.58225000","longitude":"81.38112000","wikiDataId":"Q416835"},{"id":57624,"Name":"Akkarampalle","state_id":4017,"state_code":"AP","state_name":"Andhra Pradesh","country_id":101,"country_code":"IN","country_name":"India","latitude":"13.65000000","longitude":"79.42000000","wikiDataId":"Q585782"},{"id":57658,"Name":"Amalapuram","state_id":4017,"state_code":"AP","state_name":"Andhra Pradesh","country_id":101,"country_code":"IN","country_name":"India","latitude":"16.57868000","longitude":"82.00609000","wikiDataId":"Q588625"},{"id":57690,"Name":"Amudalavalasa","state_id":4017,"state_code":"AP","state_name":"Andhra Pradesh","country_id":101,"country_code":"IN","country_name":"India","latitude":"18.41025000","longitude":"83.90295000","wikiDataId":"Q582993"},{"id":57693,"Name":"Anakapalle","state_id":4017,"state_code":"AP","state_name":"Andhra Pradesh","country_id":101,"country_code":"IN","country_name":"India","latitude":"17.69134000","longitude":"83.00395000","wikiDataId":"Q589133"},{"id":57698,"Name":"Anantapur","state_id":4017,"state_code":"AP","state_name":"Andhra Pradesh","country_id":101,"country_code":"IN","country_name":"India","latitude":"14.55000000","longitude":"77.41667000","wikiDataId":"Q15212"},{"id":57758,"Name":"Atmakur","state_id":4017,"state_code":"AP","state_name":"Andhra Pradesh","country_id":101,"country_code":"IN","country_name":"India","latitude":"15.88109000","longitude":"78.58704000","wikiDataId":"Q583995"},{"id":57761,"Name":"Attili","state_id":4017,"state_code":"AP","state_name":"Andhra Pradesh","country_id":101,"country_code":"IN","country_name":"India","latitude":"16.70000000","longitude":"81.60000000","wikiDataId":"Q4818468"},{"id":57771,"Name":"Avanigadda","state_id":4017,"state_code":"AP","state_name":"Andhra Pradesh","country_id":101,"country_code":"IN","country_name":"India","latitude":"16.02148000","longitude":"80.91808000","wikiDataId":"Q3430115"},{"id":57794,"Name":"Badvel","state_id":4017,"state_code":"AP","state_name":"Andhra Pradesh","country_id":101,"country_code":"IN","country_name":"India","latitude":"14.74510000","longitude":"79.06288000","wikiDataId":"Q3412838"},{"id":57849,"Name":"Banganapalle","state_id":4017,"state_code":"AP","state_name":"Andhra Pradesh","country_id":101,"country_code":"IN","country_name":"India","latitude":"15.31771000","longitude":"78.22669000","wikiDataId":"Q1553292"},{"id":58137,"Name":"Bapatla","state_id":4017,"state_code":"AP","state_name":"Andhra Pradesh","country_id":101,"country_code":"IN","country_name":"India","latitude":"15.90422000","longitude":"80.46743000","wikiDataId":"Q633274"},{"id":57939,"Name":"Betamcherla","state_id":4017,"state_code":"AP","state_name":"Andhra Pradesh","country_id":101,"country_code":"IN","country_name":"India","latitude":"15.45144000","longitude":"78.14797000","wikiDataId":"Q2442016"},{"id":57971,"Name":"Bhattiprolu","state_id":4017,"state_code":"AP","state_name":"Andhra Pradesh","country_id":101,"country_code":"IN","country_name":"India","latitude":"16.10260000","longitude":"80.78074000","wikiDataId":"Q3429099"},{"id":58021,"Name":"Bhimavaram","state_id":4017,"state_code":"AP","state_name":"Andhra Pradesh","country_id":101,"country_code":"IN","country_name":"India","latitude":"16.54078000","longitude":"81.52322000","wikiDataId":"Q757853"},{"id":58022,"Name":"Bhimunipatnam","state_id":4017,"state_code":"AP","state_name":"Andhra Pradesh","country_id":101,"country_code":"IN","country_name":"India","latitude":"17.89017000","longitude":"83.45203000","wikiDataId":"Q2483868"},{"id":58070,"Name":"Bobbili","state_id":4017,"state_code":"AP","state_name":"Andhra Pradesh","country_id":101,"country_code":"IN","country_name":"India","latitude":"18.57366000","longitude":"83.35925000","wikiDataId":"Q861841"},{"id":58179,"Name":"Challapalle","state_id":4017,"state_code":"AP","state_name":"Andhra Pradesh","country_id":101,"country_code":"IN","country_name":"India","latitude":"16.11756000","longitude":"80.93139000","wikiDataId":"Q2340109"},{"id":131514,"Name":"Chemmumiahpet","state_id":4017,"state_code":"AP","state_name":"Andhra Pradesh","country_id":101,"country_code":"IN","country_name":"India","latitude":"15.89794000","longitude":"79.32129000","wikiDataId":"Q886385"},{"id":131556,"Name":"Chilakalurupet","state_id":4017,"state_code":"AP","state_name":"Andhra Pradesh","country_id":101,"country_code":"IN","country_name":"India","latitude":"16.08987000","longitude":"80.16705000","wikiDataId":"Q1105252"},{"id":131563,"Name":"Chinnachowk","state_id":4017,"state_code":"AP","state_name":"Andhra Pradesh","country_id":101,"country_code":"IN","country_name":"India","latitude":"14.47516000","longitude":"78.83540000","wikiDataId":"Q721289"},{"id":131611,"Name":"Chipurupalle","state_id":4017,"state_code":"AP","state_name":"Andhra Pradesh","country_id":101,"country_code":"IN","country_name":"India","latitude":"18.31142000","longitude":"83.56846000","wikiDataId":"Q532883"},{"id":131612,"Name":"Chirala","state_id":4017,"state_code":"AP","state_name":"Andhra Pradesh","country_id":101,"country_code":"IN","country_name":"India","latitude":"15.82385000","longitude":"80.35219000","wikiDataId":"Q1193800"},{"id":131575,"Name":"Chittoor","state_id":4017,"state_code":"AP","state_name":"Andhra Pradesh","country_id":101,"country_code":"IN","country_name":"India","latitude":"13.41667000","longitude":"79.00000000","wikiDataId":"Q15213"},{"id":131577,"Name":"Chodavaram","state_id":4017,"state_code":"AP","state_name":"Andhra Pradesh","country_id":101,"country_code":"IN","country_name":"India","latitude":"17.82884000","longitude":"82.93526000","wikiDataId":"Q5103763"},{"id":131627,"Name":"Cuddapah","state_id":4017,"state_code":"AP","state_name":"Andhra Pradesh","country_id":101,"country_code":"IN","country_name":"India","latitude":"14.41667000","longitude":"78.75000000","wikiDataId":"Q15342"},{"id":131628,"Name":"Cumbum","state_id":4017,"state_code":"AP","state_name":"Andhra Pradesh","country_id":101,"country_code":"IN","country_name":"India","latitude":"15.58171000","longitude":"79.11059000","wikiDataId":"Q15342"},{"id":131658,"Name":"Darsi","state_id":4017,"state_code":"AP","state_name":"Andhra Pradesh","country_id":101,"country_code":"IN","country_name":"India","latitude":"15.76978000","longitude":"79.67939000","wikiDataId":"Q3298990"},{"id":131727,"Name":"Dharmavaram","state_id":4017,"state_code":"AP","state_name":"Andhra Pradesh","country_id":101,"country_code":"IN","country_name":"India","latitude":"14.41435000","longitude":"77.72035000","wikiDataId":"Q1948238"},{"id":131740,"Name":"Dhone","state_id":4017,"state_code":"AP","state_name":"Andhra Pradesh","country_id":101,"country_code":"IN","country_name":"India","latitude":"15.39520000","longitude":"77.87150000","wikiDataId":"Q1263568"},{"id":131769,"Name":"Diguvametta","state_id":4017,"state_code":"AP","state_name":"Andhra Pradesh","country_id":101,"country_code":"IN","country_name":"India","latitude":"15.39507000","longitude":"78.82930000","wikiDataId":"Q5276378"},{"id":131823,"Name":"East Godavari","state_id":4017,"state_code":"AP","state_name":"Andhra Pradesh","country_id":101,"country_code":"IN","country_name":"India","latitude":"17.83333000","longitude":"81.83333000","wikiDataId":"Q15338"},{"id":131830,"Name":"Elamanchili","state_id":4017,"state_code":"AP","state_name":"Andhra Pradesh","country_id":101,"country_code":"IN","country_name":"India","latitude":"17.54907000","longitude":"82.85749000","wikiDataId":"Q3415001"},{"id":131832,"Name":"Ellore","state_id":4017,"state_code":"AP","state_name":"Andhra Pradesh","country_id":101,"country_code":"IN","country_name":"India","latitude":"16.71311000","longitude":"81.10437000","wikiDataId":"Q1003496"},{"id":131836,"Name":"Emmiganur","state_id":4017,"state_code":"AP","state_name":"Andhra Pradesh","country_id":101,"country_code":"IN","country_name":"India","latitude":"15.77203000","longitude":"77.48345000","wikiDataId":"Q2734064"},{"id":131842,"Name":"Erraguntla","state_id":4017,"state_code":"AP","state_name":"Andhra Pradesh","country_id":101,"country_code":"IN","country_name":"India","latitude":"14.63853000","longitude":"78.53974000","wikiDataId":"Q720903"},{"id":131846,"Name":"Etikoppaka","state_id":4017,"state_code":"AP","state_name":"Andhra Pradesh","country_id":101,"country_code":"IN","country_name":"India","latitude":"17.50000000","longitude":"82.73333000","wikiDataId":"Q1773429"},{"id":131895,"Name":"Gajuwaka","state_id":4017,"state_code":"AP","state_name":"Andhra Pradesh","country_id":101,"country_code":"IN","country_name":"India","latitude":"17.70000000","longitude":"83.21667000","wikiDataId":"Q1524653"},{"id":131906,"Name":"Ganguvada","state_id":4017,"state_code":"AP","state_name":"Andhra Pradesh","country_id":101,"country_code":"IN","country_name":"India","latitude":"18.66667000","longitude":"84.11667000","wikiDataId":"Q186141"},{"id":131915,"Name":"Gannavaram","state_id":4017,"state_code":"AP","state_name":"Andhra Pradesh","country_id":101,"country_code":"IN","country_name":"India","latitude":"16.54092000","longitude":"80.80213000","wikiDataId":"Q5521417"},{"id":131955,"Name":"Giddalur","state_id":4017,"state_code":"AP","state_name":"Andhra Pradesh","country_id":101,"country_code":"IN","country_name":"India","latitude":"15.37439000","longitude":"78.92609000","wikiDataId":"Q207098"},{"id":131972,"Name":"Gokavaram","state_id":4017,"state_code":"AP","state_name":"Andhra Pradesh","country_id":101,"country_code":"IN","country_name":"India","latitude":"17.25823000","longitude":"81.84985000","wikiDataId":"Q5578050"},{"id":131993,"Name":"Gorantla","state_id":4017,"state_code":"AP","state_name":"Andhra Pradesh","country_id":101,"country_code":"IN","country_name":"India","latitude":"13.98411000","longitude":"77.77224000","wikiDataId":"Q3415057"},{"id":132001,"Name":"Govindapuram,Chilakaluripet,Guntur","state_id":4017,"state_code":"AP","state_name":"Andhra Pradesh","country_id":101,"country_code":"IN","country_name":"India","latitude":"16.15477000","longitude":"80.10279000","wikiDataId":"Q1707255"},{"id":132010,"Name":"Gudivada","state_id":4017,"state_code":"AP","state_name":"Andhra Pradesh","country_id":101,"country_code":"IN","country_name":"India","latitude":"16.43547000","longitude":"80.99555000","wikiDataId":"Q2350125"},{"id":132012,"Name":"Gudlavalleru","state_id":4017,"state_code":"AP","state_name":"Andhra Pradesh","country_id":101,"country_code":"IN","country_name":"India","latitude":"16.35000000","longitude":"81.05000000","wikiDataId":"Q1707438"},{"id":132051,"Name":"Gudur","state_id":4017,"state_code":"AP","state_name":"Andhra Pradesh","country_id":101,"country_code":"IN","country_name":"India","latitude":"14.15093000","longitude":"79.85210000","wikiDataId":"Q1708134"},{"id":132027,"Name":"Guntakal Junction","state_id":4017,"state_code":"AP","state_name":"Andhra Pradesh","country_id":101,"country_code":"IN","country_name":"India","latitude":"15.17112000","longitude":"77.36244000","wikiDataId":"Q586397"},{"id":132028,"Name":"Guntur","state_id":4017,"state_code":"AP","state_name":"Andhra Pradesh","country_id":101,"country_code":"IN","country_name":"India","latitude":"16.29974000","longitude":"80.45729000","wikiDataId":"Q3120966"},{"id":132099,"Name":"Hindupur","state_id":4017,"state_code":"AP","state_name":"Andhra Pradesh","country_id":101,"country_code":"IN","country_name":"India","latitude":"13.82807000","longitude":"77.49143000","wikiDataId":"Q760056"},{"id":132151,"Name":"Ichchapuram","state_id":4017,"state_code":"AP","state_name":"Andhra Pradesh","country_id":101,"country_code":"IN","country_name":"India","latitude":"19.11393000","longitude":"84.68721000","wikiDataId":"Q952228"},{"id":132189,"Name":"Jaggayyapeta","state_id":4017,"state_code":"AP","state_name":"Andhra Pradesh","country_id":101,"country_code":"IN","country_name":"India","latitude":"16.89380000","longitude":"80.09807000","wikiDataId":"Q5475354"},{"id":132228,"Name":"Jammalamadugu","state_id":4017,"state_code":"AP","state_name":"Andhra Pradesh","country_id":101,"country_code":"IN","country_name":"India","latitude":"14.84677000","longitude":"78.38314000","wikiDataId":"Q2010440"},{"id":132328,"Name":"Kadiri","state_id":4017,"state_code":"AP","state_name":"Andhra Pradesh","country_id":101,"country_code":"IN","country_name":"India","latitude":"14.11168000","longitude":"78.15982000","wikiDataId":"Q2351757"},{"id":132332,"Name":"Kaikalur","state_id":4017,"state_code":"AP","state_name":"Andhra Pradesh","country_id":101,"country_code":"IN","country_name":"India","latitude":"16.55154000","longitude":"81.21400000","wikiDataId":"Q2290801"},{"id":132678,"Name":"Kakinada","state_id":4017,"state_code":"AP","state_name":"Andhra Pradesh","country_id":101,"country_code":"IN","country_name":"India","latitude":"16.96036000","longitude":"82.23809000","wikiDataId":"Q59018"},{"id":132358,"Name":"Kalyandurg","state_id":4017,"state_code":"AP","state_name":"Andhra Pradesh","country_id":101,"country_code":"IN","country_name":"India","latitude":"14.54519000","longitude":"77.10552000","wikiDataId":"Q2738467"},{"id":132691,"Name":"Kamalapuram","state_id":4017,"state_code":"AP","state_name":"Andhra Pradesh","country_id":101,"country_code":"IN","country_name":"India","latitude":"14.59830000","longitude":"78.66948000","wikiDataId":"Q2441455"},{"id":132372,"Name":"Kandukur","state_id":4017,"state_code":"AP","state_name":"Andhra Pradesh","country_id":101,"country_code":"IN","country_name":"India","latitude":"15.21542000","longitude":"79.90390000","wikiDataId":"Q2564821"},{"id":132374,"Name":"Kanigiri","state_id":4017,"state_code":"AP","state_name":"Andhra Pradesh","country_id":101,"country_code":"IN","country_name":"India","latitude":"15.40555000","longitude":"79.50694000","wikiDataId":"Q12992748"},{"id":132376,"Name":"Kankipadu","state_id":4017,"state_code":"AP","state_name":"Andhra Pradesh","country_id":101,"country_code":"IN","country_name":"India","latitude":"16.43530000","longitude":"80.76715000","wikiDataId":"Q3428285"},{"id":132388,"Name":"Kanuru","state_id":4017,"state_code":"AP","state_name":"Andhra Pradesh","country_id":101,"country_code":"IN","country_name":"India","latitude":"16.28584000","longitude":"81.25464000","wikiDataId":"Q2564832"},{"id":132729,"Name":"Kavali","state_id":4017,"state_code":"AP","state_name":"Andhra Pradesh","country_id":101,"country_code":"IN","country_name":"India","latitude":"14.91630000","longitude":"79.99449000","wikiDataId":"Q2138686"},{"id":132552,"Name":"Kolanukonda","state_id":4017,"state_code":"AP","state_name":"Andhra Pradesh","country_id":101,"country_code":"IN","country_name":"India","latitude":"16.45392000","longitude":"80.61046000","wikiDataId":"Q6427052"},{"id":132567,"Name":"Kondapalle","state_id":4017,"state_code":"AP","state_name":"Andhra Pradesh","country_id":101,"country_code":"IN","country_name":"India","latitude":"16.61989000","longitude":"80.54244000","wikiDataId":"Q2234676"},{"id":132584,"Name":"Korukollu","state_id":4017,"state_code":"AP","state_name":"Andhra Pradesh","country_id":101,"country_code":"IN","country_name":"India","latitude":"16.50000000","longitude":"81.25000000","wikiDataId":"Q6432751"},{"id":132590,"Name":"Kosigi","state_id":4017,"state_code":"AP","state_name":"Andhra Pradesh","country_id":101,"country_code":"IN","country_name":"India","latitude":"15.85510000","longitude":"77.24463000","wikiDataId":"Q6433178"},{"id":132616,"Name":"Kovvur","state_id":4017,"state_code":"AP","state_name":"Andhra Pradesh","country_id":101,"country_code":"IN","country_name":"India","latitude":"17.01620000","longitude":"81.72934000","wikiDataId":"Q2235664"},{"id":132621,"Name":"Krishna","state_id":4017,"state_code":"AP","state_name":"Andhra Pradesh","country_id":101,"country_code":"IN","country_name":"India","latitude":"16.66667000","longitude":"81.00000000","wikiDataId":"Q15382"},{"id":132653,"Name":"Kuppam","state_id":4017,"state_code":"AP","state_name":"Andhra Pradesh","country_id":101,"country_code":"IN","country_name":"India","latitude":"12.74931000","longitude":"78.34189000","wikiDataId":"Q587868"},{"id":132660,"Name":"Kurnool","state_id":4017,"state_code":"AP","state_name":"Andhra Pradesh","country_id":101,"country_code":"IN","country_name":"India","latitude":"15.58333000","longitude":"78.33333000","wikiDataId":"Q15381"},{"id":133055,"Name":"Macherla","state_id":4017,"state_code":"AP","state_name":"Andhra Pradesh","country_id":101,"country_code":"IN","country_name":"India","latitude":"16.47635000","longitude":"79.43533000","wikiDataId":"Q2241562"},{"id":132806,"Name":"Machilipatnam","state_id":4017,"state_code":"AP","state_name":"Andhra Pradesh","country_id":101,"country_code":"IN","country_name":"India","latitude":"16.18747000","longitude":"81.13888000","wikiDataId":"Q845662"},{"id":132808,"Name":"Madanapalle","state_id":4017,"state_code":"AP","state_name":"Andhra Pradesh","country_id":101,"country_code":"IN","country_name":"India","latitude":"13.55030000","longitude":"78.50288000","wikiDataId":"Q1017723"},{"id":133059,"Name":"Madugula","state_id":4017,"state_code":"AP","state_name":"Andhra Pradesh","country_id":101,"country_code":"IN","country_name":"India","latitude":"17.91589000","longitude":"82.81578000","wikiDataId":"Q3420577"},{"id":132890,"Name":"Mandapeta","state_id":4017,"state_code":"AP","state_name":"Andhra Pradesh","country_id":101,"country_code":"IN","country_name":"India","latitude":"16.86254000","longitude":"81.92921000","wikiDataId":"Q2249065"},{"id":132891,"Name":"Mandasa","state_id":4017,"state_code":"AP","state_name":"Andhra Pradesh","country_id":101,"country_code":"IN","country_name":"India","latitude":"18.86830000","longitude":"84.46296000","wikiDataId":"Q2249065"},{"id":132902,"Name":"Mangalagiri","state_id":4017,"state_code":"AP","state_name":"Andhra Pradesh","country_id":101,"country_code":"IN","country_name":"India","latitude":"16.43083000","longitude":"80.56815000","wikiDataId":"Q2349939"},{"id":133088,"Name":"Markapur","state_id":4017,"state_code":"AP","state_name":"Andhra Pradesh","country_id":101,"country_code":"IN","country_name":"India","latitude":"15.73534000","longitude":"79.26848000","wikiDataId":"Q2087705"},{"id":133114,"Name":"Nagari","state_id":4017,"state_code":"AP","state_name":"Andhra Pradesh","country_id":101,"country_code":"IN","country_name":"India","latitude":"13.32139000","longitude":"79.58557000","wikiDataId":"Q3869911"},{"id":133258,"Name":"Nagireddipalli","state_id":4017,"state_code":"AP","state_name":"Andhra Pradesh","country_id":101,"country_code":"IN","country_name":"India","latitude":"14.27005000","longitude":"79.10131000","wikiDataId":"Q847606"},{"id":133143,"Name":"Nandigama","state_id":4017,"state_code":"AP","state_name":"Andhra Pradesh","country_id":101,"country_code":"IN","country_name":"India","latitude":"16.77170000","longitude":"80.28596000","wikiDataId":"Q3428280"},{"id":133144,"Name":"Nandikotkur","state_id":4017,"state_code":"AP","state_name":"Andhra Pradesh","country_id":101,"country_code":"IN","country_name":"India","latitude":"15.85668000","longitude":"78.26569000","wikiDataId":"Q6963320"},{"id":133146,"Name":"Nandyal","state_id":4017,"state_code":"AP","state_name":"Andhra Pradesh","country_id":101,"country_code":"IN","country_name":"India","latitude":"15.47799000","longitude":"78.48360000","wikiDataId":"Q1772751"},{"id":133156,"Name":"Narasannapeta","state_id":4017,"state_code":"AP","state_name":"Andhra Pradesh","country_id":101,"country_code":"IN","country_name":"India","latitude":"18.41428000","longitude":"84.04463000","wikiDataId":"Q3429912"},{"id":133157,"Name":"Narasapur","state_id":4017,"state_code":"AP","state_name":"Andhra Pradesh","country_id":101,"country_code":"IN","country_name":"India","latitude":"16.43425000","longitude":"81.69845000","wikiDataId":"Q379516"},{"id":133158,"Name":"Narasaraopet","state_id":4017,"state_code":"AP","state_name":"Andhra Pradesh","country_id":101,"country_code":"IN","country_name":"India","latitude":"16.23488000","longitude":"80.04927000","wikiDataId":"Q2483789"},{"id":133160,"Name":"Narasingapuram","state_id":4017,"state_code":"AP","state_name":"Andhra Pradesh","country_id":101,"country_code":"IN","country_name":"India","latitude":"13.60759000","longitude":"79.31652000","wikiDataId":"Q2475130"},{"id":133275,"Name":"Narayanavanam","state_id":4017,"state_code":"AP","state_name":"Andhra Pradesh","country_id":101,"country_code":"IN","country_name":"India","latitude":"13.42565000","longitude":"79.58881000","wikiDataId":"Q2349929"},{"id":133173,"Name":"Narsipatnam","state_id":4017,"state_code":"AP","state_name":"Andhra Pradesh","country_id":101,"country_code":"IN","country_name":"India","latitude":"17.66709000","longitude":"82.61245000","wikiDataId":"Q2563464"},{"id":133283,"Name":"Nayudupet","state_id":4017,"state_code":"AP","state_name":"Andhra Pradesh","country_id":101,"country_code":"IN","country_name":"India","latitude":"13.90742000","longitude":"79.89465000","wikiDataId":"Q3873467"},{"id":133206,"Name":"Nellore","state_id":4017,"state_code":"AP","state_name":"Andhra Pradesh","country_id":101,"country_code":"IN","country_name":"India","latitude":"14.08333000","longitude":"79.58333000","wikiDataId":"Q15383"},{"id":133214,"Name":"Nidadavole","state_id":4017,"state_code":"AP","state_name":"Andhra Pradesh","country_id":101,"country_code":"IN","country_name":"India","latitude":"16.90572000","longitude":"81.67222000","wikiDataId":"Q2563407"},{"id":133294,"Name":"Nuzvid","state_id":4017,"state_code":"AP","state_name":"Andhra Pradesh","country_id":101,"country_code":"IN","country_name":"India","latitude":"16.78854000","longitude":"80.84593000","wikiDataId":"Q2734090"},{"id":133300,"Name":"Ongole","state_id":4017,"state_code":"AP","state_name":"Andhra Pradesh","country_id":101,"country_code":"IN","country_name":"India","latitude":"15.50357000","longitude":"80.04454000","wikiDataId":"Q1920249"},{"id":133521,"Name":"Pakala","state_id":4017,"state_code":"AP","state_name":"Andhra Pradesh","country_id":101,"country_code":"IN","country_name":"India","latitude":"13.44903000","longitude":"79.11493000","wikiDataId":"Q3430034"},{"id":133523,"Name":"Palakollu","state_id":4017,"state_code":"AP","state_name":"Andhra Pradesh","country_id":101,"country_code":"IN","country_name":"India","latitude":"16.51670000","longitude":"81.73000000","wikiDataId":"Q1945121"},{"id":133340,"Name":"Palasa","state_id":4017,"state_code":"AP","state_name":"Andhra Pradesh","country_id":101,"country_code":"IN","country_name":"India","latitude":"18.77257000","longitude":"84.41012000","wikiDataId":"Q1797254"},{"id":133534,"Name":"Palkonda","state_id":4017,"state_code":"AP","state_name":"Andhra Pradesh","country_id":101,"country_code":"IN","country_name":"India","latitude":"18.60374000","longitude":"83.75568000","wikiDataId":"Q3415029"},{"id":133331,"Name":"Pallevada","state_id":4017,"state_code":"AP","state_name":"Andhra Pradesh","country_id":101,"country_code":"IN","country_name":"India","latitude":"16.57790000","longitude":"81.29463000","wikiDataId":"Q7127847"},{"id":133336,"Name":"Palmaner","state_id":4017,"state_code":"AP","state_name":"Andhra Pradesh","country_id":101,"country_code":"IN","country_name":"India","latitude":"13.20000000","longitude":"78.74725000","wikiDataId":"Q1752584"},{"id":133361,"Name":"Parlakimidi","state_id":4017,"state_code":"AP","state_name":"Andhra Pradesh","country_id":101,"country_code":"IN","country_name":"India","latitude":"18.78113000","longitude":"84.08836000","wikiDataId":"Q1797389"},{"id":133549,"Name":"Parvatipuram","state_id":4017,"state_code":"AP","state_name":"Andhra Pradesh","country_id":101,"country_code":"IN","country_name":"India","latitude":"18.78392000","longitude":"83.42569000","wikiDataId":"Q1925363"},{"id":133395,"Name":"Pavuluru","state_id":4017,"state_code":"AP","state_name":"Andhra Pradesh","country_id":101,"country_code":"IN","country_name":"India","latitude":"15.85292000","longitude":"80.16468000","wikiDataId":"Q2249295"},{"id":133400,"Name":"Pedana","state_id":4017,"state_code":"AP","state_name":"Andhra Pradesh","country_id":101,"country_code":"IN","country_name":"India","latitude":"16.25582000","longitude":"81.14378000","wikiDataId":"Q2563472"},{"id":134447,"Name":"pedda nakkalapalem","state_id":4017,"state_code":"AP","state_name":"Andhra Pradesh","country_id":101,"country_code":"IN","country_name":"India","latitude":"15.86680000","longitude":"80.16202000","wikiDataId":"Q663062"},{"id":133402,"Name":"Peddapuram","state_id":4017,"state_code":"AP","state_name":"Andhra Pradesh","country_id":101,"country_code":"IN","country_name":"India","latitude":"17.07701000","longitude":"82.13836000","wikiDataId":"Q7159047"},{"id":133409,"Name":"Penugonda","state_id":4017,"state_code":"AP","state_name":"Andhra Pradesh","country_id":101,"country_code":"IN","country_name":"India","latitude":"16.65363000","longitude":"81.74550000","wikiDataId":"Q2716197"},{"id":133410,"Name":"Penukonda","state_id":4017,"state_code":"AP","state_name":"Andhra Pradesh","country_id":101,"country_code":"IN","country_name":"India","latitude":"14.08286000","longitude":"77.59473000","wikiDataId":"Q2572975"},{"id":133440,"Name":"Phirangipuram","state_id":4017,"state_code":"AP","state_name":"Andhra Pradesh","country_id":101,"country_code":"IN","country_name":"India","latitude":"16.29078000","longitude":"80.26233000","wikiDataId":"Q3430158"},{"id":133455,"Name":"Pippara","state_id":4017,"state_code":"AP","state_name":"Andhra Pradesh","country_id":101,"country_code":"IN","country_name":"India","latitude":"16.71667000","longitude":"81.55000000","wikiDataId":"Q2720099"},{"id":133465,"Name":"Pithapuram","state_id":4017,"state_code":"AP","state_name":"Andhra Pradesh","country_id":101,"country_code":"IN","country_name":"India","latitude":"17.11680000","longitude":"82.25284000","wikiDataId":"Q2563530"},{"id":133468,"Name":"Polavaram","state_id":4017,"state_code":"AP","state_name":"Andhra Pradesh","country_id":101,"country_code":"IN","country_name":"India","latitude":"17.24754000","longitude":"81.64372000","wikiDataId":"Q3420642"},{"id":133476,"Name":"Ponnur","state_id":4017,"state_code":"AP","state_name":"Andhra Pradesh","country_id":101,"country_code":"IN","country_name":"India","latitude":"16.07114000","longitude":"80.54944000","wikiDataId":"Q720891"},{"id":133478,"Name":"Ponnuru","state_id":4017,"state_code":"AP","state_name":"Andhra Pradesh","country_id":101,"country_code":"IN","country_name":"India","latitude":"16.06547000","longitude":"80.55203000","wikiDataId":"Q2568315"},{"id":133485,"Name":"Prakasam","state_id":4017,"state_code":"AP","state_name":"Andhra Pradesh","country_id":101,"country_code":"IN","country_name":"India","latitude":"15.50000000","longitude":"79.50000000","wikiDataId":"Q15390"},{"id":133489,"Name":"Proddatur","state_id":4017,"state_code":"AP","state_name":"Andhra Pradesh","country_id":101,"country_code":"IN","country_name":"India","latitude":"14.75020000","longitude":"78.54813000","wikiDataId":"Q2349966"},{"id":133497,"Name":"Pulivendla","state_id":4017,"state_code":"AP","state_name":"Andhra Pradesh","country_id":101,"country_code":"IN","country_name":"India","latitude":"14.42139000","longitude":"78.22502000","wikiDataId":"Q2719107"},{"id":133506,"Name":"Punganuru","state_id":4017,"state_code":"AP","state_name":"Andhra Pradesh","country_id":101,"country_code":"IN","country_name":"India","latitude":"13.36672000","longitude":"78.57186000","wikiDataId":"Q1854679"},{"id":133517,"Name":"Puttaparthi","state_id":4017,"state_code":"AP","state_name":"Andhra Pradesh","country_id":101,"country_code":"IN","country_name":"India","latitude":"14.16520000","longitude":"77.81170000","wikiDataId":"Q1068595"},{"id":133519,"Name":"Puttur","state_id":4017,"state_code":"AP","state_name":"Andhra Pradesh","country_id":101,"country_code":"IN","country_name":"India","latitude":"13.44189000","longitude":"79.55314000","wikiDataId":"Q1945739"},{"id":133671,"Name":"Rajahmundry","state_id":4017,"state_code":"AP","state_name":"Andhra Pradesh","country_id":101,"country_code":"IN","country_name":"India","latitude":"17.00517000","longitude":"81.77784000","wikiDataId":"Q1639492"},{"id":133691,"Name":"Ramachandrapuram","state_id":4017,"state_code":"AP","state_name":"Andhra Pradesh","country_id":101,"country_code":"IN","country_name":"India","latitude":"16.83636000","longitude":"82.02871000","wikiDataId":"Q542856"},{"id":133600,"Name":"Ramanayyapeta","state_id":4017,"state_code":"AP","state_name":"Andhra Pradesh","country_id":101,"country_code":"IN","country_name":"India","latitude":"16.94516000","longitude":"82.23850000","wikiDataId":"Q2229781"},{"id":133712,"Name":"Ramapuram","state_id":4017,"state_code":"AP","state_name":"Andhra Pradesh","country_id":101,"country_code":"IN","country_name":"India","latitude":"15.28749000","longitude":"77.86722000","wikiDataId":"Q1605050"},{"id":133605,"Name":"Rampachodavaram","state_id":4017,"state_code":"AP","state_name":"Andhra Pradesh","country_id":101,"country_code":"IN","country_name":"India","latitude":"17.44088000","longitude":"81.77558000","wikiDataId":"Q2010452"},{"id":133729,"Name":"Rayachoti","state_id":4017,"state_code":"AP","state_name":"Andhra Pradesh","country_id":101,"country_code":"IN","country_name":"India","latitude":"14.05723000","longitude":"78.75056000","wikiDataId":"Q2349951"},{"id":133730,"Name":"Rayadrug","state_id":4017,"state_code":"AP","state_name":"Andhra Pradesh","country_id":101,"country_code":"IN","country_name":"India","latitude":"14.69971000","longitude":"76.85241000","wikiDataId":"Q2349951"},{"id":133734,"Name":"Razam","state_id":4017,"state_code":"AP","state_name":"Andhra Pradesh","country_id":101,"country_code":"IN","country_name":"India","latitude":"18.44909000","longitude":"83.65957000","wikiDataId":"Q3537413"},{"id":133732,"Name":"Razampeta","state_id":4017,"state_code":"AP","state_name":"Andhra Pradesh","country_id":101,"country_code":"IN","country_name":"India","latitude":"14.19544000","longitude":"79.15896000","wikiDataId":"Q3537413"},{"id":133733,"Name":"Razole","state_id":4017,"state_code":"AP","state_name":"Andhra Pradesh","country_id":101,"country_code":"IN","country_name":"India","latitude":"16.47608000","longitude":"81.83912000","wikiDataId":"Q3537413"},{"id":133627,"Name":"Renigunta","state_id":4017,"state_code":"AP","state_name":"Andhra Pradesh","country_id":101,"country_code":"IN","country_name":"India","latitude":"13.65143000","longitude":"79.51256000","wikiDataId":"Q720932"},{"id":133630,"Name":"Repalle","state_id":4017,"state_code":"AP","state_name":"Andhra Pradesh","country_id":101,"country_code":"IN","country_name":"India","latitude":"16.01840000","longitude":"80.82958000","wikiDataId":"Q2483836"},{"id":134065,"Name":"Salur","state_id":4017,"state_code":"AP","state_name":"Andhra Pradesh","country_id":101,"country_code":"IN","country_name":"India","latitude":"18.51716000","longitude":"83.20548000","wikiDataId":"Q2563482"},{"id":134066,"Name":"Samalkot","state_id":4017,"state_code":"AP","state_name":"Andhra Pradesh","country_id":101,"country_code":"IN","country_name":"India","latitude":"17.05675000","longitude":"82.17639000","wikiDataId":"Q2563482"},{"id":133822,"Name":"Sattenapalle","state_id":4017,"state_code":"AP","state_name":"Andhra Pradesh","country_id":101,"country_code":"IN","country_name":"India","latitude":"16.39381000","longitude":"80.15221000","wikiDataId":"Q3445011"},{"id":133946,"Name":"Singarayakonda","state_id":4017,"state_code":"AP","state_name":"Andhra Pradesh","country_id":101,"country_code":"IN","country_name":"India","latitude":"15.23046000","longitude":"80.02794000","wikiDataId":"Q720856"},{"id":133990,"Name":"Sompeta","state_id":4017,"state_code":"AP","state_name":"Andhra Pradesh","country_id":101,"country_code":"IN","country_name":"India","latitude":"18.94419000","longitude":"84.58449000","wikiDataId":"Q607071"},{"id":134019,"Name":"Srikakulam","state_id":4017,"state_code":"AP","state_name":"Andhra Pradesh","country_id":101,"country_code":"IN","country_name":"India","latitude":"18.29890000","longitude":"83.89751000","wikiDataId":"Q671757"},{"id":134032,"Name":"Srisailain","state_id":4017,"state_code":"AP","state_name":"Andhra Pradesh","country_id":101,"country_code":"IN","country_name":"India","latitude":"16.07217000","longitude":"78.86816000","wikiDataId":"Q2269015"},{"id":134093,"Name":"Suluru","state_id":4017,"state_code":"AP","state_name":"Andhra Pradesh","country_id":101,"country_code":"IN","country_name":"India","latitude":"13.70000000","longitude":"80.01667000","wikiDataId":"Q2248468"},{"id":134226,"Name":"Tadepalle","state_id":4017,"state_code":"AP","state_name":"Andhra Pradesh","country_id":101,"country_code":"IN","country_name":"India","latitude":"16.48333000","longitude":"80.60000000","wikiDataId":"Q2738731"},{"id":134227,"Name":"Tadepallegudem","state_id":4017,"state_code":"AP","state_name":"Andhra Pradesh","country_id":101,"country_code":"IN","country_name":"India","latitude":"16.81467000","longitude":"81.52717000","wikiDataId":"Q2235626"},{"id":134228,"Name":"Tadpatri","state_id":4017,"state_code":"AP","state_name":"Andhra Pradesh","country_id":101,"country_code":"IN","country_name":"India","latitude":"14.90832000","longitude":"78.01031000","wikiDataId":"Q2336339"},{"id":134113,"Name":"Tanuku","state_id":4017,"state_code":"AP","state_name":"Andhra Pradesh","country_id":101,"country_code":"IN","country_name":"India","latitude":"16.75438000","longitude":"81.68143000","wikiDataId":"Q2566481"},{"id":134126,"Name":"Tekkali","state_id":4017,"state_code":"AP","state_name":"Andhra Pradesh","country_id":101,"country_code":"IN","country_name":"India","latitude":"18.60570000","longitude":"84.23546000","wikiDataId":"Q429171"},{"id":134183,"Name":"Tirumala","state_id":4017,"state_code":"AP","state_name":"Andhra Pradesh","country_id":101,"country_code":"IN","country_name":"India","latitude":"13.68333000","longitude":"79.35000000","wikiDataId":"Q3424247"},{"id":134187,"Name":"Tirupati","state_id":4017,"state_code":"AP","state_name":"Andhra Pradesh","country_id":101,"country_code":"IN","country_name":"India","latitude":"13.63551000","longitude":"79.41989000","wikiDataId":"Q213248"},{"id":134222,"Name":"Tuni","state_id":4017,"state_code":"AP","state_name":"Andhra Pradesh","country_id":101,"country_code":"IN","country_name":"India","latitude":"17.35905000","longitude":"82.54607000","wikiDataId":"Q2576041"},{"id":134292,"Name":"Uravakonda","state_id":4017,"state_code":"AP","state_name":"Andhra Pradesh","country_id":101,"country_code":"IN","country_name":"India","latitude":"14.94348000","longitude":"77.25494000","wikiDataId":"Q736330"},{"id":134448,"Name":"vadlamuru","state_id":4017,"state_code":"AP","state_name":"Andhra Pradesh","country_id":101,"country_code":"IN","country_name":"India","latitude":"17.09545000","longitude":"82.16565000","wikiDataId":"Q663062"},{"id":134308,"Name":"Vadlapudi","state_id":4017,"state_code":"AP","state_name":"Andhra Pradesh","country_id":101,"country_code":"IN","country_name":"India","latitude":"14.31119000","longitude":"79.80430000","wikiDataId":"Q2449175"},{"id":134347,"Name":"Venkatagiri","state_id":4017,"state_code":"AP","state_name":"Andhra Pradesh","country_id":101,"country_code":"IN","country_name":"India","latitude":"13.96005000","longitude":"79.58032000","wikiDataId":"Q719838"},{"id":134348,"Name":"Vepagunta","state_id":4017,"state_code":"AP","state_name":"Andhra Pradesh","country_id":101,"country_code":"IN","country_name":"India","latitude":"17.77844000","longitude":"83.21577000","wikiDataId":"Q720888"},{"id":134350,"Name":"Vetapalem","state_id":4017,"state_code":"AP","state_name":"Andhra Pradesh","country_id":101,"country_code":"IN","country_name":"India","latitude":"15.78502000","longitude":"80.30663000","wikiDataId":"Q2563456"},{"id":134356,"Name":"Vijayawada","state_id":4017,"state_code":"AP","state_name":"Andhra Pradesh","country_id":101,"country_code":"IN","country_name":"India","latitude":"16.50745000","longitude":"80.64660000","wikiDataId":"Q200017"},{"id":134364,"Name":"Vinukonda","state_id":4017,"state_code":"AP","state_name":"Andhra Pradesh","country_id":101,"country_code":"IN","country_name":"India","latitude":"16.05310000","longitude":"79.73964000","wikiDataId":"Q2566502"},{"id":134369,"Name":"Visakhapatnam","state_id":4017,"state_code":"AP","state_name":"Andhra Pradesh","country_id":101,"country_code":"IN","country_name":"India","latitude":"17.68009000","longitude":"83.20161000","wikiDataId":"Q200016"},{"id":134373,"Name":"Vizianagaram","state_id":4017,"state_code":"AP","state_name":"Andhra Pradesh","country_id":101,"country_code":"IN","country_name":"India","latitude":"18.11692000","longitude":"83.41148000","wikiDataId":"Q3619248"},{"id":134374,"Name":"Vizianagaram District","state_id":4017,"state_code":"AP","state_name":"Andhra Pradesh","country_id":101,"country_code":"IN","country_name":"India","latitude":"18.41102000","longitude":"83.37677000","wikiDataId":"Q15392"},{"id":134377,"Name":"Vuyyuru","state_id":4017,"state_code":"AP","state_name":"Andhra Pradesh","country_id":101,"country_code":"IN","country_name":"India","latitude":"16.36307000","longitude":"80.84406000","wikiDataId":"Q3418817"},{"id":134407,"Name":"West Godavari","state_id":4017,"state_code":"AP","state_name":"Andhra Pradesh","country_id":101,"country_code":"IN","country_name":"India","latitude":"17.00000000","longitude":"81.16667000","wikiDataId":"Q15404"},{"id":134424,"Name":"Yanam","state_id":4017,"state_code":"AP","state_name":"Andhra Pradesh","country_id":101,"country_code":"IN","country_name":"India","latitude":"16.73308000","longitude":"82.21364000","wikiDataId":"Q1807929"},{"id":134426,"Name":"Yanamalakuduru","state_id":4017,"state_code":"AP","state_name":"Andhra Pradesh","country_id":101,"country_code":"IN","country_name":"India","latitude":"16.48531000","longitude":"80.66746000","wikiDataId":"Q2126598"},{"id":134437,"Name":"Yarada","state_id":4017,"state_code":"AP","state_name":"Andhra Pradesh","country_id":101,"country_code":"IN","country_name":"India","latitude":"17.65872000","longitude":"83.27419000","wikiDataId":"Q564781"}]