[{"id":80554,"Name":"Abancay","state_id":3699,"state_code":"APU","state_name":"Apurímac","country_id":173,"country_code":"PE","country_name":"Peru","latitude":"-13.63389000","longitude":"-72.88139000","wikiDataId":"Q215238"},{"id":80559,"Name":"Andahuaylas","state_id":3699,"state_code":"APU","state_name":"Apurímac","country_id":173,"country_code":"PE","country_name":"Peru","latitude":"-13.65556000","longitude":"-73.38722000","wikiDataId":"Q489660"},{"id":80767,"Name":"Provincia de Abancay","state_id":3699,"state_code":"APU","state_name":"Apurímac","country_id":173,"country_code":"PE","country_name":"Peru","latitude":"-13.66667000","longitude":"-72.91667000","wikiDataId":"Q1771870"},{"id":80772,"Name":"Provincia de Andahuaylas","state_id":3699,"state_code":"APU","state_name":"Apurímac","country_id":173,"country_code":"PE","country_name":"Peru","latitude":"-13.66667000","longitude":"-73.41667000","wikiDataId":"Q1798747"},{"id":80775,"Name":"Provincia de Antabamba","state_id":3699,"state_code":"APU","state_name":"Apurímac","country_id":173,"country_code":"PE","country_name":"Peru","latitude":"-14.41667000","longitude":"-72.75000000","wikiDataId":"Q1814228"},{"id":80779,"Name":"Provincia de Aymaraes","state_id":3699,"state_code":"APU","state_name":"Apurímac","country_id":173,"country_code":"PE","country_name":"Peru","latitude":"-14.41667000","longitude":"-73.25000000","wikiDataId":"Q1814234"},{"id":80817,"Name":"Provincia de Cotabambas","state_id":3699,"state_code":"APU","state_name":"Apurímac","country_id":173,"country_code":"PE","country_name":"Peru","latitude":"-14.00000000","longitude":"-72.20000000","wikiDataId":"Q1814244"},{"id":80825,"Name":"Provincia de Grau","state_id":3699,"state_code":"APU","state_name":"Apurímac","country_id":173,"country_code":"PE","country_name":"Peru","latitude":"-14.00000000","longitude":"-72.58333000","wikiDataId":"Q1814172"},{"id":80946,"Name":"San Jerónimo","state_id":3699,"state_code":"APU","state_name":"Apurímac","country_id":173,"country_code":"PE","country_name":"Peru","latitude":"-13.65138000","longitude":"-73.36388000","wikiDataId":"Q11011907"},{"id":80984,"Name":"Talavera","state_id":3699,"state_code":"APU","state_name":"Apurímac","country_id":173,"country_code":"PE","country_name":"Peru","latitude":"-13.65306000","longitude":"-73.42917000","wikiDataId":"Q723584"}]