[{"id":55046,"Name":"Anse Rouge","state_id":4123,"state_code":"AR","state_name":"Artibonite","country_id":95,"country_code":"HT","country_name":"Haiti","latitude":"19.63382000","longitude":"-73.05530000","wikiDataId":"Q394257"},{"id":55064,"Name":"Arrondissement de Saint-Marc","state_id":4123,"state_code":"AR","state_name":"Artibonite","country_id":95,"country_code":"HT","country_name":"Haiti","latitude":"19.00000000","longitude":"-72.50000000","wikiDataId":"Q2703974"},{"id":55094,"Name":"Désarmes","state_id":4123,"state_code":"AR","state_name":"Artibonite","country_id":95,"country_code":"HT","country_name":"Haiti","latitude":"18.99345000","longitude":"-72.39058000","wikiDataId":"Q2430230"},{"id":55091,"Name":"Dessalines","state_id":4123,"state_code":"AR","state_name":"Artibonite","country_id":95,"country_code":"HT","country_name":"Haiti","latitude":"19.26177000","longitude":"-72.51611000","wikiDataId":"Q2076213"},{"id":55095,"Name":"Ennery","state_id":4123,"state_code":"AR","state_name":"Artibonite","country_id":95,"country_code":"HT","country_name":"Haiti","latitude":"19.48342000","longitude":"-72.48537000","wikiDataId":"Q2637933"},{"id":55102,"Name":"Gonaïves","state_id":4123,"state_code":"AR","state_name":"Artibonite","country_id":95,"country_code":"HT","country_name":"Haiti","latitude":"19.44755000","longitude":"-72.68928000","wikiDataId":"Q852550"},{"id":55104,"Name":"Grande Saline","state_id":4123,"state_code":"AR","state_name":"Artibonite","country_id":95,"country_code":"HT","country_name":"Haiti","latitude":"19.26513000","longitude":"-72.76897000","wikiDataId":"Q2637925"},{"id":55107,"Name":"Gros Morne","state_id":4123,"state_code":"AR","state_name":"Artibonite","country_id":95,"country_code":"HT","country_name":"Haiti","latitude":"19.67080000","longitude":"-72.67808000","wikiDataId":"Q2373404"},{"id":55126,"Name":"Marmelade","state_id":4123,"state_code":"AR","state_name":"Artibonite","country_id":95,"country_code":"HT","country_name":"Haiti","latitude":"19.51736000","longitude":"-72.36133000","wikiDataId":"Q687275"},{"id":55155,"Name":"Saint-Marc","state_id":4123,"state_code":"AR","state_name":"Artibonite","country_id":95,"country_code":"HT","country_name":"Haiti","latitude":"19.10819000","longitude":"-72.69379000","wikiDataId":"Q2637880"},{"id":55166,"Name":"Verrettes","state_id":4123,"state_code":"AR","state_name":"Artibonite","country_id":95,"country_code":"HT","country_name":"Haiti","latitude":"19.05050000","longitude":"-72.46585000","wikiDataId":"Q777676"}]