[{"id":53857,"Name":"Arizona","state_id":4047,"state_code":"AT","state_name":"Atlántida Department","country_id":97,"country_code":"HN","country_name":"Honduras","latitude":"15.63333000","longitude":"-87.31667000","wikiDataId":"Q2254748"},{"id":53860,"Name":"Atenas de San Cristóbal","state_id":4047,"state_code":"AT","state_name":"Atlántida Department","country_id":97,"country_code":"HN","country_name":"Honduras","latitude":"15.68333000","longitude":"-87.31667000","wikiDataId":"Q2254748"},{"id":53921,"Name":"Corozal","state_id":4047,"state_code":"AT","state_name":"Atlántida Department","country_id":97,"country_code":"HN","country_name":"Honduras","latitude":"15.80000000","longitude":"-86.71667000","wikiDataId":"Q2393688"},{"id":53974,"Name":"El Pino","state_id":4047,"state_code":"AT","state_name":"Atlántida Department","country_id":97,"country_code":"HN","country_name":"Honduras","latitude":"15.70000000","longitude":"-86.93333000","wikiDataId":"Q2302837"},{"id":53976,"Name":"El Porvenir","state_id":4047,"state_code":"AT","state_name":"Atlántida Department","country_id":97,"country_code":"HN","country_name":"Honduras","latitude":"15.75000000","longitude":"-86.93333000","wikiDataId":"Q1643252"},{"id":53995,"Name":"El Triunfo de la Cruz","state_id":4047,"state_code":"AT","state_name":"Atlántida Department","country_id":97,"country_code":"HN","country_name":"Honduras","latitude":"15.76667000","longitude":"-87.43333000","wikiDataId":"Q1643252"},{"id":54001,"Name":"Esparta","state_id":4047,"state_code":"AT","state_name":"Atlántida Department","country_id":97,"country_code":"HN","country_name":"Honduras","latitude":"15.66291000","longitude":"-87.25622000","wikiDataId":"Q387445"},{"id":54041,"Name":"Jutiapa","state_id":4047,"state_code":"AT","state_name":"Atlántida Department","country_id":97,"country_code":"HN","country_name":"Honduras","latitude":"15.69586000","longitude":"-86.50414000","wikiDataId":"Q2308179"},{"id":54048,"Name":"La Ceiba","state_id":4047,"state_code":"AT","state_name":"Atlántida Department","country_id":97,"country_code":"HN","country_name":"Honduras","latitude":"15.75971000","longitude":"-86.78221000","wikiDataId":"Q2394955"},{"id":54071,"Name":"La Masica","state_id":4047,"state_code":"AT","state_name":"Atlántida Department","country_id":97,"country_code":"HN","country_name":"Honduras","latitude":"15.59865000","longitude":"-87.13500000","wikiDataId":"Q2279521"},{"id":54080,"Name":"La Unión","state_id":4047,"state_code":"AT","state_name":"Atlántida Department","country_id":97,"country_code":"HN","country_name":"Honduras","latitude":"15.71667000","longitude":"-87.00000000","wikiDataId":"Q1643280"},{"id":54127,"Name":"Mezapa","state_id":4047,"state_code":"AT","state_name":"Atlántida Department","country_id":97,"country_code":"HN","country_name":"Honduras","latitude":"15.58333000","longitude":"-87.65000000","wikiDataId":"Q547593"},{"id":54145,"Name":"Nueva Armenia","state_id":4047,"state_code":"AT","state_name":"Atlántida Department","country_id":97,"country_code":"HN","country_name":"Honduras","latitude":"15.79556000","longitude":"-86.49845000","wikiDataId":"Q2394850"},{"id":54208,"Name":"Sambo Creek","state_id":4047,"state_code":"AT","state_name":"Atlántida Department","country_id":97,"country_code":"HN","country_name":"Honduras","latitude":"15.81667000","longitude":"-86.68333000","wikiDataId":"Q7409064"},{"id":54212,"Name":"San Antonio","state_id":4047,"state_code":"AT","state_name":"Atlántida Department","country_id":97,"country_code":"HN","country_name":"Honduras","latitude":"15.60000000","longitude":"-87.15000000","wikiDataId":"Q7409064"},{"id":54226,"Name":"San Francisco","state_id":4047,"state_code":"AT","state_name":"Atlántida Department","country_id":97,"country_code":"HN","country_name":"Honduras","latitude":"15.65246000","longitude":"-87.01736000","wikiDataId":"Q2361014"},{"id":54259,"Name":"San Juan Pueblo","state_id":4047,"state_code":"AT","state_name":"Atlántida Department","country_id":97,"country_code":"HN","country_name":"Honduras","latitude":"15.58333000","longitude":"-87.23333000","wikiDataId":"Q979141"},{"id":54290,"Name":"Santa Ana","state_id":4047,"state_code":"AT","state_name":"Atlántida Department","country_id":97,"country_code":"HN","country_name":"Honduras","latitude":"15.65000000","longitude":"-87.06667000","wikiDataId":"Q2179819"},{"id":54334,"Name":"Tela","state_id":4047,"state_code":"AT","state_name":"Atlántida Department","country_id":97,"country_code":"HN","country_name":"Honduras","latitude":"15.77425000","longitude":"-87.46731000","wikiDataId":"Q1027018"},{"id":54341,"Name":"Tornabé","state_id":4047,"state_code":"AT","state_name":"Atlántida Department","country_id":97,"country_code":"HN","country_name":"Honduras","latitude":"15.75000000","longitude":"-87.55000000","wikiDataId":"Q2226585"}]