[{"id":9867,"Name":"Guayaramerín","state_id":3375,"state_code":"B","state_name":"Beni Department","country_id":27,"country_code":"BO","country_name":"Bolivia","latitude":"-10.82580000","longitude":"-65.35810000","wikiDataId":"Q1026253"},{"id":9920,"Name":"Provincia Cercado","state_id":3375,"state_code":"B","state_name":"Beni Department","country_id":27,"country_code":"BO","country_name":"Bolivia","latitude":"-14.50000000","longitude":"-64.33333000","wikiDataId":"Q328661"},{"id":9932,"Name":"Provincia General José Ballivián","state_id":3375,"state_code":"B","state_name":"Beni Department","country_id":27,"country_code":"BO","country_name":"Bolivia","latitude":"-14.00000000","longitude":"-67.08333000","wikiDataId":"Q1473313"},{"id":9941,"Name":"Provincia Iténez","state_id":3375,"state_code":"B","state_name":"Beni Department","country_id":27,"country_code":"BO","country_name":"Bolivia","latitude":"-13.41667000","longitude":"-63.50000000","wikiDataId":"Q1325725"},{"id":9949,"Name":"Provincia Mamoré","state_id":3375,"state_code":"B","state_name":"Beni Department","country_id":27,"country_code":"BO","country_name":"Bolivia","latitude":"-13.00000000","longitude":"-64.91667000","wikiDataId":"Q241217"},{"id":9953,"Name":"Provincia Marbán","state_id":3375,"state_code":"B","state_name":"Beni Department","country_id":27,"country_code":"BO","country_name":"Bolivia","latitude":"-15.66667000","longitude":"-64.33333000","wikiDataId":"Q1473356"},{"id":9956,"Name":"Provincia Moxos","state_id":3375,"state_code":"B","state_name":"Beni Department","country_id":27,"country_code":"BO","country_name":"Bolivia","latitude":"-15.16667000","longitude":"-65.50000000","wikiDataId":"Q120514"},{"id":9990,"Name":"Provincia Vaca Diez","state_id":3375,"state_code":"B","state_name":"Beni Department","country_id":27,"country_code":"BO","country_name":"Bolivia","latitude":"-11.66667000","longitude":"-66.00000000","wikiDataId":"Q1339683"},{"id":9994,"Name":"Provincia Yacuma","state_id":3375,"state_code":"B","state_name":"Beni Department","country_id":27,"country_code":"BO","country_name":"Bolivia","latitude":"-13.50000000","longitude":"-66.00000000","wikiDataId":"Q1215506"},{"id":10005,"Name":"Reyes","state_id":3375,"state_code":"B","state_name":"Beni Department","country_id":27,"country_code":"BO","country_name":"Bolivia","latitude":"-14.29520000","longitude":"-67.33624000","wikiDataId":"Q913102"},{"id":10006,"Name":"Riberalta","state_id":3375,"state_code":"B","state_name":"Beni Department","country_id":27,"country_code":"BO","country_name":"Bolivia","latitude":"-11.00654000","longitude":"-66.06312000","wikiDataId":"Q941357"},{"id":10008,"Name":"Rurrenabaque","state_id":3375,"state_code":"B","state_name":"Beni Department","country_id":27,"country_code":"BO","country_name":"Bolivia","latitude":"-14.44125000","longitude":"-67.52781000","wikiDataId":"Q749372"},{"id":10011,"Name":"San Borja","state_id":3375,"state_code":"B","state_name":"Beni Department","country_id":27,"country_code":"BO","country_name":"Bolivia","latitude":"-14.81667000","longitude":"-66.85000000","wikiDataId":"Q2307472"},{"id":10020,"Name":"San Ramón","state_id":3375,"state_code":"B","state_name":"Beni Department","country_id":27,"country_code":"BO","country_name":"Bolivia","latitude":"-13.28333000","longitude":"-64.71667000","wikiDataId":"Q849354"},{"id":10021,"Name":"Santa Ana de Yacuma","state_id":3375,"state_code":"B","state_name":"Beni Department","country_id":27,"country_code":"BO","country_name":"Bolivia","latitude":"-13.74406000","longitude":"-65.42688000","wikiDataId":"Q849354"},{"id":10025,"Name":"Santa Rosa","state_id":3375,"state_code":"B","state_name":"Beni Department","country_id":27,"country_code":"BO","country_name":"Bolivia","latitude":"-14.16667000","longitude":"-66.88333000","wikiDataId":"Q170688"},{"id":10041,"Name":"Trinidad","state_id":3375,"state_code":"B","state_name":"Beni Department","country_id":27,"country_code":"BO","country_name":"Bolivia","latitude":"-14.83333000","longitude":"-64.90000000","wikiDataId":"Q34986"}]