[{"id":8042,"Name":"Amirdzhan","state_id":552,"state_code":"BA","state_name":"Baku","country_id":16,"country_code":"AZ","country_name":"Azerbaijan","latitude":"40.42639000","longitude":"49.98361000","wikiDataId":"Q3131176"},{"id":8051,"Name":"Badamdar","state_id":552,"state_code":"BA","state_name":"Baku","country_id":16,"country_code":"AZ","country_name":"Azerbaijan","latitude":"40.34024000","longitude":"49.80450000","wikiDataId":"Q10860191"},{"id":8053,"Name":"Bakıxanov","state_id":552,"state_code":"BA","state_name":"Baku","country_id":16,"country_code":"AZ","country_name":"Azerbaijan","latitude":"40.41894000","longitude":"49.96693000","wikiDataId":"Q3299602"},{"id":8052,"Name":"Baku","state_id":552,"state_code":"BA","state_name":"Baku","country_id":16,"country_code":"AZ","country_name":"Azerbaijan","latitude":"40.37767000","longitude":"49.89201000","wikiDataId":"Q10860191"},{"id":8054,"Name":"Balakhani","state_id":552,"state_code":"BA","state_name":"Baku","country_id":16,"country_code":"AZ","country_name":"Azerbaijan","latitude":"40.46344000","longitude":"49.91893000","wikiDataId":"Q2081104"},{"id":8060,"Name":"Bilajari","state_id":552,"state_code":"BA","state_name":"Baku","country_id":16,"country_code":"AZ","country_name":"Azerbaijan","latitude":"40.44440000","longitude":"49.80566000","wikiDataId":"Q21980868"},{"id":8061,"Name":"Bilajer","state_id":552,"state_code":"BA","state_name":"Baku","country_id":16,"country_code":"AZ","country_name":"Azerbaijan","latitude":"40.56441000","longitude":"50.04002000","wikiDataId":"Q4026907"},{"id":8062,"Name":"Binagadi","state_id":552,"state_code":"BA","state_name":"Baku","country_id":16,"country_code":"AZ","country_name":"Azerbaijan","latitude":"40.46602000","longitude":"49.82783000","wikiDataId":"Q864153"},{"id":8063,"Name":"Biny Selo","state_id":552,"state_code":"BA","state_name":"Baku","country_id":16,"country_code":"AZ","country_name":"Azerbaijan","latitude":"40.45076000","longitude":"50.08686000","wikiDataId":"Q2339034"},{"id":8066,"Name":"Buzovna","state_id":552,"state_code":"BA","state_name":"Baku","country_id":16,"country_code":"AZ","country_name":"Azerbaijan","latitude":"40.51903000","longitude":"50.11438000","wikiDataId":"Q2671322"},{"id":8093,"Name":"Hövsan","state_id":552,"state_code":"BA","state_name":"Baku","country_id":16,"country_code":"AZ","country_name":"Azerbaijan","latitude":"40.37444000","longitude":"50.08528000","wikiDataId":"Q3294097"},{"id":8100,"Name":"Khodzhi-Gasan","state_id":552,"state_code":"BA","state_name":"Baku","country_id":16,"country_code":"AZ","country_name":"Azerbaijan","latitude":"40.41293000","longitude":"49.76904000","wikiDataId":"Q3951539"},{"id":8104,"Name":"Korgöz","state_id":552,"state_code":"BA","state_name":"Baku","country_id":16,"country_code":"AZ","country_name":"Azerbaijan","latitude":"40.30446000","longitude":"49.62360000","wikiDataId":"Q6432243"},{"id":8111,"Name":"Lökbatan","state_id":552,"state_code":"BA","state_name":"Baku","country_id":16,"country_code":"AZ","country_name":"Azerbaijan","latitude":"40.32560000","longitude":"49.73376000","wikiDataId":"Q2027140"},{"id":8113,"Name":"Mardakan","state_id":552,"state_code":"BA","state_name":"Baku","country_id":16,"country_code":"AZ","country_name":"Azerbaijan","latitude":"40.49182000","longitude":"50.14292000","wikiDataId":"Q1026043"},{"id":8116,"Name":"Maştağa","state_id":552,"state_code":"BA","state_name":"Baku","country_id":16,"country_code":"AZ","country_name":"Azerbaijan","latitude":"40.52983000","longitude":"50.00616000","wikiDataId":"Q4026905"},{"id":8121,"Name":"Nardaran","state_id":552,"state_code":"BA","state_name":"Baku","country_id":16,"country_code":"AZ","country_name":"Azerbaijan","latitude":"40.55611000","longitude":"50.00556000","wikiDataId":"Q1965248"},{"id":8123,"Name":"Nizami Rayonu","state_id":552,"state_code":"BA","state_name":"Baku","country_id":16,"country_code":"AZ","country_name":"Azerbaijan","latitude":"40.40970000","longitude":"49.91926000","wikiDataId":"Q3912215"},{"id":8131,"Name":"Pirallahı","state_id":552,"state_code":"BA","state_name":"Baku","country_id":16,"country_code":"AZ","country_name":"Azerbaijan","latitude":"40.47013000","longitude":"50.32476000","wikiDataId":"Q1017630"},{"id":8134,"Name":"Puta","state_id":552,"state_code":"BA","state_name":"Baku","country_id":16,"country_code":"AZ","country_name":"Azerbaijan","latitude":"40.29667000","longitude":"49.66028000","wikiDataId":"Q4026827"},{"id":8136,"Name":"Qala","state_id":552,"state_code":"BA","state_name":"Baku","country_id":16,"country_code":"AZ","country_name":"Azerbaijan","latitude":"40.44256000","longitude":"50.16759000","wikiDataId":"Q4026864"},{"id":8142,"Name":"Qaraçuxur","state_id":552,"state_code":"BA","state_name":"Baku","country_id":16,"country_code":"AZ","country_name":"Azerbaijan","latitude":"40.39667000","longitude":"49.97361000","wikiDataId":"Q685398"},{"id":8149,"Name":"Qobustan","state_id":552,"state_code":"BA","state_name":"Baku","country_id":16,"country_code":"AZ","country_name":"Azerbaijan","latitude":"40.08238000","longitude":"49.41205000","wikiDataId":"Q685724"},{"id":8159,"Name":"Ramana","state_id":552,"state_code":"BA","state_name":"Baku","country_id":16,"country_code":"AZ","country_name":"Azerbaijan","latitude":"40.44222000","longitude":"49.98056000","wikiDataId":"Q1013460"},{"id":8162,"Name":"Sabunçu","state_id":552,"state_code":"BA","state_name":"Baku","country_id":16,"country_code":"AZ","country_name":"Azerbaijan","latitude":"40.44250000","longitude":"49.94806000","wikiDataId":"Q260503"},{"id":8168,"Name":"Sanqaçal","state_id":552,"state_code":"BA","state_name":"Baku","country_id":16,"country_code":"AZ","country_name":"Azerbaijan","latitude":"40.16991000","longitude":"49.46394000","wikiDataId":"Q4026953"},{"id":8184,"Name":"Türkan","state_id":552,"state_code":"BA","state_name":"Baku","country_id":16,"country_code":"AZ","country_name":"Azerbaijan","latitude":"40.36460000","longitude":"50.22075000","wikiDataId":"Q4026904"},{"id":8197,"Name":"Yeni Suraxanı","state_id":552,"state_code":"BA","state_name":"Baku","country_id":16,"country_code":"AZ","country_name":"Azerbaijan","latitude":"40.43026000","longitude":"50.03598000","wikiDataId":"Q1026631"},{"id":8201,"Name":"Zabrat","state_id":552,"state_code":"BA","state_name":"Baku","country_id":16,"country_code":"AZ","country_name":"Azerbaijan","latitude":"40.47746000","longitude":"49.94174000","wikiDataId":"Q4026836"},{"id":8205,"Name":"Zyrya","state_id":552,"state_code":"BA","state_name":"Baku","country_id":16,"country_code":"AZ","country_name":"Azerbaijan","latitude":"40.36613000","longitude":"50.29198000","wikiDataId":"Q4192310"}]