[{"id":76767,"Name":"Aliade","state_id":291,"state_code":"BE","state_name":"Benue","country_id":161,"country_code":"NG","country_name":"Nigeria","latitude":"7.29627000","longitude":"8.48278000","wikiDataId":"Q423831"},{"id":76811,"Name":"Boju","state_id":291,"state_code":"BE","state_name":"Benue","country_id":161,"country_code":"NG","country_name":"Nigeria","latitude":"7.35572000","longitude":"7.89303000","wikiDataId":"Q320704"},{"id":149066,"Name":"Gboko","state_id":291,"state_code":"BE","state_name":"Benue","country_id":161,"country_code":"NG","country_name":"Nigeria","latitude":"7.33159530","longitude":"8.97600680","wikiDataId":"Q2425179"},{"id":76922,"Name":"Igbor","state_id":291,"state_code":"BE","state_name":"Benue","country_id":161,"country_code":"NG","country_name":"Nigeria","latitude":"7.45123000","longitude":"8.60805000","wikiDataId":"Q5991613"},{"id":77021,"Name":"Makurdi","state_id":291,"state_code":"BE","state_name":"Benue","country_id":161,"country_code":"NG","country_name":"Nigeria","latitude":"7.73375000","longitude":"8.52139000","wikiDataId":"Q994096"},{"id":77049,"Name":"Ochobo","state_id":291,"state_code":"BE","state_name":"Benue","country_id":161,"country_code":"NG","country_name":"Nigeria","latitude":"7.18045000","longitude":"7.98240000","wikiDataId":"Q7074926"},{"id":77077,"Name":"Otukpa","state_id":291,"state_code":"BE","state_name":"Benue","country_id":161,"country_code":"NG","country_name":"Nigeria","latitude":"7.10168000","longitude":"7.65945000","wikiDataId":"Q3320817"},{"id":77110,"Name":"Takum","state_id":291,"state_code":"BE","state_name":"Benue","country_id":161,"country_code":"NG","country_name":"Nigeria","latitude":"7.26667000","longitude":"9.98333000","wikiDataId":"Q336350"},{"id":77121,"Name":"Ugbokpo","state_id":291,"state_code":"BE","state_name":"Benue","country_id":161,"country_code":"NG","country_name":"Nigeria","latitude":"7.65321000","longitude":"7.88410000","wikiDataId":"Q7859479"},{"id":77142,"Name":"Yandev","state_id":291,"state_code":"BE","state_name":"Benue","country_id":161,"country_code":"NG","country_name":"Nigeria","latitude":"7.36308000","longitude":"9.04235000","wikiDataId":"Q574593"},{"id":77149,"Name":"Zaki Biam","state_id":291,"state_code":"BE","state_name":"Benue","country_id":161,"country_code":"NG","country_name":"Nigeria","latitude":"7.50671000","longitude":"9.61040000","wikiDataId":"Q994114"}]