[{"id":149076,"Name":"Atebubu-Amantin","state_id":4958,"state_code":"BE","state_name":"Bono East","country_id":83,"country_code":"GH","country_name":"Ghana","latitude":"7.70237000","longitude":"-1.21979430","wikiDataId":"Q117446"},{"id":149077,"Name":"Kintampo North","state_id":4958,"state_code":"BE","state_name":"Bono East","country_id":83,"country_code":"GH","country_name":"Ghana","latitude":"8.39635790","longitude":"-1.82000070","wikiDataId":"Q1665763"},{"id":149078,"Name":"Kintampo South","state_id":4958,"state_code":"BE","state_name":"Bono East","country_id":83,"country_code":"GH","country_name":"Ghana","latitude":"7.98971320","longitude":"-2.00711150","wikiDataId":"Q1504020"},{"id":149079,"Name":"Nkoranza North","state_id":4958,"state_code":"BE","state_name":"Bono East","country_id":83,"country_code":"GH","country_name":"Ghana","latitude":"7.56603310","longitude":"-1.72365200","wikiDataId":"Q3342359"},{"id":149080,"Name":"Nkoranza South","state_id":4958,"state_code":"BE","state_name":"Bono East","country_id":83,"country_code":"GH","country_name":"Ghana","latitude":"7.62405120","longitude":"-1.79974460","wikiDataId":"Q7042619"},{"id":149082,"Name":"Pru East","state_id":4958,"state_code":"BE","state_name":"Bono East","country_id":83,"country_code":"GH","country_name":"Ghana","latitude":"8.22620000","longitude":"-0.65360000","wikiDataId":"Q105081992"},{"id":149081,"Name":"Pru West","state_id":4958,"state_code":"BE","state_name":"Bono East","country_id":83,"country_code":"GH","country_name":"Ghana","latitude":"8.07359930","longitude":"-1.29055410","wikiDataId":"Q105063588"},{"id":149083,"Name":"Sene East","state_id":4958,"state_code":"BE","state_name":"Bono East","country_id":83,"country_code":"GH","country_name":"Ghana","latitude":"7.78300000","longitude":"-0.21700000","wikiDataId":"Q55555336"},{"id":149084,"Name":"Sene West","state_id":4958,"state_code":"BE","state_name":"Bono East","country_id":83,"country_code":"GH","country_name":"Ghana","latitude":"7.73420000","longitude":"-0.68180000","wikiDataId":"Q55555352"},{"id":149074,"Name":"Techiman","state_id":4958,"state_code":"BE","state_name":"Bono East","country_id":83,"country_code":"GH","country_name":"Ghana","latitude":"7.58968560","longitude":"-1.95122140","wikiDataId":"Q957996"},{"id":149075,"Name":"Techiman North","state_id":4958,"state_code":"BE","state_name":"Bono East","country_id":83,"country_code":"GH","country_name":"Ghana","latitude":"7.70428020","longitude":"-2.08140570","wikiDataId":"Q20855212"}]