[{"id":39267,"Name":"Ahuy","state_id":4825,"state_code":"BFC","state_name":"Bourgogne-Franche-Comté","country_id":75,"country_code":"FR","country_name":"France","latitude":"47.36944000","longitude":"5.02089000","wikiDataId":"Q46368"},{"id":39280,"Name":"Aillant-sur-Tholon","state_id":4825,"state_code":"BFC","state_name":"Bourgogne-Franche-Comté","country_id":75,"country_code":"FR","country_name":"France","latitude":"47.87426000","longitude":"3.35049000","wikiDataId":"Q1140705"},{"id":39281,"Name":"Aillevillers-et-Lyaumont","state_id":4825,"state_code":"BFC","state_name":"Bourgogne-Franche-Comté","country_id":75,"country_code":"FR","country_name":"France","latitude":"47.92033000","longitude":"6.33775000","wikiDataId":"Q1140705"},{"id":39290,"Name":"Aiserey","state_id":4825,"state_code":"BFC","state_name":"Bourgogne-Franche-Comté","country_id":75,"country_code":"FR","country_name":"France","latitude":"47.17229000","longitude":"5.16260000","wikiDataId":"Q34795880"},{"id":39373,"Name":"Ancy-le-Franc","state_id":4825,"state_code":"BFC","state_name":"Bourgogne-Franche-Comté","country_id":75,"country_code":"FR","country_name":"France","latitude":"47.77586000","longitude":"4.16361000","wikiDataId":"Q213515"},{"id":39379,"Name":"Andelnans","state_id":4825,"state_code":"BFC","state_name":"Bourgogne-Franche-Comté","country_id":75,"country_code":"FR","country_name":"France","latitude":"47.60267000","longitude":"6.86621000","wikiDataId":"Q1104168"},{"id":39443,"Name":"Appoigny","state_id":4825,"state_code":"BFC","state_name":"Bourgogne-Franche-Comté","country_id":75,"country_code":"FR","country_name":"France","latitude":"47.87467000","longitude":"3.52524000","wikiDataId":"Q1087744"},{"id":39449,"Name":"Arbois","state_id":4825,"state_code":"BFC","state_name":"Bourgogne-Franche-Comté","country_id":75,"country_code":"FR","country_name":"France","latitude":"46.90311000","longitude":"5.77454000","wikiDataId":"Q330888"},{"id":39452,"Name":"Arbouans","state_id":4825,"state_code":"BFC","state_name":"Bourgogne-Franche-Comté","country_id":75,"country_code":"FR","country_name":"France","latitude":"47.49944000","longitude":"6.79505000","wikiDataId":"Q250821"},{"id":39454,"Name":"Arc-et-Senans","state_id":4825,"state_code":"BFC","state_name":"Bourgogne-Franche-Comté","country_id":75,"country_code":"FR","country_name":"France","latitude":"47.03127000","longitude":"5.77027000","wikiDataId":"Q630932"},{"id":39455,"Name":"Arc-lès-Gray","state_id":4825,"state_code":"BFC","state_name":"Bourgogne-Franche-Comté","country_id":75,"country_code":"FR","country_name":"France","latitude":"47.45701000","longitude":"5.58547000","wikiDataId":"Q630946"},{"id":39456,"Name":"Arc-sur-Tille","state_id":4825,"state_code":"BFC","state_name":"Bourgogne-Franche-Comté","country_id":75,"country_code":"FR","country_name":"France","latitude":"47.34349000","longitude":"5.18666000","wikiDataId":"Q20446"},{"id":39459,"Name":"Arcey","state_id":4825,"state_code":"BFC","state_name":"Bourgogne-Franche-Comté","country_id":75,"country_code":"FR","country_name":"France","latitude":"47.52258000","longitude":"6.66222000","wikiDataId":"Q197339"},{"id":39486,"Name":"Arinthod","state_id":4825,"state_code":"BFC","state_name":"Bourgogne-Franche-Comté","country_id":75,"country_code":"FR","country_name":"France","latitude":"46.39339000","longitude":"5.56616000","wikiDataId":"Q635305"},{"id":39501,"Name":"Arnay-le-Duc","state_id":4825,"state_code":"BFC","state_name":"Bourgogne-Franche-Comté","country_id":75,"country_code":"FR","country_name":"France","latitude":"47.13202000","longitude":"4.48595000","wikiDataId":"Q1617166"},{"id":39598,"Name":"Audincourt","state_id":4825,"state_code":"BFC","state_name":"Bourgogne-Franche-Comté","country_id":75,"country_code":"FR","country_name":"France","latitude":"47.48327000","longitude":"6.85341000","wikiDataId":"Q732475"},{"id":39606,"Name":"Augy","state_id":4825,"state_code":"BFC","state_name":"Bourgogne-Franche-Comté","country_id":75,"country_code":"FR","country_name":"France","latitude":"47.76640000","longitude":"3.61051000","wikiDataId":"Q21806"},{"id":39639,"Name":"Autun","state_id":4825,"state_code":"BFC","state_name":"Bourgogne-Franche-Comté","country_id":75,"country_code":"FR","country_name":"France","latitude":"46.95104000","longitude":"4.29869000","wikiDataId":"Q190827"},{"id":39644,"Name":"Auxerre","state_id":4825,"state_code":"BFC","state_name":"Bourgogne-Franche-Comté","country_id":75,"country_code":"FR","country_name":"France","latitude":"47.79960000","longitude":"3.57033000","wikiDataId":"Q167600"},{"id":39646,"Name":"Auxon-Dessous","state_id":4825,"state_code":"BFC","state_name":"Bourgogne-Franche-Comté","country_id":75,"country_code":"FR","country_name":"France","latitude":"47.30000000","longitude":"5.95000000","wikiDataId":"Q167600"},{"id":39647,"Name":"Auxonne","state_id":4825,"state_code":"BFC","state_name":"Bourgogne-Franche-Comté","country_id":75,"country_code":"FR","country_name":"France","latitude":"47.19255000","longitude":"5.38726000","wikiDataId":"Q20161"},{"id":39648,"Name":"Auxy","state_id":4825,"state_code":"BFC","state_name":"Bourgogne-Franche-Comté","country_id":75,"country_code":"FR","country_name":"France","latitude":"46.94940000","longitude":"4.40440000","wikiDataId":"Q20161"},{"id":39656,"Name":"Avallon","state_id":4825,"state_code":"BFC","state_name":"Bourgogne-Franche-Comté","country_id":75,"country_code":"FR","country_name":"France","latitude":"47.49002000","longitude":"3.90832000","wikiDataId":"Q20161"},{"id":39657,"Name":"Avanne-Aveney","state_id":4825,"state_code":"BFC","state_name":"Bourgogne-Franche-Comté","country_id":75,"country_code":"FR","country_name":"France","latitude":"47.20000000","longitude":"5.96667000","wikiDataId":"Q790157"},{"id":39793,"Name":"Bart","state_id":4825,"state_code":"BFC","state_name":"Bourgogne-Franche-Comté","country_id":75,"country_code":"FR","country_name":"France","latitude":"47.48861000","longitude":"6.77090000","wikiDataId":"Q321965"},{"id":39814,"Name":"Baume-les-Dames","state_id":4825,"state_code":"BFC","state_name":"Bourgogne-Franche-Comté","country_id":75,"country_code":"FR","country_name":"France","latitude":"47.35295000","longitude":"6.36117000","wikiDataId":"Q548352"},{"id":39817,"Name":"Bavans","state_id":4825,"state_code":"BFC","state_name":"Bourgogne-Franche-Comté","country_id":75,"country_code":"FR","country_name":"France","latitude":"47.48528000","longitude":"6.73324000","wikiDataId":"Q548352"},{"id":39820,"Name":"Bavilliers","state_id":4825,"state_code":"BFC","state_name":"Bourgogne-Franche-Comté","country_id":75,"country_code":"FR","country_name":"France","latitude":"47.62235000","longitude":"6.83543000","wikiDataId":"Q274976"},{"id":39841,"Name":"Beaucourt","state_id":4825,"state_code":"BFC","state_name":"Bourgogne-Franche-Comté","country_id":75,"country_code":"FR","country_name":"France","latitude":"47.48878000","longitude":"6.92214000","wikiDataId":"Q1222948"},{"id":39874,"Name":"Beaune","state_id":4825,"state_code":"BFC","state_name":"Bourgogne-Franche-Comté","country_id":75,"country_code":"FR","country_name":"France","latitude":"47.02413000","longitude":"4.83887000","wikiDataId":"Q177155"},{"id":39904,"Name":"Belfort","state_id":4825,"state_code":"BFC","state_name":"Bourgogne-Franche-Comté","country_id":75,"country_code":"FR","country_name":"France","latitude":"47.64218000","longitude":"6.85385000","wikiDataId":"Q171545"},{"id":39917,"Name":"Belleneuve","state_id":4825,"state_code":"BFC","state_name":"Bourgogne-Franche-Comté","country_id":75,"country_code":"FR","country_name":"France","latitude":"47.36224000","longitude":"5.26393000","wikiDataId":"Q263971"},{"id":39971,"Name":"Besançon","state_id":4825,"state_code":"BFC","state_name":"Bourgogne-Franche-Comté","country_id":75,"country_code":"FR","country_name":"France","latitude":"47.24878000","longitude":"6.01815000","wikiDataId":"Q37776"},{"id":39984,"Name":"Bethoncourt","state_id":4825,"state_code":"BFC","state_name":"Bourgogne-Franche-Comté","country_id":75,"country_code":"FR","country_name":"France","latitude":"47.53512000","longitude":"6.80504000","wikiDataId":"Q831409"},{"id":39989,"Name":"Beure","state_id":4825,"state_code":"BFC","state_name":"Bourgogne-Franche-Comté","country_id":75,"country_code":"FR","country_name":"France","latitude":"47.20690000","longitude":"6.00548000","wikiDataId":"Q22384"},{"id":40052,"Name":"Blamont","state_id":4825,"state_code":"BFC","state_name":"Bourgogne-Franche-Comté","country_id":75,"country_code":"FR","country_name":"France","latitude":"47.38513000","longitude":"6.84800000","wikiDataId":"Q247806"},{"id":40057,"Name":"Blanzy","state_id":4825,"state_code":"BFC","state_name":"Bourgogne-Franche-Comté","country_id":75,"country_code":"FR","country_name":"France","latitude":"46.70012000","longitude":"4.38833000","wikiDataId":"Q1365776"},{"id":40072,"Name":"Bléneau","state_id":4825,"state_code":"BFC","state_name":"Bourgogne-Franche-Comté","country_id":75,"country_code":"FR","country_name":"France","latitude":"47.70000000","longitude":"2.95000000","wikiDataId":"Q467351"},{"id":40065,"Name":"Bletterans","state_id":4825,"state_code":"BFC","state_name":"Bourgogne-Franche-Comté","country_id":75,"country_code":"FR","country_name":"France","latitude":"46.74673000","longitude":"5.45444000","wikiDataId":"Q120341"},{"id":40067,"Name":"Bligny-lès-Beaune","state_id":4825,"state_code":"BFC","state_name":"Bourgogne-Franche-Comté","country_id":75,"country_code":"FR","country_name":"France","latitude":"46.98631000","longitude":"4.82620000","wikiDataId":"Q21694"},{"id":40088,"Name":"Bois-d’Amont","state_id":4825,"state_code":"BFC","state_name":"Bourgogne-Franche-Comté","country_id":75,"country_code":"FR","country_name":"France","latitude":"46.53280000","longitude":"6.13750000","wikiDataId":"Q1021422"},{"id":40178,"Name":"Bourbon-Lancy","state_id":4825,"state_code":"BFC","state_name":"Bourgogne-Franche-Comté","country_id":75,"country_code":"FR","country_name":"France","latitude":"46.62214000","longitude":"3.76953000","wikiDataId":"Q829308"},{"id":40211,"Name":"Bourogne","state_id":4825,"state_code":"BFC","state_name":"Bourgogne-Franche-Comté","country_id":75,"country_code":"FR","country_name":"France","latitude":"47.56307000","longitude":"6.91654000","wikiDataId":"Q1069234"},{"id":40219,"Name":"Boussières","state_id":4825,"state_code":"BFC","state_name":"Bourgogne-Franche-Comté","country_id":75,"country_code":"FR","country_name":"France","latitude":"47.15866000","longitude":"5.90314000","wikiDataId":"Q632387"},{"id":40254,"Name":"Branges","state_id":4825,"state_code":"BFC","state_name":"Bourgogne-Franche-Comté","country_id":75,"country_code":"FR","country_name":"France","latitude":"46.64441000","longitude":"5.18465000","wikiDataId":"Q62863"},{"id":40270,"Name":"Brazey-en-Plaine","state_id":4825,"state_code":"BFC","state_name":"Bourgogne-Franche-Comté","country_id":75,"country_code":"FR","country_name":"France","latitude":"47.13784000","longitude":"5.21538000","wikiDataId":"Q251119"},{"id":40310,"Name":"Brienon-sur-Armançon","state_id":4825,"state_code":"BFC","state_name":"Bourgogne-Franche-Comté","country_id":75,"country_code":"FR","country_name":"France","latitude":"47.99009000","longitude":"3.61628000","wikiDataId":"Q674821"},{"id":40405,"Name":"Buxy","state_id":4825,"state_code":"BFC","state_name":"Bourgogne-Franche-Comté","country_id":75,"country_code":"FR","country_name":"France","latitude":"46.71369000","longitude":"4.70427000","wikiDataId":"Q815939"},{"id":40642,"Name":"Cercy-la-Tour","state_id":4825,"state_code":"BFC","state_name":"Bourgogne-Franche-Comté","country_id":75,"country_code":"FR","country_name":"France","latitude":"46.86203000","longitude":"3.64652000","wikiDataId":"Q377533"},{"id":41400,"Name":"Cézy","state_id":4825,"state_code":"BFC","state_name":"Bourgogne-Franche-Comté","country_id":75,"country_code":"FR","country_name":"France","latitude":"47.99265000","longitude":"3.34067000","wikiDataId":"Q1371748"},{"id":40670,"Name":"Chablis","state_id":4825,"state_code":"BFC","state_name":"Bourgogne-Franche-Comté","country_id":75,"country_code":"FR","country_name":"France","latitude":"47.81386000","longitude":"3.79835000","wikiDataId":"Q844850"},{"id":40675,"Name":"Chagny","state_id":4825,"state_code":"BFC","state_name":"Bourgogne-Franche-Comté","country_id":75,"country_code":"FR","country_name":"France","latitude":"46.90953000","longitude":"4.75190000","wikiDataId":"Q34791282"},{"id":40696,"Name":"Challuy","state_id":4825,"state_code":"BFC","state_name":"Bourgogne-Franche-Comté","country_id":75,"country_code":"FR","country_name":"France","latitude":"46.94971000","longitude":"3.14807000","wikiDataId":"Q34791393"},{"id":40698,"Name":"Chalon-sur-Saône","state_id":4825,"state_code":"BFC","state_name":"Bourgogne-Franche-Comté","country_id":75,"country_code":"FR","country_name":"France","latitude":"46.78112000","longitude":"4.85372000","wikiDataId":"Q248636"},{"id":40934,"Name":"Châlonvillars","state_id":4825,"state_code":"BFC","state_name":"Bourgogne-Franche-Comté","country_id":75,"country_code":"FR","country_name":"France","latitude":"47.64055000","longitude":"6.78407000","wikiDataId":"Q1169620"},{"id":40724,"Name":"Champagney","state_id":4825,"state_code":"BFC","state_name":"Bourgogne-Franche-Comté","country_id":75,"country_code":"FR","country_name":"France","latitude":"47.70504000","longitude":"6.68173000","wikiDataId":"Q272016"},{"id":40726,"Name":"Champagnole","state_id":4825,"state_code":"BFC","state_name":"Bourgogne-Franche-Comté","country_id":75,"country_code":"FR","country_name":"France","latitude":"46.74452000","longitude":"5.91354000","wikiDataId":"Q477013"},{"id":40736,"Name":"Champforgeuil","state_id":4825,"state_code":"BFC","state_name":"Bourgogne-Franche-Comté","country_id":75,"country_code":"FR","country_name":"France","latitude":"46.81857000","longitude":"4.83357000","wikiDataId":"Q634981"},{"id":40739,"Name":"Champignelles","state_id":4825,"state_code":"BFC","state_name":"Bourgogne-Franche-Comté","country_id":75,"country_code":"FR","country_name":"France","latitude":"47.78009000","longitude":"3.07457000","wikiDataId":"Q634981"},{"id":40741,"Name":"Champigny","state_id":4825,"state_code":"BFC","state_name":"Bourgogne-Franche-Comté","country_id":75,"country_code":"FR","country_name":"France","latitude":"48.31667000","longitude":"3.13333000","wikiDataId":"Q34791601"},{"id":40745,"Name":"Champlitte","state_id":4825,"state_code":"BFC","state_name":"Bourgogne-Franche-Comté","country_id":75,"country_code":"FR","country_name":"France","latitude":"47.61667000","longitude":"5.51667000","wikiDataId":"Q833791"},{"id":40746,"Name":"Champlitte-la-Ville","state_id":4825,"state_code":"BFC","state_name":"Bourgogne-Franche-Comté","country_id":75,"country_code":"FR","country_name":"France","latitude":"47.61333000","longitude":"5.53191000","wikiDataId":"Q34791613"},{"id":40750,"Name":"Champs-sur-Yonne","state_id":4825,"state_code":"BFC","state_name":"Bourgogne-Franche-Comté","country_id":75,"country_code":"FR","country_name":"France","latitude":"47.73333000","longitude":"3.60000000","wikiDataId":"Q34791656"},{"id":40754,"Name":"Champvans","state_id":4825,"state_code":"BFC","state_name":"Bourgogne-Franche-Comté","country_id":75,"country_code":"FR","country_name":"France","latitude":"47.10466000","longitude":"5.43760000","wikiDataId":"Q34791695"},{"id":40773,"Name":"Chantenay-Saint-Imbert","state_id":4825,"state_code":"BFC","state_name":"Bourgogne-Franche-Comté","country_id":75,"country_code":"FR","country_name":"France","latitude":"46.73333000","longitude":"3.18333000","wikiDataId":"Q399435"},{"id":40792,"Name":"Charbuy","state_id":4825,"state_code":"BFC","state_name":"Bourgogne-Franche-Comté","country_id":75,"country_code":"FR","country_name":"France","latitude":"47.82282000","longitude":"3.46617000","wikiDataId":"Q955821"},{"id":40810,"Name":"Charnay-lès-Mâcon","state_id":4825,"state_code":"BFC","state_name":"Bourgogne-Franche-Comté","country_id":75,"country_code":"FR","country_name":"France","latitude":"46.30751000","longitude":"4.78479000","wikiDataId":"Q323743"},{"id":40811,"Name":"Charny","state_id":4825,"state_code":"BFC","state_name":"Bourgogne-Franche-Comté","country_id":75,"country_code":"FR","country_name":"France","latitude":"47.88661000","longitude":"3.09583000","wikiDataId":"Q323743"},{"id":40814,"Name":"Charolles","state_id":4825,"state_code":"BFC","state_name":"Bourgogne-Franche-Comté","country_id":75,"country_code":"FR","country_name":"France","latitude":"46.43451000","longitude":"4.27527000","wikiDataId":"Q213509"},{"id":40815,"Name":"Charquemont","state_id":4825,"state_code":"BFC","state_name":"Bourgogne-Franche-Comté","country_id":75,"country_code":"FR","country_name":"France","latitude":"47.21417000","longitude":"6.81980000","wikiDataId":"Q213509"},{"id":40937,"Name":"Château-Chinon(Ville)","state_id":4825,"state_code":"BFC","state_name":"Bourgogne-Franche-Comté","country_id":75,"country_code":"FR","country_name":"France","latitude":"47.06667000","longitude":"3.93333000","wikiDataId":"Q622720"},{"id":40989,"Name":"Châtenois-les-Forges","state_id":4825,"state_code":"BFC","state_name":"Bourgogne-Franche-Comté","country_id":75,"country_code":"FR","country_name":"France","latitude":"47.55875000","longitude":"6.84871000","wikiDataId":"Q200945"},{"id":40990,"Name":"Châtenoy-le-Royal","state_id":4825,"state_code":"BFC","state_name":"Bourgogne-Franche-Comté","country_id":75,"country_code":"FR","country_name":"France","latitude":"46.79797000","longitude":"4.81190000","wikiDataId":"Q200945"},{"id":40994,"Name":"Châtillon-en-Bazois","state_id":4825,"state_code":"BFC","state_name":"Bourgogne-Franche-Comté","country_id":75,"country_code":"FR","country_name":"France","latitude":"47.05464000","longitude":"3.65893000","wikiDataId":"Q732483"},{"id":40998,"Name":"Châtillon-le-Duc","state_id":4825,"state_code":"BFC","state_name":"Bourgogne-Franche-Comté","country_id":75,"country_code":"FR","country_name":"France","latitude":"47.30486000","longitude":"6.00792000","wikiDataId":"Q182134"},{"id":41005,"Name":"Châtillon-sur-Seine","state_id":4825,"state_code":"BFC","state_name":"Bourgogne-Franche-Comté","country_id":75,"country_code":"FR","country_name":"France","latitude":"47.85851000","longitude":"4.57375000","wikiDataId":"Q244707"},{"id":40839,"Name":"Chauffailles","state_id":4825,"state_code":"BFC","state_name":"Bourgogne-Franche-Comté","country_id":75,"country_code":"FR","country_name":"France","latitude":"46.20726000","longitude":"4.33932000","wikiDataId":"Q750710"},{"id":40840,"Name":"Chaulgnes","state_id":4825,"state_code":"BFC","state_name":"Bourgogne-Franche-Comté","country_id":75,"country_code":"FR","country_name":"France","latitude":"47.12889000","longitude":"3.10348000","wikiDataId":"Q750710"},{"id":40852,"Name":"Chaussin","state_id":4825,"state_code":"BFC","state_name":"Bourgogne-Franche-Comté","country_id":75,"country_code":"FR","country_name":"France","latitude":"46.96612000","longitude":"5.40791000","wikiDataId":"Q669873"},{"id":40870,"Name":"Chemaudin","state_id":4825,"state_code":"BFC","state_name":"Bourgogne-Franche-Comté","country_id":75,"country_code":"FR","country_name":"France","latitude":"47.22392000","longitude":"5.89419000","wikiDataId":"Q838332"},{"id":40878,"Name":"Chenôve","state_id":4825,"state_code":"BFC","state_name":"Bourgogne-Franche-Comté","country_id":75,"country_code":"FR","country_name":"France","latitude":"47.29323000","longitude":"5.00457000","wikiDataId":"Q1418515"},{"id":40877,"Name":"Cheny","state_id":4825,"state_code":"BFC","state_name":"Bourgogne-Franche-Comté","country_id":75,"country_code":"FR","country_name":"France","latitude":"47.95166000","longitude":"3.53340000","wikiDataId":"Q1418515"},{"id":41016,"Name":"Chéroy","state_id":4825,"state_code":"BFC","state_name":"Bourgogne-Franche-Comté","country_id":75,"country_code":"FR","country_name":"France","latitude":"48.20076000","longitude":"3.00011000","wikiDataId":"Q303294"},{"id":40896,"Name":"Chevigny-Saint-Sauveur","state_id":4825,"state_code":"BFC","state_name":"Bourgogne-Franche-Comté","country_id":75,"country_code":"FR","country_name":"France","latitude":"47.29908000","longitude":"5.13367000","wikiDataId":"Q659942"},{"id":41009,"Name":"Chèvremont","state_id":4825,"state_code":"BFC","state_name":"Bourgogne-Franche-Comté","country_id":75,"country_code":"FR","country_name":"France","latitude":"47.62912000","longitude":"6.92056000","wikiDataId":"Q1172578"},{"id":40919,"Name":"Choisey","state_id":4825,"state_code":"BFC","state_name":"Bourgogne-Franche-Comté","country_id":75,"country_code":"FR","country_name":"France","latitude":"47.06389000","longitude":"5.45911000","wikiDataId":"Q1161049"},{"id":41027,"Name":"Ciry-le-Noble","state_id":4825,"state_code":"BFC","state_name":"Bourgogne-Franche-Comté","country_id":75,"country_code":"FR","country_name":"France","latitude":"46.60607000","longitude":"4.29869000","wikiDataId":"Q34795333"},{"id":41037,"Name":"Clairvaux-les-Lacs","state_id":4825,"state_code":"BFC","state_name":"Bourgogne-Franche-Comté","country_id":75,"country_code":"FR","country_name":"France","latitude":"46.57473000","longitude":"5.74825000","wikiDataId":"Q477009"},{"id":41040,"Name":"Clamecy","state_id":4825,"state_code":"BFC","state_name":"Bourgogne-Franche-Comté","country_id":75,"country_code":"FR","country_name":"France","latitude":"47.46017000","longitude":"3.51940000","wikiDataId":"Q477009"},{"id":41051,"Name":"Clerval","state_id":4825,"state_code":"BFC","state_name":"Bourgogne-Franche-Comté","country_id":75,"country_code":"FR","country_name":"France","latitude":"47.39167000","longitude":"6.49925000","wikiDataId":"Q1365831"},{"id":41063,"Name":"Cluny","state_id":4825,"state_code":"BFC","state_name":"Bourgogne-Franche-Comté","country_id":75,"country_code":"FR","country_name":"France","latitude":"46.43318000","longitude":"4.65845000","wikiDataId":"Q587042"},{"id":41102,"Name":"Colombier-Fontaine","state_id":4825,"state_code":"BFC","state_name":"Bourgogne-Franche-Comté","country_id":75,"country_code":"FR","country_name":"France","latitude":"47.45224000","longitude":"6.69010000","wikiDataId":"Q174002"},{"id":41167,"Name":"Corbenay","state_id":4825,"state_code":"BFC","state_name":"Bourgogne-Franche-Comté","country_id":75,"country_code":"FR","country_name":"France","latitude":"47.89275000","longitude":"6.33047000","wikiDataId":"Q1651173"},{"id":41169,"Name":"Corbigny","state_id":4825,"state_code":"BFC","state_name":"Bourgogne-Franche-Comté","country_id":75,"country_code":"FR","country_name":"France","latitude":"47.25678000","longitude":"3.68285000","wikiDataId":"Q71469"},{"id":41199,"Name":"Corpeau","state_id":4825,"state_code":"BFC","state_name":"Bourgogne-Franche-Comté","country_id":75,"country_code":"FR","country_name":"France","latitude":"46.92917000","longitude":"4.75226000","wikiDataId":"Q34796690"},{"id":41208,"Name":"Cosne-Cours-sur-Loire","state_id":4825,"state_code":"BFC","state_name":"Bourgogne-Franche-Comté","country_id":75,"country_code":"FR","country_name":"France","latitude":"47.41101000","longitude":"2.92528000","wikiDataId":"Q476253"},{"id":41216,"Name":"Couches","state_id":4825,"state_code":"BFC","state_name":"Bourgogne-Franche-Comté","country_id":75,"country_code":"FR","country_name":"France","latitude":"46.86667000","longitude":"4.56667000","wikiDataId":"Q34796871"},{"id":41217,"Name":"Couchey","state_id":4825,"state_code":"BFC","state_name":"Bourgogne-Franche-Comté","country_id":75,"country_code":"FR","country_name":"France","latitude":"47.25991000","longitude":"4.98257000","wikiDataId":"Q34796871"},{"id":41229,"Name":"Coulanges-lès-Nevers","state_id":4825,"state_code":"BFC","state_name":"Bourgogne-Franche-Comté","country_id":75,"country_code":"FR","country_name":"France","latitude":"47.00509000","longitude":"3.18756000","wikiDataId":"Q305768"},{"id":41244,"Name":"Courcelles-lès-Montbéliard","state_id":4825,"state_code":"BFC","state_name":"Bourgogne-Franche-Comté","country_id":75,"country_code":"FR","country_name":"France","latitude":"47.50113000","longitude":"6.78461000","wikiDataId":"Q189715"},{"id":41253,"Name":"Courlon-sur-Yonne","state_id":4825,"state_code":"BFC","state_name":"Bourgogne-Franche-Comté","country_id":75,"country_code":"FR","country_name":"France","latitude":"48.33927000","longitude":"3.16660000","wikiDataId":"Q34797100"},{"id":41275,"Name":"Cousance","state_id":4825,"state_code":"BFC","state_name":"Bourgogne-Franche-Comté","country_id":75,"country_code":"FR","country_name":"France","latitude":"46.53324000","longitude":"5.39214000","wikiDataId":"Q34797186"},{"id":41280,"Name":"Couternon","state_id":4825,"state_code":"BFC","state_name":"Bourgogne-Franche-Comté","country_id":75,"country_code":"FR","country_name":"France","latitude":"47.33333000","longitude":"5.15000000","wikiDataId":"Q34797191"},{"id":41301,"Name":"Cravanche","state_id":4825,"state_code":"BFC","state_name":"Bourgogne-Franche-Comté","country_id":75,"country_code":"FR","country_name":"France","latitude":"47.65346000","longitude":"6.83197000","wikiDataId":"Q270654"},{"id":41353,"Name":"Crêches-sur-Saône","state_id":4825,"state_code":"BFC","state_name":"Bourgogne-Franche-Comté","country_id":75,"country_code":"FR","country_name":"France","latitude":"46.24475000","longitude":"4.78678000","wikiDataId":"Q46135"},{"id":41321,"Name":"Crissey","state_id":4825,"state_code":"BFC","state_name":"Bourgogne-Franche-Comté","country_id":75,"country_code":"FR","country_name":"France","latitude":"46.81652000","longitude":"4.88185000","wikiDataId":"Q34797587"},{"id":41368,"Name":"Cuiseaux","state_id":4825,"state_code":"BFC","state_name":"Bourgogne-Franche-Comté","country_id":75,"country_code":"FR","country_name":"France","latitude":"46.49473000","longitude":"5.38931000","wikiDataId":"Q632107"},{"id":41369,"Name":"Cuisery","state_id":4825,"state_code":"BFC","state_name":"Bourgogne-Franche-Comté","country_id":75,"country_code":"FR","country_name":"France","latitude":"46.55696000","longitude":"4.99797000","wikiDataId":"Q632107"},{"id":41376,"Name":"Curgy","state_id":4825,"state_code":"BFC","state_name":"Bourgogne-Franche-Comté","country_id":75,"country_code":"FR","country_name":"France","latitude":"46.98714000","longitude":"4.38452000","wikiDataId":"Q1434154"},{"id":41406,"Name":"Daix","state_id":4825,"state_code":"BFC","state_name":"Bourgogne-Franche-Comté","country_id":75,"country_code":"FR","country_name":"France","latitude":"47.35081000","longitude":"5.00052000","wikiDataId":"Q241543"},{"id":41417,"Name":"Damparis","state_id":4825,"state_code":"BFC","state_name":"Bourgogne-Franche-Comté","country_id":75,"country_code":"FR","country_name":"France","latitude":"47.07556000","longitude":"5.41398000","wikiDataId":"Q34800203"},{"id":41418,"Name":"Dampierre","state_id":4825,"state_code":"BFC","state_name":"Bourgogne-Franche-Comté","country_id":75,"country_code":"FR","country_name":"France","latitude":"47.15498000","longitude":"5.74167000","wikiDataId":"Q34800203"},{"id":41421,"Name":"Dampierre-les-Bois","state_id":4825,"state_code":"BFC","state_name":"Bourgogne-Franche-Comté","country_id":75,"country_code":"FR","country_name":"France","latitude":"47.50639000","longitude":"6.91279000","wikiDataId":"Q34800225"},{"id":41422,"Name":"Dampierre-sur-Salon","state_id":4825,"state_code":"BFC","state_name":"Bourgogne-Franche-Comté","country_id":75,"country_code":"FR","country_name":"France","latitude":"47.55719000","longitude":"5.67970000","wikiDataId":"Q34800225"},{"id":41424,"Name":"Damprichard","state_id":4825,"state_code":"BFC","state_name":"Bourgogne-Franche-Comté","country_id":75,"country_code":"FR","country_name":"France","latitude":"47.24413000","longitude":"6.88121000","wikiDataId":"Q34800225"},{"id":41427,"Name":"Danjoutin","state_id":4825,"state_code":"BFC","state_name":"Bourgogne-Franche-Comté","country_id":75,"country_code":"FR","country_name":"France","latitude":"47.61822000","longitude":"6.86204000","wikiDataId":"Q1147040"},{"id":41429,"Name":"Dannemarie-sur-Crête","state_id":4825,"state_code":"BFC","state_name":"Bourgogne-Franche-Comté","country_id":75,"country_code":"FR","country_name":"France","latitude":"47.20488000","longitude":"5.87018000","wikiDataId":"Q1147040"},{"id":41438,"Name":"Dasle","state_id":4825,"state_code":"BFC","state_name":"Bourgogne-Franche-Comté","country_id":75,"country_code":"FR","country_name":"France","latitude":"47.47843000","longitude":"6.89728000","wikiDataId":"Q1169741"},{"id":41447,"Name":"Decize","state_id":4825,"state_code":"BFC","state_name":"Bourgogne-Franche-Comté","country_id":75,"country_code":"FR","country_name":"France","latitude":"46.82852000","longitude":"3.46192000","wikiDataId":"Q217180"},{"id":41448,"Name":"Delle","state_id":4825,"state_code":"BFC","state_name":"Bourgogne-Franche-Comté","country_id":75,"country_code":"FR","country_name":"France","latitude":"47.50797000","longitude":"6.99975000","wikiDataId":"Q217180"},{"id":41449,"Name":"Demigny","state_id":4825,"state_code":"BFC","state_name":"Bourgogne-Franche-Comté","country_id":75,"country_code":"FR","country_name":"France","latitude":"46.93048000","longitude":"4.83381000","wikiDataId":"Q217180"},{"id":41623,"Name":"Département de l'Yonne","state_id":4825,"state_code":"BFC","state_name":"Bourgogne-Franche-Comté","country_id":75,"country_code":"FR","country_name":"France","latitude":"47.91667000","longitude":"3.75000000","wikiDataId":"Q12816"},{"id":41626,"Name":"Département de la Côte-d'Or","state_id":4825,"state_code":"BFC","state_name":"Bourgogne-Franche-Comté","country_id":75,"country_code":"FR","country_name":"France","latitude":"47.50000000","longitude":"4.83333000","wikiDataId":"Q3342"},{"id":41629,"Name":"Département de la Haute-Saône","state_id":4825,"state_code":"BFC","state_name":"Bourgogne-Franche-Comté","country_id":75,"country_code":"FR","country_name":"France","latitude":"47.67625000","longitude":"6.10066000","wikiDataId":"Q12730"},{"id":41632,"Name":"Département de la Nièvre","state_id":4825,"state_code":"BFC","state_name":"Bourgogne-Franche-Comté","country_id":75,"country_code":"FR","country_name":"France","latitude":"47.11695000","longitude":"3.49192000","wikiDataId":"Q12657"},{"id":41607,"Name":"Département de Saône-et-Loire","state_id":4825,"state_code":"BFC","state_name":"Bourgogne-Franche-Comté","country_id":75,"country_code":"FR","country_name":"France","latitude":"46.63646000","longitude":"4.58819000","wikiDataId":"Q12736"},{"id":41460,"Name":"Devecey","state_id":4825,"state_code":"BFC","state_name":"Bourgogne-Franche-Comté","country_id":75,"country_code":"FR","country_name":"France","latitude":"47.32169000","longitude":"6.01900000","wikiDataId":"Q271654"},{"id":41476,"Name":"Diges","state_id":4825,"state_code":"BFC","state_name":"Bourgogne-Franche-Comté","country_id":75,"country_code":"FR","country_name":"France","latitude":"47.72862000","longitude":"3.39786000","wikiDataId":"Q22695"},{"id":41479,"Name":"Digoin","state_id":4825,"state_code":"BFC","state_name":"Bourgogne-Franche-Comté","country_id":75,"country_code":"FR","country_name":"France","latitude":"46.48124000","longitude":"3.97946000","wikiDataId":"Q475418"},{"id":41481,"Name":"Dijon","state_id":4825,"state_code":"BFC","state_name":"Bourgogne-Franche-Comté","country_id":75,"country_code":"FR","country_name":"France","latitude":"47.31667000","longitude":"5.01667000","wikiDataId":"Q7003"},{"id":41504,"Name":"Dole","state_id":4825,"state_code":"BFC","state_name":"Bourgogne-Franche-Comté","country_id":75,"country_code":"FR","country_name":"France","latitude":"47.09225000","longitude":"5.48966000","wikiDataId":"Q205586"},{"id":41536,"Name":"Donzy","state_id":4825,"state_code":"BFC","state_name":"Bourgogne-Franche-Comté","country_id":75,"country_code":"FR","country_name":"France","latitude":"47.37066000","longitude":"3.12548000","wikiDataId":"Q674674"},{"id":41542,"Name":"Dornes","state_id":4825,"state_code":"BFC","state_name":"Bourgogne-Franche-Comté","country_id":75,"country_code":"FR","country_name":"France","latitude":"46.71600000","longitude":"3.35343000","wikiDataId":"Q3357"},{"id":41547,"Name":"Doubs","state_id":4825,"state_code":"BFC","state_name":"Bourgogne-Franche-Comté","country_id":75,"country_code":"FR","country_name":"France","latitude":"47.19967000","longitude":"6.43487000","wikiDataId":"Q3361"},{"id":41565,"Name":"Dracy-le-Fort","state_id":4825,"state_code":"BFC","state_name":"Bourgogne-Franche-Comté","country_id":75,"country_code":"FR","country_name":"France","latitude":"46.79750000","longitude":"4.76215000","wikiDataId":"Q840210"},{"id":48040,"Name":"Échenoz-la-Méline","state_id":4825,"state_code":"BFC","state_name":"Bourgogne-Franche-Comté","country_id":75,"country_code":"FR","country_name":"France","latitude":"47.60086000","longitude":"6.13544000","wikiDataId":"Q273297"},{"id":48044,"Name":"École-Valentin","state_id":4825,"state_code":"BFC","state_name":"Bourgogne-Franche-Comté","country_id":75,"country_code":"FR","country_name":"France","latitude":"47.26667000","longitude":"5.98333000","wikiDataId":"Q273297"},{"id":48055,"Name":"Écuisses","state_id":4825,"state_code":"BFC","state_name":"Bourgogne-Franche-Comté","country_id":75,"country_code":"FR","country_name":"France","latitude":"46.75631000","longitude":"4.53845000","wikiDataId":"Q273736"},{"id":48060,"Name":"Égriselles-le-Bocage","state_id":4825,"state_code":"BFC","state_name":"Bourgogne-Franche-Comté","country_id":75,"country_code":"FR","country_name":"France","latitude":"48.12103000","longitude":"3.18233000","wikiDataId":"Q1453306"},{"id":48075,"Name":"Épervans","state_id":4825,"state_code":"BFC","state_name":"Bourgogne-Franche-Comté","country_id":75,"country_code":"FR","country_name":"France","latitude":"46.75247000","longitude":"4.89930000","wikiDataId":"Q742478"},{"id":48077,"Name":"Épinac","state_id":4825,"state_code":"BFC","state_name":"Bourgogne-Franche-Comté","country_id":75,"country_code":"FR","country_name":"France","latitude":"46.98333000","longitude":"4.51667000","wikiDataId":"Q742478"},{"id":41725,"Name":"Essert","state_id":4825,"state_code":"BFC","state_name":"Bourgogne-Franche-Comté","country_id":75,"country_code":"FR","country_name":"France","latitude":"47.63342000","longitude":"6.81702000","wikiDataId":"Q259803"},{"id":48094,"Name":"Étalans","state_id":4825,"state_code":"BFC","state_name":"Bourgogne-Franche-Comté","country_id":75,"country_code":"FR","country_name":"France","latitude":"47.15125000","longitude":"6.27315000","wikiDataId":"Q288832"},{"id":48097,"Name":"Étang-sur-Arroux","state_id":4825,"state_code":"BFC","state_name":"Bourgogne-Franche-Comté","country_id":75,"country_code":"FR","country_name":"France","latitude":"46.86560000","longitude":"4.18988000","wikiDataId":"Q205584"},{"id":48115,"Name":"Étupes","state_id":4825,"state_code":"BFC","state_name":"Bourgogne-Franche-Comté","country_id":75,"country_code":"FR","country_name":"France","latitude":"47.50525000","longitude":"6.87075000","wikiDataId":"Q291104"},{"id":41749,"Name":"Exincourt","state_id":4825,"state_code":"BFC","state_name":"Bourgogne-Franche-Comté","country_id":75,"country_code":"FR","country_name":"France","latitude":"47.49465000","longitude":"6.83169000","wikiDataId":"Q900620"},{"id":41784,"Name":"Faverney","state_id":4825,"state_code":"BFC","state_name":"Bourgogne-Franche-Comté","country_id":75,"country_code":"FR","country_name":"France","latitude":"47.76713000","longitude":"6.10428000","wikiDataId":"Q828265"},{"id":42003,"Name":"Fénay","state_id":4825,"state_code":"BFC","state_name":"Bourgogne-Franche-Comté","country_id":75,"country_code":"FR","country_name":"France","latitude":"47.23185000","longitude":"5.06211000","wikiDataId":"Q52869"},{"id":41807,"Name":"Fesches-le-Châtel","state_id":4825,"state_code":"BFC","state_name":"Bourgogne-Franche-Comté","country_id":75,"country_code":"FR","country_name":"France","latitude":"47.52415000","longitude":"6.90535000","wikiDataId":"Q392059"},{"id":41841,"Name":"Fleurey-sur-Ouche","state_id":4825,"state_code":"BFC","state_name":"Bourgogne-Franche-Comté","country_id":75,"country_code":"FR","country_name":"France","latitude":"47.31182000","longitude":"4.85911000","wikiDataId":"Q23928"},{"id":41848,"Name":"Fleury-la-Vallée","state_id":4825,"state_code":"BFC","state_name":"Bourgogne-Franche-Comté","country_id":75,"country_code":"FR","country_name":"France","latitude":"47.86672000","longitude":"3.44908000","wikiDataId":"Q828640"},{"id":41857,"Name":"Flogny-la-Chapelle","state_id":4825,"state_code":"BFC","state_name":"Bourgogne-Franche-Comté","country_id":75,"country_code":"FR","country_name":"France","latitude":"47.95000000","longitude":"3.86667000","wikiDataId":"Q1000134"},{"id":41884,"Name":"Fontaine-lès-Dijon","state_id":4825,"state_code":"BFC","state_name":"Bourgogne-Franche-Comté","country_id":75,"country_code":"FR","country_name":"France","latitude":"47.34238000","longitude":"5.02007000","wikiDataId":"Q46712"},{"id":41885,"Name":"Fontaine-lès-Luxeuil","state_id":4825,"state_code":"BFC","state_name":"Bourgogne-Franche-Comté","country_id":75,"country_code":"FR","country_name":"France","latitude":"47.85592000","longitude":"6.33482000","wikiDataId":"Q46712"},{"id":41888,"Name":"Fontaines","state_id":4825,"state_code":"BFC","state_name":"Bourgogne-Franche-Comté","country_id":75,"country_code":"FR","country_name":"France","latitude":"46.84905000","longitude":"4.77036000","wikiDataId":"Q46712"},{"id":41922,"Name":"Foucherans","state_id":4825,"state_code":"BFC","state_name":"Bourgogne-Franche-Comté","country_id":75,"country_code":"FR","country_name":"France","latitude":"47.08094000","longitude":"5.45503000","wikiDataId":"Q243260"},{"id":41925,"Name":"Fougerolles","state_id":4825,"state_code":"BFC","state_name":"Bourgogne-Franche-Comté","country_id":75,"country_code":"FR","country_name":"France","latitude":"47.88542000","longitude":"6.40454000","wikiDataId":"Q245149"},{"id":41934,"Name":"Fourchambault","state_id":4825,"state_code":"BFC","state_name":"Bourgogne-Franche-Comté","country_id":75,"country_code":"FR","country_name":"France","latitude":"47.01667000","longitude":"3.08333000","wikiDataId":"Q694905"},{"id":41942,"Name":"Frahier-et-Chatebier","state_id":4825,"state_code":"BFC","state_name":"Bourgogne-Franche-Comté","country_id":75,"country_code":"FR","country_name":"France","latitude":"47.66667000","longitude":"6.75000000","wikiDataId":"Q679386"},{"id":41943,"Name":"Fraisans","state_id":4825,"state_code":"BFC","state_name":"Bourgogne-Franche-Comté","country_id":75,"country_code":"FR","country_name":"France","latitude":"47.14857000","longitude":"5.76051000","wikiDataId":"Q679386"},{"id":41951,"Name":"Franois","state_id":4825,"state_code":"BFC","state_name":"Bourgogne-Franche-Comté","country_id":75,"country_code":"FR","country_name":"France","latitude":"47.23055000","longitude":"5.92869000","wikiDataId":"Q762897"},{"id":41953,"Name":"Frasne","state_id":4825,"state_code":"BFC","state_name":"Bourgogne-Franche-Comté","country_id":75,"country_code":"FR","country_name":"France","latitude":"46.85641000","longitude":"6.15940000","wikiDataId":"Q324488"},{"id":41968,"Name":"Froideconche","state_id":4825,"state_code":"BFC","state_name":"Bourgogne-Franche-Comté","country_id":75,"country_code":"FR","country_name":"France","latitude":"47.82121000","longitude":"6.41523000","wikiDataId":"Q920853"},{"id":41979,"Name":"Frotey-lès-Vesoul","state_id":4825,"state_code":"BFC","state_name":"Bourgogne-Franche-Comté","country_id":75,"country_code":"FR","country_name":"France","latitude":"47.62078000","longitude":"6.18831000","wikiDataId":"Q730397"},{"id":42035,"Name":"Garchizy","state_id":4825,"state_code":"BFC","state_name":"Bourgogne-Franche-Comté","country_id":75,"country_code":"FR","country_name":"France","latitude":"47.04786000","longitude":"3.09625000","wikiDataId":"Q246199"},{"id":42295,"Name":"Génelard","state_id":4825,"state_code":"BFC","state_name":"Bourgogne-Franche-Comté","country_id":75,"country_code":"FR","country_name":"France","latitude":"46.58119000","longitude":"4.23619000","wikiDataId":"Q1152941"},{"id":42066,"Name":"Genlis","state_id":4825,"state_code":"BFC","state_name":"Bourgogne-Franche-Comté","country_id":75,"country_code":"FR","country_name":"France","latitude":"47.24203000","longitude":"5.22415000","wikiDataId":"Q47711"},{"id":42074,"Name":"Gergy","state_id":4825,"state_code":"BFC","state_name":"Bourgogne-Franche-Comté","country_id":75,"country_code":"FR","country_name":"France","latitude":"46.87557000","longitude":"4.94527000","wikiDataId":"Q1601927"},{"id":42082,"Name":"Gevrey-Chambertin","state_id":4825,"state_code":"BFC","state_name":"Bourgogne-Franche-Comté","country_id":75,"country_code":"FR","country_name":"France","latitude":"47.22614000","longitude":"4.96806000","wikiDataId":"Q52871"},{"id":42094,"Name":"Gilley","state_id":4825,"state_code":"BFC","state_name":"Bourgogne-Franche-Comté","country_id":75,"country_code":"FR","country_name":"France","latitude":"47.04740000","longitude":"6.48257000","wikiDataId":"Q208851"},{"id":42101,"Name":"Giromagny","state_id":4825,"state_code":"BFC","state_name":"Bourgogne-Franche-Comté","country_id":75,"country_code":"FR","country_name":"France","latitude":"47.74272000","longitude":"6.82733000","wikiDataId":"Q753708"},{"id":42110,"Name":"Givry","state_id":4825,"state_code":"BFC","state_name":"Bourgogne-Franche-Comté","country_id":75,"country_code":"FR","country_name":"France","latitude":"46.78202000","longitude":"4.74262000","wikiDataId":"Q1104285"},{"id":42171,"Name":"Grand-Charmont","state_id":4825,"state_code":"BFC","state_name":"Bourgogne-Franche-Comté","country_id":75,"country_code":"FR","country_name":"France","latitude":"47.52674000","longitude":"6.82604000","wikiDataId":"Q70896"},{"id":42177,"Name":"Grandfontaine","state_id":4825,"state_code":"BFC","state_name":"Bourgogne-Franche-Comté","country_id":75,"country_code":"FR","country_name":"France","latitude":"47.19763000","longitude":"5.90079000","wikiDataId":"Q769160"},{"id":42180,"Name":"Grandvillars","state_id":4825,"state_code":"BFC","state_name":"Bourgogne-Franche-Comté","country_id":75,"country_code":"FR","country_name":"France","latitude":"47.53929000","longitude":"6.97100000","wikiDataId":"Q769160"},{"id":42192,"Name":"Gray","state_id":4825,"state_code":"BFC","state_name":"Bourgogne-Franche-Comté","country_id":75,"country_code":"FR","country_name":"France","latitude":"47.44575000","longitude":"5.59215000","wikiDataId":"Q265332"},{"id":42193,"Name":"Gray-la-Ville","state_id":4825,"state_code":"BFC","state_name":"Bourgogne-Franche-Comté","country_id":75,"country_code":"FR","country_name":"France","latitude":"47.43932000","longitude":"5.57252000","wikiDataId":"Q265332"},{"id":42222,"Name":"Gron","state_id":4825,"state_code":"BFC","state_name":"Bourgogne-Franche-Comté","country_id":75,"country_code":"FR","country_name":"France","latitude":"48.15967000","longitude":"3.26345000","wikiDataId":"Q687401"},{"id":42288,"Name":"Guérigny","state_id":4825,"state_code":"BFC","state_name":"Bourgogne-Franche-Comté","country_id":75,"country_code":"FR","country_name":"France","latitude":"47.08703000","longitude":"3.20182000","wikiDataId":"Q1108816"},{"id":42248,"Name":"Gueugnon","state_id":4825,"state_code":"BFC","state_name":"Bourgogne-Franche-Comté","country_id":75,"country_code":"FR","country_name":"France","latitude":"46.60357000","longitude":"4.06286000","wikiDataId":"Q431817"},{"id":42275,"Name":"Gurgy","state_id":4825,"state_code":"BFC","state_name":"Bourgogne-Franche-Comté","country_id":75,"country_code":"FR","country_name":"France","latitude":"47.86712000","longitude":"3.56341000","wikiDataId":"Q634074"},{"id":42292,"Name":"Gy","state_id":4825,"state_code":"BFC","state_name":"Bourgogne-Franche-Comté","country_id":75,"country_code":"FR","country_name":"France","latitude":"47.40588000","longitude":"5.81226000","wikiDataId":"Q822213"},{"id":42353,"Name":"Hauteville-lès-Dijon","state_id":4825,"state_code":"BFC","state_name":"Bourgogne-Franche-Comté","country_id":75,"country_code":"FR","country_name":"France","latitude":"47.36602000","longitude":"4.99375000","wikiDataId":"Q56479459"},{"id":42457,"Name":"Héricourt","state_id":4825,"state_code":"BFC","state_name":"Bourgogne-Franche-Comté","country_id":75,"country_code":"FR","country_name":"France","latitude":"47.57305000","longitude":"6.76139000","wikiDataId":"Q684944"},{"id":42459,"Name":"Hérimoncourt","state_id":4825,"state_code":"BFC","state_name":"Bourgogne-Franche-Comté","country_id":75,"country_code":"FR","country_name":"France","latitude":"47.44284000","longitude":"6.88242000","wikiDataId":"Q271858"},{"id":42463,"Name":"Héry","state_id":4825,"state_code":"BFC","state_name":"Bourgogne-Franche-Comté","country_id":75,"country_code":"FR","country_name":"France","latitude":"47.90146000","longitude":"3.62868000","wikiDataId":"Q234361"},{"id":42444,"Name":"Hurigny","state_id":4825,"state_code":"BFC","state_name":"Bourgogne-Franche-Comté","country_id":75,"country_code":"FR","country_name":"France","latitude":"46.34722000","longitude":"4.79676000","wikiDataId":"Q273015"},{"id":42484,"Name":"Imphy","state_id":4825,"state_code":"BFC","state_name":"Bourgogne-Franche-Comté","country_id":75,"country_code":"FR","country_name":"France","latitude":"46.93619000","longitude":"3.26037000","wikiDataId":"Q274610"},{"id":42497,"Name":"Is-sur-Tille","state_id":4825,"state_code":"BFC","state_name":"Bourgogne-Franche-Comté","country_id":75,"country_code":"FR","country_name":"France","latitude":"47.52670000","longitude":"5.10649000","wikiDataId":"Q55345"},{"id":42552,"Name":"Joigny","state_id":4825,"state_code":"BFC","state_name":"Bourgogne-Franche-Comté","country_id":75,"country_code":"FR","country_name":"France","latitude":"47.98288000","longitude":"3.40096000","wikiDataId":"Q476584"},{"id":42556,"Name":"Joncherey","state_id":4825,"state_code":"BFC","state_name":"Bourgogne-Franche-Comté","country_id":75,"country_code":"FR","country_name":"France","latitude":"47.52895000","longitude":"7.00323000","wikiDataId":"Q914840"},{"id":42569,"Name":"Jougne","state_id":4825,"state_code":"BFC","state_name":"Bourgogne-Franche-Comté","country_id":75,"country_code":"FR","country_name":"France","latitude":"46.76291000","longitude":"6.38838000","wikiDataId":"Q923421"},{"id":42571,"Name":"Joux-la-Ville","state_id":4825,"state_code":"BFC","state_name":"Bourgogne-Franche-Comté","country_id":75,"country_code":"FR","country_name":"France","latitude":"47.62241000","longitude":"3.86217000","wikiDataId":"Q640906"},{"id":42593,"Name":"Jura","state_id":4825,"state_code":"BFC","state_name":"Bourgogne-Franche-Comté","country_id":75,"country_code":"FR","country_name":"France","latitude":"46.73431000","longitude":"5.72349000","wikiDataId":"Q3120"},{"id":42596,"Name":"Jussey","state_id":4825,"state_code":"BFC","state_name":"Bourgogne-Franche-Comté","country_id":75,"country_code":"FR","country_name":"France","latitude":"47.82536000","longitude":"5.90193000","wikiDataId":"Q199726"},{"id":42691,"Name":"La Chapelle-de-Guinchay","state_id":4825,"state_code":"BFC","state_name":"Bourgogne-Franche-Comté","country_id":75,"country_code":"FR","country_name":"France","latitude":"46.20841000","longitude":"4.76245000","wikiDataId":"Q1157547"},{"id":42702,"Name":"La Charité-sur-Loire","state_id":4825,"state_code":"BFC","state_name":"Bourgogne-Franche-Comté","country_id":75,"country_code":"FR","country_name":"France","latitude":"47.18333000","longitude":"3.01667000","wikiDataId":"Q35708131"},{"id":42709,"Name":"La Clayette","state_id":4825,"state_code":"BFC","state_name":"Bourgogne-Franche-Comté","country_id":75,"country_code":"FR","country_name":"France","latitude":"46.29002000","longitude":"4.30422000","wikiDataId":"Q231554"},{"id":42711,"Name":"La Cluse-et-Mijoux","state_id":4825,"state_code":"BFC","state_name":"Bourgogne-Franche-Comté","country_id":75,"country_code":"FR","country_name":"France","latitude":"46.88333000","longitude":"6.38333000","wikiDataId":"Q231554"},{"id":42796,"Name":"La Machine","state_id":4825,"state_code":"BFC","state_name":"Bourgogne-Franche-Comté","country_id":75,"country_code":"FR","country_name":"France","latitude":"46.89226000","longitude":"3.46426000","wikiDataId":"Q514185"},{"id":42814,"Name":"La Motte-Saint-Jean","state_id":4825,"state_code":"BFC","state_name":"Bourgogne-Franche-Comté","country_id":75,"country_code":"FR","country_name":"France","latitude":"46.49594000","longitude":"3.96396000","wikiDataId":"Q35709055"},{"id":42855,"Name":"La Roche-Vineuse","state_id":4825,"state_code":"BFC","state_name":"Bourgogne-Franche-Comté","country_id":75,"country_code":"FR","country_name":"France","latitude":"46.34524000","longitude":"4.72023000","wikiDataId":"Q1626121"},{"id":42951,"Name":"Ladoix-Serrigny","state_id":4825,"state_code":"BFC","state_name":"Bourgogne-Franche-Comté","country_id":75,"country_code":"FR","country_name":"France","latitude":"47.06667000","longitude":"4.88333000","wikiDataId":"Q1161356"},{"id":42982,"Name":"Lamarche-sur-Saône","state_id":4825,"state_code":"BFC","state_name":"Bourgogne-Franche-Comté","country_id":75,"country_code":"FR","country_name":"France","latitude":"47.26946000","longitude":"5.38589000","wikiDataId":"Q68732"},{"id":43074,"Name":"Laroche-Saint-Cydroine","state_id":4825,"state_code":"BFC","state_name":"Bourgogne-Franche-Comté","country_id":75,"country_code":"FR","country_name":"France","latitude":"47.96801000","longitude":"3.48467000","wikiDataId":"Q35712050"},{"id":43110,"Name":"Lavans-lès-Saint-Claude","state_id":4825,"state_code":"BFC","state_name":"Bourgogne-Franche-Comté","country_id":75,"country_code":"FR","country_name":"France","latitude":"46.38484000","longitude":"5.78172000","wikiDataId":"Q944875"},{"id":43144,"Name":"Le Breuil","state_id":4825,"state_code":"BFC","state_name":"Bourgogne-Franche-Comté","country_id":75,"country_code":"FR","country_name":"France","latitude":"46.80654000","longitude":"4.46953000","wikiDataId":"Q192461"},{"id":43175,"Name":"Le Creusot","state_id":4825,"state_code":"BFC","state_name":"Bourgogne-Franche-Comté","country_id":75,"country_code":"FR","country_name":"France","latitude":"46.80714000","longitude":"4.41632000","wikiDataId":"Q329664"},{"id":43298,"Name":"Le Russey","state_id":4825,"state_code":"BFC","state_name":"Bourgogne-Franche-Comté","country_id":75,"country_code":"FR","country_name":"France","latitude":"47.16055000","longitude":"6.72912000","wikiDataId":"Q640736"},{"id":43354,"Name":"Lepuix","state_id":4825,"state_code":"BFC","state_name":"Bourgogne-Franche-Comté","country_id":75,"country_code":"FR","country_name":"France","latitude":"47.76050000","longitude":"6.81434000","wikiDataId":"Q843636"},{"id":43387,"Name":"Les Fins","state_id":4825,"state_code":"BFC","state_name":"Bourgogne-Franche-Comté","country_id":75,"country_code":"FR","country_name":"France","latitude":"47.07764000","longitude":"6.63002000","wikiDataId":"Q983442"},{"id":43389,"Name":"Les Fourgs","state_id":4825,"state_code":"BFC","state_name":"Bourgogne-Franche-Comté","country_id":75,"country_code":"FR","country_name":"France","latitude":"46.83455000","longitude":"6.39953000","wikiDataId":"Q983442"},{"id":43426,"Name":"Les Rousses","state_id":4825,"state_code":"BFC","state_name":"Bourgogne-Franche-Comté","country_id":75,"country_code":"FR","country_name":"France","latitude":"46.48412000","longitude":"6.06330000","wikiDataId":"Q818555"},{"id":43452,"Name":"Levier","state_id":4825,"state_code":"BFC","state_name":"Bourgogne-Franche-Comté","country_id":75,"country_code":"FR","country_name":"France","latitude":"46.95302000","longitude":"6.12059000","wikiDataId":"Q271337"},{"id":43479,"Name":"Ligny-le-Châtel","state_id":4825,"state_code":"BFC","state_name":"Bourgogne-Franche-Comté","country_id":75,"country_code":"FR","country_name":"France","latitude":"47.90022000","longitude":"3.75760000","wikiDataId":"Q35716999"},{"id":43553,"Name":"Longchamp","state_id":4825,"state_code":"BFC","state_name":"Bourgogne-Franche-Comté","country_id":75,"country_code":"FR","country_name":"France","latitude":"47.25973000","longitude":"5.28694000","wikiDataId":"Q590292"},{"id":43554,"Name":"Longchaumois","state_id":4825,"state_code":"BFC","state_name":"Bourgogne-Franche-Comté","country_id":75,"country_code":"FR","country_name":"France","latitude":"46.46228000","longitude":"5.93052000","wikiDataId":"Q590292"},{"id":43555,"Name":"Longecourt-en-Plaine","state_id":4825,"state_code":"BFC","state_name":"Bourgogne-Franche-Comté","country_id":75,"country_code":"FR","country_name":"France","latitude":"47.19783000","longitude":"5.14956000","wikiDataId":"Q47704"},{"id":43574,"Name":"Longvic","state_id":4825,"state_code":"BFC","state_name":"Bourgogne-Franche-Comté","country_id":75,"country_code":"FR","country_name":"France","latitude":"47.28754000","longitude":"5.06341000","wikiDataId":"Q20321"},{"id":43577,"Name":"Lons-le-Saunier","state_id":4825,"state_code":"BFC","state_name":"Bourgogne-Franche-Comté","country_id":75,"country_code":"FR","country_name":"France","latitude":"46.67535000","longitude":"5.55575000","wikiDataId":"Q203529"},{"id":43591,"Name":"Lormes","state_id":4825,"state_code":"BFC","state_name":"Bourgogne-Franche-Comté","country_id":75,"country_code":"FR","country_name":"France","latitude":"47.28964000","longitude":"3.81714000","wikiDataId":"Q633357"},{"id":43596,"Name":"Losne","state_id":4825,"state_code":"BFC","state_name":"Bourgogne-Franche-Comté","country_id":75,"country_code":"FR","country_name":"France","latitude":"47.09850000","longitude":"5.26216000","wikiDataId":"Q1168135"},{"id":43603,"Name":"Louhans","state_id":4825,"state_code":"BFC","state_name":"Bourgogne-Franche-Comté","country_id":75,"country_code":"FR","country_name":"France","latitude":"46.62637000","longitude":"5.22468000","wikiDataId":"Q460787"},{"id":43634,"Name":"Lucenay-lès-Aix","state_id":4825,"state_code":"BFC","state_name":"Bourgogne-Franche-Comté","country_id":75,"country_code":"FR","country_name":"France","latitude":"46.70274000","longitude":"3.48308000","wikiDataId":"Q1108735"},{"id":43659,"Name":"Lure","state_id":4825,"state_code":"BFC","state_name":"Bourgogne-Franche-Comté","country_id":75,"country_code":"FR","country_name":"France","latitude":"47.68294000","longitude":"6.49658000","wikiDataId":"Q271996"},{"id":43668,"Name":"Luxeuil-les-Bains","state_id":4825,"state_code":"BFC","state_name":"Bourgogne-Franche-Comté","country_id":75,"country_code":"FR","country_name":"France","latitude":"47.81710000","longitude":"6.36500000","wikiDataId":"Q634124"},{"id":43674,"Name":"Luzy","state_id":4825,"state_code":"BFC","state_name":"Bourgogne-Franche-Comté","country_id":75,"country_code":"FR","country_name":"France","latitude":"46.79011000","longitude":"3.97036000","wikiDataId":"Q749077"},{"id":44451,"Name":"Mâcon","state_id":4825,"state_code":"BFC","state_name":"Bourgogne-Franche-Comté","country_id":75,"country_code":"FR","country_name":"France","latitude":"46.31407000","longitude":"4.82823000","wikiDataId":"Q174247"},{"id":43724,"Name":"Magny-Cours","state_id":4825,"state_code":"BFC","state_name":"Bourgogne-Franche-Comté","country_id":75,"country_code":"FR","country_name":"France","latitude":"46.88333000","longitude":"3.15000000","wikiDataId":"Q762728"},{"id":43725,"Name":"Magny-Vernois","state_id":4825,"state_code":"BFC","state_name":"Bourgogne-Franche-Comté","country_id":75,"country_code":"FR","country_name":"France","latitude":"47.66997000","longitude":"6.47545000","wikiDataId":"Q762728"},{"id":43982,"Name":"Maîche","state_id":4825,"state_code":"BFC","state_name":"Bourgogne-Franche-Comté","country_id":75,"country_code":"FR","country_name":"France","latitude":"47.25160000","longitude":"6.80309000","wikiDataId":"Q837560"},{"id":43735,"Name":"Maillot","state_id":4825,"state_code":"BFC","state_name":"Bourgogne-Franche-Comté","country_id":75,"country_code":"FR","country_name":"France","latitude":"48.17557000","longitude":"3.30784000","wikiDataId":"Q35722758"},{"id":43753,"Name":"Malay-le-Grand","state_id":4825,"state_code":"BFC","state_name":"Bourgogne-Franche-Comté","country_id":75,"country_code":"FR","country_name":"France","latitude":"48.17589000","longitude":"3.34189000","wikiDataId":"Q302380"},{"id":43770,"Name":"Mamirolle","state_id":4825,"state_code":"BFC","state_name":"Bourgogne-Franche-Comté","country_id":75,"country_code":"FR","country_name":"France","latitude":"47.19857000","longitude":"6.15924000","wikiDataId":"Q907131"},{"id":43774,"Name":"Mandeure","state_id":4825,"state_code":"BFC","state_name":"Bourgogne-Franche-Comté","country_id":75,"country_code":"FR","country_name":"France","latitude":"47.44921000","longitude":"6.80762000","wikiDataId":"Q983818"},{"id":43802,"Name":"Marcigny","state_id":4825,"state_code":"BFC","state_name":"Bourgogne-Franche-Comté","country_id":75,"country_code":"FR","country_name":"France","latitude":"46.27627000","longitude":"4.03957000","wikiDataId":"Q279310"},{"id":43808,"Name":"Marcilly-sur-Tille","state_id":4825,"state_code":"BFC","state_name":"Bourgogne-Franche-Comté","country_id":75,"country_code":"FR","country_name":"France","latitude":"47.51700000","longitude":"5.12979000","wikiDataId":"Q1072968"},{"id":43857,"Name":"Marmagne","state_id":4825,"state_code":"BFC","state_name":"Bourgogne-Franche-Comté","country_id":75,"country_code":"FR","country_name":"France","latitude":"46.83666000","longitude":"4.35892000","wikiDataId":"Q656505"},{"id":43861,"Name":"Marnay","state_id":4825,"state_code":"BFC","state_name":"Bourgogne-Franche-Comté","country_id":75,"country_code":"FR","country_name":"France","latitude":"47.29088000","longitude":"5.77277000","wikiDataId":"Q210742"},{"id":43879,"Name":"Marsannay-la-Côte","state_id":4825,"state_code":"BFC","state_name":"Bourgogne-Franche-Comté","country_id":75,"country_code":"FR","country_name":"France","latitude":"47.27095000","longitude":"4.98895000","wikiDataId":"Q20328"},{"id":43925,"Name":"Marzy","state_id":4825,"state_code":"BFC","state_name":"Bourgogne-Franche-Comté","country_id":75,"country_code":"FR","country_name":"France","latitude":"46.98125000","longitude":"3.09352000","wikiDataId":"Q35725750"},{"id":43938,"Name":"Mathay","state_id":4825,"state_code":"BFC","state_name":"Bourgogne-Franche-Comté","country_id":75,"country_code":"FR","country_name":"France","latitude":"47.43905000","longitude":"6.78487000","wikiDataId":"Q905810"},{"id":43941,"Name":"Matour","state_id":4825,"state_code":"BFC","state_name":"Bourgogne-Franche-Comté","country_id":75,"country_code":"FR","country_name":"France","latitude":"46.30654000","longitude":"4.48178000","wikiDataId":"Q35726152"},{"id":44461,"Name":"Mélisey","state_id":4825,"state_code":"BFC","state_name":"Bourgogne-Franche-Comté","country_id":75,"country_code":"FR","country_name":"France","latitude":"47.75229000","longitude":"6.58014000","wikiDataId":"Q35736476"},{"id":43996,"Name":"Mellecey","state_id":4825,"state_code":"BFC","state_name":"Bourgogne-Franche-Comté","country_id":75,"country_code":"FR","country_name":"France","latitude":"46.81084000","longitude":"4.72822000","wikiDataId":"Q425568"},{"id":44010,"Name":"Mercurey","state_id":4825,"state_code":"BFC","state_name":"Bourgogne-Franche-Comté","country_id":75,"country_code":"FR","country_name":"France","latitude":"46.84035000","longitude":"4.71743000","wikiDataId":"Q819279"},{"id":44021,"Name":"Mervans","state_id":4825,"state_code":"BFC","state_name":"Bourgogne-Franche-Comté","country_id":75,"country_code":"FR","country_name":"France","latitude":"46.79923000","longitude":"5.18430000","wikiDataId":"Q377932"},{"id":44037,"Name":"Messigny-et-Vantoux","state_id":4825,"state_code":"BFC","state_name":"Bourgogne-Franche-Comté","country_id":75,"country_code":"FR","country_name":"France","latitude":"47.40666000","longitude":"5.01715000","wikiDataId":"Q35728317"},{"id":44050,"Name":"Meursault","state_id":4825,"state_code":"BFC","state_name":"Bourgogne-Franche-Comté","country_id":75,"country_code":"FR","country_name":"France","latitude":"46.97822000","longitude":"4.76952000","wikiDataId":"Q1453696"},{"id":44487,"Name":"Méziré","state_id":4825,"state_code":"BFC","state_name":"Bourgogne-Franche-Comté","country_id":75,"country_code":"FR","country_name":"France","latitude":"47.53336000","longitude":"6.92072000","wikiDataId":"Q1162988"},{"id":44068,"Name":"Migennes","state_id":4825,"state_code":"BFC","state_name":"Bourgogne-Franche-Comté","country_id":75,"country_code":"FR","country_name":"France","latitude":"47.96548000","longitude":"3.51787000","wikiDataId":"Q637853"},{"id":44093,"Name":"Mirebeau-sur-Bèze","state_id":4825,"state_code":"BFC","state_name":"Bourgogne-Franche-Comté","country_id":75,"country_code":"FR","country_name":"France","latitude":"47.39828000","longitude":"5.32093000","wikiDataId":"Q55660"},{"id":44103,"Name":"Miserey-Salines","state_id":4825,"state_code":"BFC","state_name":"Bourgogne-Franche-Comté","country_id":75,"country_code":"FR","country_name":"France","latitude":"47.28638000","longitude":"5.97387000","wikiDataId":"Q35730611"},{"id":44114,"Name":"Moirans-en-Montagne","state_id":4825,"state_code":"BFC","state_name":"Bourgogne-Franche-Comté","country_id":75,"country_code":"FR","country_name":"France","latitude":"46.43381000","longitude":"5.72643000","wikiDataId":"Q1081586"},{"id":44336,"Name":"Monéteau","state_id":4825,"state_code":"BFC","state_name":"Bourgogne-Franche-Comté","country_id":75,"country_code":"FR","country_name":"France","latitude":"47.84923000","longitude":"3.58178000","wikiDataId":"Q385659"},{"id":44163,"Name":"Mont-sous-Vaudrey","state_id":4825,"state_code":"BFC","state_name":"Bourgogne-Franche-Comté","country_id":75,"country_code":"FR","country_name":"France","latitude":"46.97874000","longitude":"5.60295000","wikiDataId":"Q585391"},{"id":44190,"Name":"Montbard","state_id":4825,"state_code":"BFC","state_name":"Bourgogne-Franche-Comté","country_id":75,"country_code":"FR","country_name":"France","latitude":"47.62294000","longitude":"4.33700000","wikiDataId":"Q209838"},{"id":44204,"Name":"Montbéliard","state_id":4825,"state_code":"BFC","state_name":"Bourgogne-Franche-Comté","country_id":75,"country_code":"FR","country_name":"France","latitude":"47.50957000","longitude":"6.79823000","wikiDataId":"Q154715"},{"id":44206,"Name":"Montceau-les-Mines","state_id":4825,"state_code":"BFC","state_name":"Bourgogne-Franche-Comté","country_id":75,"country_code":"FR","country_name":"France","latitude":"46.66667000","longitude":"4.36667000","wikiDataId":"Q457728"},{"id":44207,"Name":"Montcenis","state_id":4825,"state_code":"BFC","state_name":"Bourgogne-Franche-Comté","country_id":75,"country_code":"FR","country_name":"France","latitude":"46.78785000","longitude":"4.38738000","wikiDataId":"Q457728"},{"id":44208,"Name":"Montchanin","state_id":4825,"state_code":"BFC","state_name":"Bourgogne-Franche-Comté","country_id":75,"country_code":"FR","country_name":"France","latitude":"46.74964000","longitude":"4.47070000","wikiDataId":"Q1465484"},{"id":44220,"Name":"Montenois","state_id":4825,"state_code":"BFC","state_name":"Bourgogne-Franche-Comté","country_id":75,"country_code":"FR","country_name":"France","latitude":"47.49222000","longitude":"6.66561000","wikiDataId":"Q35732716"},{"id":44230,"Name":"Montfaucon","state_id":4825,"state_code":"BFC","state_name":"Bourgogne-Franche-Comté","country_id":75,"country_code":"FR","country_name":"France","latitude":"47.23562000","longitude":"6.08162000","wikiDataId":"Q830293"},{"id":44236,"Name":"Montferrand-le-Château","state_id":4825,"state_code":"BFC","state_name":"Bourgogne-Franche-Comté","country_id":75,"country_code":"FR","country_name":"France","latitude":"47.17536000","longitude":"5.91534000","wikiDataId":"Q906617"},{"id":44270,"Name":"Montlebon","state_id":4825,"state_code":"BFC","state_name":"Bourgogne-Franche-Comté","country_id":75,"country_code":"FR","country_name":"France","latitude":"47.03778000","longitude":"6.61111000","wikiDataId":"Q35733171"},{"id":44289,"Name":"Montmorot","state_id":4825,"state_code":"BFC","state_name":"Bourgogne-Franche-Comté","country_id":75,"country_code":"FR","country_name":"France","latitude":"46.67541000","longitude":"5.52283000","wikiDataId":"Q476242"},{"id":44302,"Name":"Montpont-en-Bresse","state_id":4825,"state_code":"BFC","state_name":"Bourgogne-Franche-Comté","country_id":75,"country_code":"FR","country_name":"France","latitude":"46.55630000","longitude":"5.16459000","wikiDataId":"Q839877"},{"id":44314,"Name":"Montreux-Château","state_id":4825,"state_code":"BFC","state_name":"Bourgogne-Franche-Comté","country_id":75,"country_code":"FR","country_name":"France","latitude":"47.61003000","longitude":"6.99923000","wikiDataId":"Q35733392"},{"id":44344,"Name":"Morbier","state_id":4825,"state_code":"BFC","state_name":"Bourgogne-Franche-Comté","country_id":75,"country_code":"FR","country_name":"France","latitude":"46.53693000","longitude":"6.01532000","wikiDataId":"Q35733630"},{"id":44351,"Name":"Morez","state_id":4825,"state_code":"BFC","state_name":"Bourgogne-Franche-Comté","country_id":75,"country_code":"FR","country_name":"France","latitude":"46.52540000","longitude":"6.02589000","wikiDataId":"Q115426"},{"id":44364,"Name":"Morre","state_id":4825,"state_code":"BFC","state_name":"Bourgogne-Franche-Comté","country_id":75,"country_code":"FR","country_name":"France","latitude":"47.22595000","longitude":"6.07512000","wikiDataId":"Q270675"},{"id":44374,"Name":"Morteau","state_id":4825,"state_code":"BFC","state_name":"Bourgogne-Franche-Comté","country_id":75,"country_code":"FR","country_name":"France","latitude":"47.05784000","longitude":"6.60716000","wikiDataId":"Q200832"},{"id":44376,"Name":"Morvillars","state_id":4825,"state_code":"BFC","state_name":"Bourgogne-Franche-Comté","country_id":75,"country_code":"FR","country_name":"France","latitude":"47.54854000","longitude":"6.93450000","wikiDataId":"Q200832"},{"id":44383,"Name":"Mouchard","state_id":4825,"state_code":"BFC","state_name":"Bourgogne-Franche-Comté","country_id":75,"country_code":"FR","country_name":"France","latitude":"46.97259000","longitude":"5.79626000","wikiDataId":"Q35734533"},{"id":44395,"Name":"Moulins-Engilbert","state_id":4825,"state_code":"BFC","state_name":"Bourgogne-Franche-Comté","country_id":75,"country_code":"FR","country_name":"France","latitude":"46.98821000","longitude":"3.81084000","wikiDataId":"Q540240"},{"id":44500,"Name":"Nancray","state_id":4825,"state_code":"BFC","state_name":"Bourgogne-Franche-Comté","country_id":75,"country_code":"FR","country_name":"France","latitude":"47.24536000","longitude":"6.18283000","wikiDataId":"Q70018"},{"id":44523,"Name":"Navenne","state_id":4825,"state_code":"BFC","state_name":"Bourgogne-Franche-Comté","country_id":75,"country_code":"FR","country_name":"France","latitude":"47.60873000","longitude":"6.16176000","wikiDataId":"Q904006"},{"id":44550,"Name":"Neuilly-lès-Dijon","state_id":4825,"state_code":"BFC","state_name":"Bourgogne-Franche-Comté","country_id":75,"country_code":"FR","country_name":"France","latitude":"47.27943000","longitude":"5.10645000","wikiDataId":"Q685597"},{"id":44577,"Name":"Neuvy-Sautour","state_id":4825,"state_code":"BFC","state_name":"Bourgogne-Franche-Comté","country_id":75,"country_code":"FR","country_name":"France","latitude":"48.04190000","longitude":"3.79472000","wikiDataId":"Q472855"},{"id":44580,"Name":"Neuvy-sur-Loire","state_id":4825,"state_code":"BFC","state_name":"Bourgogne-Franche-Comté","country_id":75,"country_code":"FR","country_name":"France","latitude":"47.52323000","longitude":"2.88333000","wikiDataId":"Q472855"},{"id":44583,"Name":"Nevers","state_id":4825,"state_code":"BFC","state_name":"Bourgogne-Franche-Comté","country_id":75,"country_code":"FR","country_name":"France","latitude":"46.98956000","longitude":"3.15900000","wikiDataId":"Q166997"},{"id":44622,"Name":"Noidans-lès-Vesoul","state_id":4825,"state_code":"BFC","state_name":"Bourgogne-Franche-Comté","country_id":75,"country_code":"FR","country_name":"France","latitude":"47.61299000","longitude":"6.12571000","wikiDataId":"Q600920"},{"id":44633,"Name":"Nolay","state_id":4825,"state_code":"BFC","state_name":"Bourgogne-Franche-Comté","country_id":75,"country_code":"FR","country_name":"France","latitude":"46.95202000","longitude":"4.63405000","wikiDataId":"Q600920"},{"id":44637,"Name":"Nommay","state_id":4825,"state_code":"BFC","state_name":"Bourgogne-Franche-Comté","country_id":75,"country_code":"FR","country_name":"France","latitude":"47.53780000","longitude":"6.84219000","wikiDataId":"Q688130"},{"id":44667,"Name":"Novillars","state_id":4825,"state_code":"BFC","state_name":"Bourgogne-Franche-Comté","country_id":75,"country_code":"FR","country_name":"France","latitude":"47.28465000","longitude":"6.12878000","wikiDataId":"Q474034"},{"id":44688,"Name":"Nuits-Saint-Georges","state_id":4825,"state_code":"BFC","state_name":"Bourgogne-Franche-Comté","country_id":75,"country_code":"FR","country_name":"France","latitude":"47.13683000","longitude":"4.94900000","wikiDataId":"Q16622"},{"id":44718,"Name":"Offemont","state_id":4825,"state_code":"BFC","state_name":"Bourgogne-Franche-Comté","country_id":75,"country_code":"FR","country_name":"France","latitude":"47.66278000","longitude":"6.87764000","wikiDataId":"Q148086"},{"id":44757,"Name":"Orchamps","state_id":4825,"state_code":"BFC","state_name":"Bourgogne-Franche-Comté","country_id":75,"country_code":"FR","country_name":"France","latitude":"47.14751000","longitude":"5.65873000","wikiDataId":"Q148855"},{"id":44758,"Name":"Orchamps-Vennes","state_id":4825,"state_code":"BFC","state_name":"Bourgogne-Franche-Comté","country_id":75,"country_code":"FR","country_name":"France","latitude":"47.13042000","longitude":"6.52468000","wikiDataId":"Q204119"},{"id":44761,"Name":"Orgelet","state_id":4825,"state_code":"BFC","state_name":"Bourgogne-Franche-Comté","country_id":75,"country_code":"FR","country_name":"France","latitude":"46.52096000","longitude":"5.61049000","wikiDataId":"Q1098277"},{"id":44780,"Name":"Ornans","state_id":4825,"state_code":"BFC","state_name":"Bourgogne-Franche-Comté","country_id":75,"country_code":"FR","country_name":"France","latitude":"47.10749000","longitude":"6.14306000","wikiDataId":"Q499537"},{"id":44804,"Name":"Ouges","state_id":4825,"state_code":"BFC","state_name":"Bourgogne-Franche-Comté","country_id":75,"country_code":"FR","country_name":"France","latitude":"47.26164000","longitude":"5.07395000","wikiDataId":"Q22434"},{"id":44808,"Name":"Ouroux-sur-Saône","state_id":4825,"state_code":"BFC","state_name":"Bourgogne-Franche-Comté","country_id":75,"country_code":"FR","country_name":"France","latitude":"46.72147000","longitude":"4.95262000","wikiDataId":"Q1463078"},{"id":44837,"Name":"Palinges","state_id":4825,"state_code":"BFC","state_name":"Bourgogne-Franche-Comté","country_id":75,"country_code":"FR","country_name":"France","latitude":"46.55357000","longitude":"4.21964000","wikiDataId":"Q819267"},{"id":44848,"Name":"Paray-le-Monial","state_id":4825,"state_code":"BFC","state_name":"Bourgogne-Franche-Comté","country_id":75,"country_code":"FR","country_name":"France","latitude":"46.45457000","longitude":"4.11584000","wikiDataId":"Q654255"},{"id":44858,"Name":"Paron","state_id":4825,"state_code":"BFC","state_name":"Bourgogne-Franche-Comté","country_id":75,"country_code":"FR","country_name":"France","latitude":"48.17888000","longitude":"3.25075000","wikiDataId":"Q1456977"},{"id":44888,"Name":"Pelousey","state_id":4825,"state_code":"BFC","state_name":"Bourgogne-Franche-Comté","country_id":75,"country_code":"FR","country_name":"France","latitude":"47.27538000","longitude":"5.92263000","wikiDataId":"Q379897"},{"id":44900,"Name":"Perrecy-les-Forges","state_id":4825,"state_code":"BFC","state_name":"Bourgogne-Franche-Comté","country_id":75,"country_code":"FR","country_name":"France","latitude":"46.61453000","longitude":"4.21380000","wikiDataId":"Q6730"},{"id":44904,"Name":"Perrigny","state_id":4825,"state_code":"BFC","state_name":"Bourgogne-Franche-Comté","country_id":75,"country_code":"FR","country_name":"France","latitude":"46.66744000","longitude":"5.58456000","wikiDataId":"Q1073588"},{"id":44905,"Name":"Perrigny-lès-Dijon","state_id":4825,"state_code":"BFC","state_name":"Bourgogne-Franche-Comté","country_id":75,"country_code":"FR","country_name":"France","latitude":"47.26648000","longitude":"5.00628000","wikiDataId":"Q20323"},{"id":44913,"Name":"Pesmes","state_id":4825,"state_code":"BFC","state_name":"Bourgogne-Franche-Comté","country_id":75,"country_code":"FR","country_name":"France","latitude":"47.28008000","longitude":"5.56698000","wikiDataId":"Q601099"},{"id":44917,"Name":"Petit-Noir","state_id":4825,"state_code":"BFC","state_name":"Bourgogne-Franche-Comté","country_id":75,"country_code":"FR","country_name":"France","latitude":"46.93333000","longitude":"5.33333000","wikiDataId":"Q1065286"},{"id":44952,"Name":"Pierre-de-Bresse","state_id":4825,"state_code":"BFC","state_name":"Bourgogne-Franche-Comté","country_id":75,"country_code":"FR","country_name":"France","latitude":"46.88333000","longitude":"5.25000000","wikiDataId":"Q1617042"},{"id":44957,"Name":"Pierrefontaine-les-Varans","state_id":4825,"state_code":"BFC","state_name":"Bourgogne-Franche-Comté","country_id":75,"country_code":"FR","country_name":"France","latitude":"47.21601000","longitude":"6.54030000","wikiDataId":"Q253939"},{"id":44977,"Name":"Pirey","state_id":4825,"state_code":"BFC","state_name":"Bourgogne-Franche-Comté","country_id":75,"country_code":"FR","country_name":"France","latitude":"47.26136000","longitude":"5.96466000","wikiDataId":"Q512467"},{"id":44998,"Name":"Plancher-Bas","state_id":4825,"state_code":"BFC","state_name":"Bourgogne-Franche-Comté","country_id":75,"country_code":"FR","country_name":"France","latitude":"47.71977000","longitude":"6.73041000","wikiDataId":"Q533703"},{"id":44999,"Name":"Plancher-les-Mines","state_id":4825,"state_code":"BFC","state_name":"Bourgogne-Franche-Comté","country_id":75,"country_code":"FR","country_name":"France","latitude":"47.76150000","longitude":"6.74308000","wikiDataId":"Q533703"},{"id":45037,"Name":"Plombières-lès-Dijon","state_id":4825,"state_code":"BFC","state_name":"Bourgogne-Franche-Comté","country_id":75,"country_code":"FR","country_name":"France","latitude":"47.33333000","longitude":"4.96667000","wikiDataId":"Q632969"},{"id":45142,"Name":"Poligny","state_id":4825,"state_code":"BFC","state_name":"Bourgogne-Franche-Comté","country_id":75,"country_code":"FR","country_name":"France","latitude":"46.83712000","longitude":"5.70505000","wikiDataId":"Q6616"},{"id":45181,"Name":"Pont-de-Roide","state_id":4825,"state_code":"BFC","state_name":"Bourgogne-Franche-Comté","country_id":75,"country_code":"FR","country_name":"France","latitude":"47.38738000","longitude":"6.76840000","wikiDataId":"Q841396"},{"id":45193,"Name":"Pont-sur-Yonne","state_id":4825,"state_code":"BFC","state_name":"Bourgogne-Franche-Comté","country_id":75,"country_code":"FR","country_name":"France","latitude":"48.28297000","longitude":"3.20198000","wikiDataId":"Q752938"},{"id":45200,"Name":"Pontailler-sur-Saône","state_id":4825,"state_code":"BFC","state_name":"Bourgogne-Franche-Comté","country_id":75,"country_code":"FR","country_name":"France","latitude":"47.30455000","longitude":"5.41479000","wikiDataId":"Q68995"},{"id":45201,"Name":"Pontarlier","state_id":4825,"state_code":"BFC","state_name":"Bourgogne-Franche-Comté","country_id":75,"country_code":"FR","country_name":"France","latitude":"46.90347000","longitude":"6.35542000","wikiDataId":"Q214540"},{"id":45237,"Name":"Port-sur-Saône","state_id":4825,"state_code":"BFC","state_name":"Bourgogne-Franche-Comté","country_id":75,"country_code":"FR","country_name":"France","latitude":"47.68774000","longitude":"6.05011000","wikiDataId":"Q831303"},{"id":45250,"Name":"Pougues-les-Eaux","state_id":4825,"state_code":"BFC","state_name":"Bourgogne-Franche-Comté","country_id":75,"country_code":"FR","country_name":"France","latitude":"47.07518000","longitude":"3.10150000","wikiDataId":"Q46575"},{"id":45251,"Name":"Pouilley-les-Vignes","state_id":4825,"state_code":"BFC","state_name":"Bourgogne-Franche-Comté","country_id":75,"country_code":"FR","country_name":"France","latitude":"47.25770000","longitude":"5.93581000","wikiDataId":"Q906642"},{"id":45253,"Name":"Pouilly-en-Auxois","state_id":4825,"state_code":"BFC","state_name":"Bourgogne-Franche-Comté","country_id":75,"country_code":"FR","country_name":"France","latitude":"47.26238000","longitude":"4.55583000","wikiDataId":"Q906642"},{"id":45257,"Name":"Pouilly-sur-Loire","state_id":4825,"state_code":"BFC","state_name":"Bourgogne-Franche-Comté","country_id":75,"country_code":"FR","country_name":"France","latitude":"47.28377000","longitude":"2.95442000","wikiDataId":"Q46529"},{"id":45265,"Name":"Pourrain","state_id":4825,"state_code":"BFC","state_name":"Bourgogne-Franche-Comté","country_id":75,"country_code":"FR","country_name":"France","latitude":"47.75615000","longitude":"3.41193000","wikiDataId":"Q273202"},{"id":45309,"Name":"Prémery","state_id":4825,"state_code":"BFC","state_name":"Bourgogne-Franche-Comté","country_id":75,"country_code":"FR","country_name":"France","latitude":"47.16952000","longitude":"3.32743000","wikiDataId":"Q1164859"},{"id":45290,"Name":"Prissé","state_id":4825,"state_code":"BFC","state_name":"Bourgogne-Franche-Comté","country_id":75,"country_code":"FR","country_name":"France","latitude":"46.32130000","longitude":"4.74469000","wikiDataId":"Q633101"},{"id":45330,"Name":"Pusey","state_id":4825,"state_code":"BFC","state_name":"Bourgogne-Franche-Comté","country_id":75,"country_code":"FR","country_name":"France","latitude":"47.65243000","longitude":"6.12615000","wikiDataId":"Q149322"},{"id":45380,"Name":"Quetigny","state_id":4825,"state_code":"BFC","state_name":"Bourgogne-Franche-Comté","country_id":75,"country_code":"FR","country_name":"France","latitude":"47.31667000","longitude":"5.11667000","wikiDataId":"Q127808"},{"id":45392,"Name":"Quincey","state_id":4825,"state_code":"BFC","state_name":"Bourgogne-Franche-Comté","country_id":75,"country_code":"FR","country_name":"France","latitude":"47.61165000","longitude":"6.18556000","wikiDataId":"Q904318"},{"id":45397,"Name":"Quingey","state_id":4825,"state_code":"BFC","state_name":"Bourgogne-Franche-Comté","country_id":75,"country_code":"FR","country_name":"France","latitude":"47.10250000","longitude":"5.88312000","wikiDataId":"Q752165"},{"id":45435,"Name":"Ravières","state_id":4825,"state_code":"BFC","state_name":"Bourgogne-Franche-Comté","country_id":75,"country_code":"FR","country_name":"France","latitude":"47.73475000","longitude":"4.22777000","wikiDataId":"Q214205"},{"id":45522,"Name":"Rioz","state_id":4825,"state_code":"BFC","state_name":"Bourgogne-Franche-Comté","country_id":75,"country_code":"FR","country_name":"France","latitude":"47.42521000","longitude":"6.06598000","wikiDataId":"Q902549"},{"id":45541,"Name":"Roche-lez-Beaupré","state_id":4825,"state_code":"BFC","state_name":"Bourgogne-Franche-Comté","country_id":75,"country_code":"FR","country_name":"France","latitude":"47.28333000","longitude":"6.11667000","wikiDataId":"Q3581"},{"id":45576,"Name":"Romanèche-Thorins","state_id":4825,"state_code":"BFC","state_name":"Bourgogne-Franche-Comté","country_id":75,"country_code":"FR","country_name":"France","latitude":"46.18402000","longitude":"4.74242000","wikiDataId":"Q372111"},{"id":45578,"Name":"Romenay","state_id":4825,"state_code":"BFC","state_name":"Bourgogne-Franche-Comté","country_id":75,"country_code":"FR","country_name":"France","latitude":"46.50208000","longitude":"5.06904000","wikiDataId":"Q21981"},{"id":45583,"Name":"Ronchamp","state_id":4825,"state_code":"BFC","state_name":"Bourgogne-Franche-Comté","country_id":75,"country_code":"FR","country_name":"France","latitude":"47.70063000","longitude":"6.63591000","wikiDataId":"Q845928"},{"id":45622,"Name":"Rougemont","state_id":4825,"state_code":"BFC","state_name":"Bourgogne-Franche-Comté","country_id":75,"country_code":"FR","country_name":"France","latitude":"47.48211000","longitude":"6.35574000","wikiDataId":"Q837503"},{"id":45623,"Name":"Rougemont-le-Château","state_id":4825,"state_code":"BFC","state_name":"Bourgogne-Franche-Comté","country_id":75,"country_code":"FR","country_name":"France","latitude":"47.73532000","longitude":"6.96690000","wikiDataId":"Q837503"},{"id":45631,"Name":"Roulans","state_id":4825,"state_code":"BFC","state_name":"Bourgogne-Franche-Comté","country_id":75,"country_code":"FR","country_name":"France","latitude":"47.31553000","longitude":"6.22901000","wikiDataId":"Q1437611"},{"id":45649,"Name":"Roye","state_id":4825,"state_code":"BFC","state_name":"Bourgogne-Franche-Comté","country_id":75,"country_code":"FR","country_name":"France","latitude":"47.66995000","longitude":"6.54139000","wikiDataId":"Q650136"},{"id":45664,"Name":"Ruffey-lès-Echirey","state_id":4825,"state_code":"BFC","state_name":"Bourgogne-Franche-Comté","country_id":75,"country_code":"FR","country_name":"France","latitude":"47.36667000","longitude":"5.08333000","wikiDataId":"Q785353"},{"id":45669,"Name":"Rully","state_id":4825,"state_code":"BFC","state_name":"Bourgogne-Franche-Comté","country_id":75,"country_code":"FR","country_name":"France","latitude":"46.87499000","longitude":"4.74322000","wikiDataId":"Q1011367"},{"id":45712,"Name":"Sagy","state_id":4825,"state_code":"BFC","state_name":"Bourgogne-Franche-Comté","country_id":75,"country_code":"FR","country_name":"France","latitude":"46.60129000","longitude":"5.31045000","wikiDataId":"Q624465"},{"id":45743,"Name":"Saint-Amand-en-Puisaye","state_id":4825,"state_code":"BFC","state_name":"Bourgogne-Franche-Comté","country_id":75,"country_code":"FR","country_name":"France","latitude":"47.52913000","longitude":"3.07400000","wikiDataId":"Q209109"},{"id":45752,"Name":"Saint-Amour","state_id":4825,"state_code":"BFC","state_name":"Bourgogne-Franche-Comté","country_id":75,"country_code":"FR","country_name":"France","latitude":"46.43638000","longitude":"5.34416000","wikiDataId":"Q149080"},{"id":45774,"Name":"Saint-Apollinaire","state_id":4825,"state_code":"BFC","state_name":"Bourgogne-Franche-Comté","country_id":75,"country_code":"FR","country_name":"France","latitude":"47.33333000","longitude":"5.08333000","wikiDataId":"Q178452"},{"id":45780,"Name":"Saint-Aubin","state_id":4825,"state_code":"BFC","state_name":"Bourgogne-Franche-Comté","country_id":75,"country_code":"FR","country_name":"France","latitude":"47.03336000","longitude":"5.32666000","wikiDataId":"Q539449"},{"id":45809,"Name":"Saint-Benin-d’Azy","state_id":4825,"state_code":"BFC","state_name":"Bourgogne-Franche-Comté","country_id":75,"country_code":"FR","country_name":"France","latitude":"46.99914000","longitude":"3.39267000","wikiDataId":"Q144884"},{"id":45813,"Name":"Saint-Berain-sous-Sanvignes","state_id":4825,"state_code":"BFC","state_name":"Bourgogne-Franche-Comté","country_id":75,"country_code":"FR","country_name":"France","latitude":"46.70678000","longitude":"4.29405000","wikiDataId":"Q144884"},{"id":45831,"Name":"Saint-Bris-le-Vineux","state_id":4825,"state_code":"BFC","state_name":"Bourgogne-Franche-Comté","country_id":75,"country_code":"FR","country_name":"France","latitude":"47.74396000","longitude":"3.64922000","wikiDataId":"Q947049"},{"id":45866,"Name":"Saint-Claude","state_id":4825,"state_code":"BFC","state_name":"Bourgogne-Franche-Comté","country_id":75,"country_code":"FR","country_name":"France","latitude":"46.38679000","longitude":"5.86473000","wikiDataId":"Q212444"},{"id":45870,"Name":"Saint-Clément","state_id":4825,"state_code":"BFC","state_name":"Bourgogne-Franche-Comté","country_id":75,"country_code":"FR","country_name":"France","latitude":"48.21724000","longitude":"3.29609000","wikiDataId":"Q189153"},{"id":46636,"Name":"Saint-Éloi","state_id":4825,"state_code":"BFC","state_name":"Bourgogne-Franche-Comté","country_id":75,"country_code":"FR","country_name":"France","latitude":"46.97342000","longitude":"3.22228000","wikiDataId":"Q207823"},{"id":45928,"Name":"Saint-Eusèbe","state_id":4825,"state_code":"BFC","state_name":"Bourgogne-Franche-Comté","country_id":75,"country_code":"FR","country_name":"France","latitude":"46.71346000","longitude":"4.46203000","wikiDataId":"Q643467"},{"id":45929,"Name":"Saint-Fargeau","state_id":4825,"state_code":"BFC","state_name":"Bourgogne-Franche-Comté","country_id":75,"country_code":"FR","country_name":"France","latitude":"47.64133000","longitude":"3.07066000","wikiDataId":"Q622863"},{"id":45937,"Name":"Saint-Florentin","state_id":4825,"state_code":"BFC","state_name":"Bourgogne-Franche-Comté","country_id":75,"country_code":"FR","country_name":"France","latitude":"48.00057000","longitude":"3.72489000","wikiDataId":"Q840511"},{"id":45957,"Name":"Saint-Gengoux-le-National","state_id":4825,"state_code":"BFC","state_name":"Bourgogne-Franche-Comté","country_id":75,"country_code":"FR","country_name":"France","latitude":"46.61476000","longitude":"4.66261000","wikiDataId":"Q1469211"},{"id":45988,"Name":"Saint-Georges-sur-Baulche","state_id":4825,"state_code":"BFC","state_name":"Bourgogne-Franche-Comté","country_id":75,"country_code":"FR","country_name":"France","latitude":"47.80039000","longitude":"3.53144000","wikiDataId":"Q251183"},{"id":45993,"Name":"Saint-Germain","state_id":4825,"state_code":"BFC","state_name":"Bourgogne-Franche-Comté","country_id":75,"country_code":"FR","country_name":"France","latitude":"47.72496000","longitude":"6.53117000","wikiDataId":"Q831235"},{"id":46009,"Name":"Saint-Germain-du-Bois","state_id":4825,"state_code":"BFC","state_name":"Bourgogne-Franche-Comté","country_id":75,"country_code":"FR","country_name":"France","latitude":"46.75287000","longitude":"5.24530000","wikiDataId":"Q1366381"},{"id":46011,"Name":"Saint-Germain-du-Plain","state_id":4825,"state_code":"BFC","state_name":"Bourgogne-Franche-Comté","country_id":75,"country_code":"FR","country_name":"France","latitude":"46.69938000","longitude":"4.98510000","wikiDataId":"Q1366381"},{"id":46069,"Name":"Saint-Hippolyte","state_id":4825,"state_code":"BFC","state_name":"Bourgogne-Franche-Comté","country_id":75,"country_code":"FR","country_name":"France","latitude":"47.31880000","longitude":"6.81617000","wikiDataId":"Q921819"},{"id":46093,"Name":"Saint-Jean-de-Losne","state_id":4825,"state_code":"BFC","state_name":"Bourgogne-Franche-Comté","country_id":75,"country_code":"FR","country_name":"France","latitude":"47.10247000","longitude":"5.26556000","wikiDataId":"Q16832"},{"id":46134,"Name":"Saint-Julien","state_id":4825,"state_code":"BFC","state_name":"Bourgogne-Franche-Comté","country_id":75,"country_code":"FR","country_name":"France","latitude":"47.40029000","longitude":"5.14163000","wikiDataId":"Q831290"},{"id":46142,"Name":"Saint-Julien-du-Sault","state_id":4825,"state_code":"BFC","state_name":"Bourgogne-Franche-Comté","country_id":75,"country_code":"FR","country_name":"France","latitude":"48.03188000","longitude":"3.29556000","wikiDataId":"Q1373341"},{"id":46186,"Name":"Saint-Laurent-en-Grandvaux","state_id":4825,"state_code":"BFC","state_name":"Bourgogne-Franche-Comté","country_id":75,"country_code":"FR","country_name":"France","latitude":"46.58333000","longitude":"5.95000000","wikiDataId":"Q217755"},{"id":46212,"Name":"Saint-Léger-des-Vignes","state_id":4825,"state_code":"BFC","state_name":"Bourgogne-Franche-Comté","country_id":75,"country_code":"FR","country_name":"France","latitude":"46.84063000","longitude":"3.45488000","wikiDataId":"Q1153078"},{"id":46218,"Name":"Saint-Léger-sur-Dheune","state_id":4825,"state_code":"BFC","state_name":"Bourgogne-Franche-Comté","country_id":75,"country_code":"FR","country_name":"France","latitude":"46.84548000","longitude":"4.63607000","wikiDataId":"Q1383098"},{"id":46192,"Name":"Saint-Leu","state_id":4825,"state_code":"BFC","state_name":"Bourgogne-Franche-Comté","country_id":75,"country_code":"FR","country_name":"France","latitude":"46.73060000","longitude":"4.50083000","wikiDataId":"Q49365845"},{"id":46201,"Name":"Saint-Loup-sur-Semouse","state_id":4825,"state_code":"BFC","state_name":"Bourgogne-Franche-Comté","country_id":75,"country_code":"FR","country_name":"France","latitude":"47.88345000","longitude":"6.27530000","wikiDataId":"Q901506"},{"id":46206,"Name":"Saint-Lupicin","state_id":4825,"state_code":"BFC","state_name":"Bourgogne-Franche-Comté","country_id":75,"country_code":"FR","country_name":"France","latitude":"46.40034000","longitude":"5.79220000","wikiDataId":"Q1011112"},{"id":46243,"Name":"Saint-Marcel","state_id":4825,"state_code":"BFC","state_name":"Bourgogne-Franche-Comté","country_id":75,"country_code":"FR","country_name":"France","latitude":"46.77371000","longitude":"4.89205000","wikiDataId":"Q903247"},{"id":46259,"Name":"Saint-Martin-Belle-Roche","state_id":4825,"state_code":"BFC","state_name":"Bourgogne-Franche-Comté","country_id":75,"country_code":"FR","country_name":"France","latitude":"46.38312000","longitude":"4.85539000","wikiDataId":"Q1065425"},{"id":46291,"Name":"Saint-Martin-du-Tertre","state_id":4825,"state_code":"BFC","state_name":"Bourgogne-Franche-Comté","country_id":75,"country_code":"FR","country_name":"France","latitude":"48.21659000","longitude":"3.26151000","wikiDataId":"Q275313"},{"id":46296,"Name":"Saint-Martin-en-Bresse","state_id":4825,"state_code":"BFC","state_name":"Bourgogne-Franche-Comté","country_id":75,"country_code":"FR","country_name":"France","latitude":"46.81725000","longitude":"5.06027000","wikiDataId":"Q275313"},{"id":46396,"Name":"Saint-Parize-le-Châtel","state_id":4825,"state_code":"BFC","state_name":"Bourgogne-Franche-Comté","country_id":75,"country_code":"FR","country_name":"France","latitude":"46.85447000","longitude":"3.18267000","wikiDataId":"Q1365671"},{"id":46449,"Name":"Saint-Pierre-le-Moûtier","state_id":4825,"state_code":"BFC","state_name":"Bourgogne-Franche-Comté","country_id":75,"country_code":"FR","country_name":"France","latitude":"46.79277000","longitude":"3.11657000","wikiDataId":"Q544967"},{"id":46508,"Name":"Saint-Rémy","state_id":4825,"state_code":"BFC","state_name":"Bourgogne-Franche-Comté","country_id":75,"country_code":"FR","country_name":"France","latitude":"46.76334000","longitude":"4.83928000","wikiDataId":"Q1170212"},{"id":46530,"Name":"Saint-Sauveur","state_id":4825,"state_code":"BFC","state_name":"Bourgogne-Franche-Comté","country_id":75,"country_code":"FR","country_name":"France","latitude":"47.80530000","longitude":"6.38583000","wikiDataId":"Q1101167"},{"id":46549,"Name":"Saint-Sernin-du-Bois","state_id":4825,"state_code":"BFC","state_name":"Bourgogne-Franche-Comté","country_id":75,"country_code":"FR","country_name":"France","latitude":"46.84074000","longitude":"4.43271000","wikiDataId":"Q675839"},{"id":46592,"Name":"Saint-Usage","state_id":4825,"state_code":"BFC","state_name":"Bourgogne-Franche-Comté","country_id":75,"country_code":"FR","country_name":"France","latitude":"47.11009000","longitude":"5.26044000","wikiDataId":"Q193046"},{"id":46593,"Name":"Saint-Usuge","state_id":4825,"state_code":"BFC","state_name":"Bourgogne-Franche-Comté","country_id":75,"country_code":"FR","country_name":"France","latitude":"46.67900000","longitude":"5.25089000","wikiDataId":"Q193046"},{"id":46601,"Name":"Saint-Valérien","state_id":4825,"state_code":"BFC","state_name":"Bourgogne-Franche-Comté","country_id":75,"country_code":"FR","country_name":"France","latitude":"48.17805000","longitude":"3.09523000","wikiDataId":"Q1602947"},{"id":46598,"Name":"Saint-Vallier","state_id":4825,"state_code":"BFC","state_name":"Bourgogne-Franche-Comté","country_id":75,"country_code":"FR","country_name":"France","latitude":"46.64107000","longitude":"4.37107000","wikiDataId":"Q1602947"},{"id":46619,"Name":"Saint-Vit","state_id":4825,"state_code":"BFC","state_name":"Bourgogne-Franche-Comté","country_id":75,"country_code":"FR","country_name":"France","latitude":"47.18333000","longitude":"5.81667000","wikiDataId":"Q906399"},{"id":46628,"Name":"Saint-Yan","state_id":4825,"state_code":"BFC","state_name":"Bourgogne-Franche-Comté","country_id":75,"country_code":"FR","country_name":"France","latitude":"46.41147000","longitude":"4.03876000","wikiDataId":"Q1625104"},{"id":46730,"Name":"Sainte-Suzanne","state_id":4825,"state_code":"BFC","state_name":"Bourgogne-Franche-Comté","country_id":75,"country_code":"FR","country_name":"France","latitude":"47.50017000","longitude":"6.76775000","wikiDataId":"Q264579"},{"id":46742,"Name":"Salbert","state_id":4825,"state_code":"BFC","state_name":"Bourgogne-Franche-Comté","country_id":75,"country_code":"FR","country_name":"France","latitude":"47.66959000","longitude":"6.81269000","wikiDataId":"Q1067733"},{"id":46755,"Name":"Salins-les-Bains","state_id":4825,"state_code":"BFC","state_name":"Bourgogne-Franche-Comté","country_id":75,"country_code":"FR","country_name":"France","latitude":"46.94663000","longitude":"5.87763000","wikiDataId":"Q820042"},{"id":46784,"Name":"Sancé","state_id":4825,"state_code":"BFC","state_name":"Bourgogne-Franche-Comté","country_id":75,"country_code":"FR","country_name":"France","latitude":"46.33926000","longitude":"4.83049000","wikiDataId":"Q753096"},{"id":46782,"Name":"Sancey-le-Grand","state_id":4825,"state_code":"BFC","state_name":"Bourgogne-Franche-Comté","country_id":75,"country_code":"FR","country_name":"France","latitude":"47.29489000","longitude":"6.58287000","wikiDataId":"Q459683"},{"id":46800,"Name":"Sanvignes-les-Mines","state_id":4825,"state_code":"BFC","state_name":"Bourgogne-Franche-Comté","country_id":75,"country_code":"FR","country_name":"France","latitude":"46.66444000","longitude":"4.29188000","wikiDataId":"Q665107"},{"id":46893,"Name":"Saône","state_id":4825,"state_code":"BFC","state_name":"Bourgogne-Franche-Comté","country_id":75,"country_code":"FR","country_name":"France","latitude":"47.22311000","longitude":"6.11682000","wikiDataId":"Q748742"},{"id":46826,"Name":"Sassenay","state_id":4825,"state_code":"BFC","state_name":"Bourgogne-Franche-Comté","country_id":75,"country_code":"FR","country_name":"France","latitude":"46.83074000","longitude":"4.92523000","wikiDataId":"Q694818"},{"id":46841,"Name":"Saulieu","state_id":4825,"state_code":"BFC","state_name":"Bourgogne-Franche-Comté","country_id":75,"country_code":"FR","country_name":"France","latitude":"47.28023000","longitude":"4.22857000","wikiDataId":"Q1614204"},{"id":46866,"Name":"Sauvigny-les-Bois","state_id":4825,"state_code":"BFC","state_name":"Bourgogne-Franche-Comté","country_id":75,"country_code":"FR","country_name":"France","latitude":"46.96676000","longitude":"3.27190000","wikiDataId":"Q690367"},{"id":46881,"Name":"Savigny-lès-Beaune","state_id":4825,"state_code":"BFC","state_name":"Bourgogne-Franche-Comté","country_id":75,"country_code":"FR","country_name":"France","latitude":"47.06357000","longitude":"4.81821000","wikiDataId":"Q328010"},{"id":46896,"Name":"Scey-sur-Saône-et-Saint-Albin","state_id":4825,"state_code":"BFC","state_name":"Bourgogne-Franche-Comté","country_id":75,"country_code":"FR","country_name":"France","latitude":"47.66398000","longitude":"5.97451000","wikiDataId":"Q317493"},{"id":46918,"Name":"Seignelay","state_id":4825,"state_code":"BFC","state_name":"Bourgogne-Franche-Comté","country_id":75,"country_code":"FR","country_name":"France","latitude":"47.90542000","longitude":"3.60136000","wikiDataId":"Q767553"},{"id":46932,"Name":"Seloncourt","state_id":4825,"state_code":"BFC","state_name":"Bourgogne-Franche-Comté","country_id":75,"country_code":"FR","country_name":"France","latitude":"47.45989000","longitude":"6.85535000","wikiDataId":"Q832386"},{"id":46933,"Name":"Selongey","state_id":4825,"state_code":"BFC","state_name":"Bourgogne-Franche-Comté","country_id":75,"country_code":"FR","country_name":"France","latitude":"47.58846000","longitude":"5.18483000","wikiDataId":"Q832386"},{"id":46938,"Name":"Semur-en-Auxois","state_id":4825,"state_code":"BFC","state_name":"Bourgogne-Franche-Comté","country_id":75,"country_code":"FR","country_name":"France","latitude":"47.48333000","longitude":"4.33333000","wikiDataId":"Q236579"},{"id":46941,"Name":"Sennecey-le-Grand","state_id":4825,"state_code":"BFC","state_name":"Bourgogne-Franche-Comté","country_id":75,"country_code":"FR","country_name":"France","latitude":"46.64137000","longitude":"4.86707000","wikiDataId":"Q126668"},{"id":46942,"Name":"Sennecey-lès-Dijon","state_id":4825,"state_code":"BFC","state_name":"Bourgogne-Franche-Comté","country_id":75,"country_code":"FR","country_name":"France","latitude":"47.28984000","longitude":"5.10485000","wikiDataId":"Q126668"},{"id":46945,"Name":"Sens","state_id":4825,"state_code":"BFC","state_name":"Bourgogne-Franche-Comté","country_id":75,"country_code":"FR","country_name":"France","latitude":"48.19738000","longitude":"3.28328000","wikiDataId":"Q212420"},{"id":46954,"Name":"Sergines","state_id":4825,"state_code":"BFC","state_name":"Bourgogne-Franche-Comté","country_id":75,"country_code":"FR","country_name":"France","latitude":"48.34203000","longitude":"3.26213000","wikiDataId":"Q1461215"},{"id":46958,"Name":"Sermoise-sur-Loire","state_id":4825,"state_code":"BFC","state_name":"Bourgogne-Franche-Comté","country_id":75,"country_code":"FR","country_name":"France","latitude":"46.95000000","longitude":"3.18333000","wikiDataId":"Q1461215"},{"id":46965,"Name":"Serre-les-Sapins","state_id":4825,"state_code":"BFC","state_name":"Bourgogne-Franche-Comté","country_id":75,"country_code":"FR","country_name":"France","latitude":"47.25000000","longitude":"5.93333000","wikiDataId":"Q662658"},{"id":46978,"Name":"Seurre","state_id":4825,"state_code":"BFC","state_name":"Bourgogne-Franche-Comté","country_id":75,"country_code":"FR","country_name":"France","latitude":"46.99923000","longitude":"5.15138000","wikiDataId":"Q1647493"},{"id":46980,"Name":"Sevrey","state_id":4825,"state_code":"BFC","state_name":"Bourgogne-Franche-Comté","country_id":75,"country_code":"FR","country_name":"France","latitude":"46.73825000","longitude":"4.84030000","wikiDataId":"Q387630"},{"id":47000,"Name":"Simandre","state_id":4825,"state_code":"BFC","state_name":"Bourgogne-Franche-Comté","country_id":75,"country_code":"FR","country_name":"France","latitude":"46.62364000","longitude":"4.98777000","wikiDataId":"Q1234103"},{"id":47014,"Name":"Sochaux","state_id":4825,"state_code":"BFC","state_name":"Bourgogne-Franche-Comté","country_id":75,"country_code":"FR","country_name":"France","latitude":"47.50808000","longitude":"6.82748000","wikiDataId":"Q281863"},{"id":47049,"Name":"Sornay","state_id":4825,"state_code":"BFC","state_name":"Bourgogne-Franche-Comté","country_id":75,"country_code":"FR","country_name":"France","latitude":"46.63023000","longitude":"5.17999000","wikiDataId":"Q175153"},{"id":47061,"Name":"Soucy","state_id":4825,"state_code":"BFC","state_name":"Bourgogne-Franche-Comté","country_id":75,"country_code":"FR","country_name":"France","latitude":"48.24956000","longitude":"3.32385000","wikiDataId":"Q1024742"},{"id":47156,"Name":"Taillecourt","state_id":4825,"state_code":"BFC","state_name":"Bourgogne-Franche-Comté","country_id":75,"country_code":"FR","country_name":"France","latitude":"47.49521000","longitude":"6.85442000","wikiDataId":"Q142178"},{"id":47161,"Name":"Talant","state_id":4825,"state_code":"BFC","state_name":"Bourgogne-Franche-Comté","country_id":75,"country_code":"FR","country_name":"France","latitude":"47.33693000","longitude":"5.00888000","wikiDataId":"Q1158045"},{"id":47171,"Name":"Tanlay","state_id":4825,"state_code":"BFC","state_name":"Bourgogne-Franche-Comté","country_id":75,"country_code":"FR","country_name":"France","latitude":"47.84488000","longitude":"4.08504000","wikiDataId":"Q839520"},{"id":47190,"Name":"Tavaux","state_id":4825,"state_code":"BFC","state_name":"Bourgogne-Franche-Comté","country_id":75,"country_code":"FR","country_name":"France","latitude":"47.03376000","longitude":"5.40500000","wikiDataId":"Q768163"},