[{"id":17371,"Name":"Aesch","state_id":1641,"state_code":"BL","state_name":"Basel-Land","country_id":214,"country_code":"CH","country_name":"Switzerland","latitude":"47.47104000","longitude":"7.59730000","wikiDataId":"Q22361346"},{"id":17386,"Name":"Allschwil","state_id":1641,"state_code":"BL","state_name":"Basel-Land","country_id":214,"country_code":"CH","country_name":"Switzerland","latitude":"47.55074000","longitude":"7.53599000","wikiDataId":"Q22394150"},{"id":17406,"Name":"Arisdorf","state_id":1641,"state_code":"BL","state_name":"Basel-Land","country_id":214,"country_code":"CH","country_name":"Switzerland","latitude":"47.51323000","longitude":"7.76515000","wikiDataId":"Q22450913"},{"id":17408,"Name":"Arlesheim","state_id":1641,"state_code":"BL","state_name":"Basel-Land","country_id":214,"country_code":"CH","country_name":"Switzerland","latitude":"47.49412000","longitude":"7.61979000","wikiDataId":"Q22451146"},{"id":17474,"Name":"Bezirk Arlesheim","state_id":1641,"state_code":"BL","state_name":"Basel-Land","country_id":214,"country_code":"CH","country_name":"Switzerland","latitude":"47.51668000","longitude":"7.58733000","wikiDataId":"Q688961"},{"id":17493,"Name":"Bezirk Laufen","state_id":1641,"state_code":"BL","state_name":"Basel-Land","country_id":214,"country_code":"CH","country_name":"Switzerland","latitude":"47.42324000","longitude":"7.48750000","wikiDataId":"Q113474"},{"id":17497,"Name":"Bezirk Liestal","state_id":1641,"state_code":"BL","state_name":"Basel-Land","country_id":214,"country_code":"CH","country_name":"Switzerland","latitude":"47.48124000","longitude":"7.72714000","wikiDataId":"Q659800"},{"id":17510,"Name":"Bezirk Sissach","state_id":1641,"state_code":"BL","state_name":"Basel-Land","country_id":214,"country_code":"CH","country_name":"Switzerland","latitude":"47.44237000","longitude":"7.84871000","wikiDataId":"Q660249"},{"id":17518,"Name":"Bezirk Waldenburg","state_id":1641,"state_code":"BL","state_name":"Basel-Land","country_id":214,"country_code":"CH","country_name":"Switzerland","latitude":"47.39367000","longitude":"7.74137000","wikiDataId":"Q598365"},{"id":17530,"Name":"Binningen","state_id":1641,"state_code":"BL","state_name":"Basel-Land","country_id":214,"country_code":"CH","country_name":"Switzerland","latitude":"47.54021000","longitude":"7.56932000","wikiDataId":"Q22546214"},{"id":17538,"Name":"Birsfelden","state_id":1641,"state_code":"BL","state_name":"Basel-Land","country_id":214,"country_code":"CH","country_name":"Switzerland","latitude":"47.55290000","longitude":"7.62322000","wikiDataId":"Q22551246"},{"id":17553,"Name":"Bottmingen","state_id":1641,"state_code":"BL","state_name":"Basel-Land","country_id":214,"country_code":"CH","country_name":"Switzerland","latitude":"47.52343000","longitude":"7.57211000","wikiDataId":"Q22581162"},{"id":17563,"Name":"Brislach","state_id":1641,"state_code":"BL","state_name":"Basel-Land","country_id":214,"country_code":"CH","country_name":"Switzerland","latitude":"47.41763000","longitude":"7.54340000","wikiDataId":"Q22595117"},{"id":17575,"Name":"Bubendorf","state_id":1641,"state_code":"BL","state_name":"Basel-Land","country_id":214,"country_code":"CH","country_name":"Switzerland","latitude":"47.44586000","longitude":"7.73759000","wikiDataId":"Q22602724"},{"id":17589,"Name":"Buus","state_id":1641,"state_code":"BL","state_name":"Basel-Land","country_id":214,"country_code":"CH","country_name":"Switzerland","latitude":"47.50635000","longitude":"7.86414000","wikiDataId":"Q22364264"},{"id":17684,"Name":"Diegten","state_id":1641,"state_code":"BL","state_name":"Basel-Land","country_id":214,"country_code":"CH","country_name":"Switzerland","latitude":"47.41380000","longitude":"7.81085000","wikiDataId":"Q22630012"},{"id":17775,"Name":"Ettingen","state_id":1641,"state_code":"BL","state_name":"Basel-Land","country_id":214,"country_code":"CH","country_name":"Switzerland","latitude":"47.48225000","longitude":"7.54654000","wikiDataId":"Q22445194"},{"id":17808,"Name":"Frenkendorf","state_id":1641,"state_code":"BL","state_name":"Basel-Land","country_id":214,"country_code":"CH","country_name":"Switzerland","latitude":"47.50686000","longitude":"7.71648000","wikiDataId":"Q22511682"},{"id":17817,"Name":"Füllinsdorf","state_id":1641,"state_code":"BL","state_name":"Basel-Land","country_id":214,"country_code":"CH","country_name":"Switzerland","latitude":"47.50688000","longitude":"7.73129000","wikiDataId":"Q22619754"},{"id":17825,"Name":"Gelterkinden","state_id":1641,"state_code":"BL","state_name":"Basel-Land","country_id":214,"country_code":"CH","country_name":"Switzerland","latitude":"47.46497000","longitude":"7.85174000","wikiDataId":"Q22634007"},{"id":17867,"Name":"Grellingen","state_id":1641,"state_code":"BL","state_name":"Basel-Land","country_id":214,"country_code":"CH","country_name":"Switzerland","latitude":"47.44231000","longitude":"7.58906000","wikiDataId":"Q22440045"},{"id":17942,"Name":"Hölstein","state_id":1641,"state_code":"BL","state_name":"Basel-Land","country_id":214,"country_code":"CH","country_name":"Switzerland","latitude":"47.42290000","longitude":"7.77041000","wikiDataId":"Q22444499"},{"id":17956,"Name":"Itingen","state_id":1641,"state_code":"BL","state_name":"Basel-Land","country_id":214,"country_code":"CH","country_name":"Switzerland","latitude":"47.46651000","longitude":"7.78502000","wikiDataId":"Q22445345"},{"id":18034,"Name":"Langenbruck","state_id":1641,"state_code":"BL","state_name":"Basel-Land","country_id":214,"country_code":"CH","country_name":"Switzerland","latitude":"47.34917000","longitude":"7.76802000","wikiDataId":"Q22362386"},{"id":18109,"Name":"Läufelfingen","state_id":1641,"state_code":"BL","state_name":"Basel-Land","country_id":214,"country_code":"CH","country_name":"Switzerland","latitude":"47.39457000","longitude":"7.85578000","wikiDataId":"Q22614554"},{"id":18042,"Name":"Laufen","state_id":1641,"state_code":"BL","state_name":"Basel-Land","country_id":214,"country_code":"CH","country_name":"Switzerland","latitude":"47.42193000","longitude":"7.49946000","wikiDataId":"Q22372470"},{"id":18050,"Name":"Lausen","state_id":1641,"state_code":"BL","state_name":"Basel-Land","country_id":214,"country_code":"CH","country_name":"Switzerland","latitude":"47.47139000","longitude":"7.76030000","wikiDataId":"Q22374830"},{"id":18082,"Name":"Liesberg","state_id":1641,"state_code":"BL","state_name":"Basel-Land","country_id":214,"country_code":"CH","country_name":"Switzerland","latitude":"47.40398000","longitude":"7.42787000","wikiDataId":"Q22426676"},{"id":18083,"Name":"Liestal","state_id":1641,"state_code":"BL","state_name":"Basel-Land","country_id":214,"country_code":"CH","country_name":"Switzerland","latitude":"47.48455000","longitude":"7.73446000","wikiDataId":"Q22426676"},{"id":18200,"Name":"Münchenstein","state_id":1641,"state_code":"BL","state_name":"Basel-Land","country_id":214,"country_code":"CH","country_name":"Switzerland","latitude":"47.51848000","longitude":"7.60966000","wikiDataId":"Q22643903"},{"id":18185,"Name":"Muttenz","state_id":1641,"state_code":"BL","state_name":"Basel-Land","country_id":214,"country_code":"CH","country_name":"Switzerland","latitude":"47.52271000","longitude":"7.64511000","wikiDataId":"Q22640384"},{"id":18244,"Name":"Oberdorf","state_id":1641,"state_code":"BL","state_name":"Basel-Land","country_id":214,"country_code":"CH","country_name":"Switzerland","latitude":"47.39353000","longitude":"7.75169000","wikiDataId":"Q22419678"},{"id":18270,"Name":"Oberwil","state_id":1641,"state_code":"BL","state_name":"Basel-Land","country_id":214,"country_code":"CH","country_name":"Switzerland","latitude":"47.51407000","longitude":"7.55786000","wikiDataId":"Q22421694"},{"id":18287,"Name":"Ormalingen","state_id":1641,"state_code":"BL","state_name":"Basel-Land","country_id":214,"country_code":"CH","country_name":"Switzerland","latitude":"47.46936000","longitude":"7.87248000","wikiDataId":"Q22449071"},{"id":18307,"Name":"Pfeffingen","state_id":1641,"state_code":"BL","state_name":"Basel-Land","country_id":214,"country_code":"CH","country_name":"Switzerland","latitude":"47.45984000","longitude":"7.58975000","wikiDataId":"Q22535291"},{"id":18324,"Name":"Pratteln","state_id":1641,"state_code":"BL","state_name":"Basel-Land","country_id":214,"country_code":"CH","country_name":"Switzerland","latitude":"47.52071000","longitude":"7.69356000","wikiDataId":"Q22562729"},{"id":18362,"Name":"Reigoldswil","state_id":1641,"state_code":"BL","state_name":"Basel-Land","country_id":214,"country_code":"CH","country_name":"Switzerland","latitude":"47.39824000","longitude":"7.68718000","wikiDataId":"Q22594845"},{"id":18403,"Name":"Röschenz","state_id":1641,"state_code":"BL","state_name":"Basel-Land","country_id":214,"country_code":"CH","country_name":"Switzerland","latitude":"47.42366000","longitude":"7.48024000","wikiDataId":"Q22371020"},{"id":18484,"Name":"Schönenbuch","state_id":1641,"state_code":"BL","state_name":"Basel-Land","country_id":214,"country_code":"CH","country_name":"Switzerland","latitude":"47.53853000","longitude":"7.50572000","wikiDataId":"Q22548757"},{"id":18505,"Name":"Seltisberg","state_id":1641,"state_code":"BL","state_name":"Basel-Land","country_id":214,"country_code":"CH","country_name":"Switzerland","latitude":"47.46249000","longitude":"7.72039000","wikiDataId":"Q22560898"},{"id":18526,"Name":"Sissach","state_id":1641,"state_code":"BL","state_name":"Basel-Land","country_id":214,"country_code":"CH","country_name":"Switzerland","latitude":"47.46408000","longitude":"7.80888000","wikiDataId":"Q22631389"},{"id":18589,"Name":"Therwil","state_id":1641,"state_code":"BL","state_name":"Basel-Land","country_id":214,"country_code":"CH","country_name":"Switzerland","latitude":"47.49941000","longitude":"7.55669000","wikiDataId":"Q22494360"},{"id":18699,"Name":"Wahlen","state_id":1641,"state_code":"BL","state_name":"Basel-Land","country_id":214,"country_code":"CH","country_name":"Switzerland","latitude":"47.40226000","longitude":"7.51511000","wikiDataId":"Q22438542"},{"id":18710,"Name":"Waldenburg","state_id":1641,"state_code":"BL","state_name":"Basel-Land","country_id":214,"country_code":"CH","country_name":"Switzerland","latitude":"47.38333000","longitude":"7.75000000","wikiDataId":"Q22440950"},{"id":18803,"Name":"Zunzgen","state_id":1641,"state_code":"BL","state_name":"Basel-Land","country_id":214,"country_code":"CH","country_name":"Switzerland","latitude":"47.44925000","longitude":"7.80789000","wikiDataId":"Q22658914"},{"id":18807,"Name":"Zwingen","state_id":1641,"state_code":"BL","state_name":"Basel-Land","country_id":214,"country_code":"CH","country_name":"Switzerland","latitude":"47.43825000","longitude":"7.53027000","wikiDataId":"Q22659164"}]