[{"id":149086,"Name":"Banda","state_id":4959,"state_code":"BO","state_name":"Bono","country_id":83,"country_code":"GH","country_name":"Ghana","latitude":"8.14956710","longitude":"-2.36639500","wikiDataId":"Q20312309"},{"id":149087,"Name":"Berekum East","state_id":4959,"state_code":"BO","state_name":"Bono","country_id":83,"country_code":"GH","country_name":"Ghana","latitude":"7.51117580","longitude":"-2.75998310","wikiDataId":"Q55555195"},{"id":149088,"Name":"Berekum West","state_id":4959,"state_code":"BO","state_name":"Bono","country_id":83,"country_code":"GH","country_name":"Ghana","latitude":"7.51117580","longitude":"-2.75998310","wikiDataId":"Q104822488"},{"id":149089,"Name":"Dormaa Central","state_id":4959,"state_code":"BO","state_name":"Bono","country_id":83,"country_code":"GH","country_name":"Ghana","latitude":"7.27750000","longitude":"-2.87833300","wikiDataId":"Q692883"},{"id":149090,"Name":"Dormaa East","state_id":4959,"state_code":"BO","state_name":"Bono","country_id":83,"country_code":"GH","country_name":"Ghana","latitude":"7.30000000","longitude":"-2.70000000","wikiDataId":"Q5298060"},{"id":149091,"Name":"Dormaa West","state_id":4959,"state_code":"BO","state_name":"Bono","country_id":83,"country_code":"GH","country_name":"Ghana","latitude":"7.01666700","longitude":"-3.05000000","wikiDataId":"Q55555259"},{"id":149092,"Name":"Jaman North","state_id":4959,"state_code":"BO","state_name":"Bono","country_id":83,"country_code":"GH","country_name":"Ghana","latitude":"7.98832340","longitude":"-2.96858690","wikiDataId":"Q1504034"},{"id":149093,"Name":"Jaman South","state_id":4959,"state_code":"BO","state_name":"Bono","country_id":83,"country_code":"GH","country_name":"Ghana","latitude":"7.70843750","longitude":"-3.07501700","wikiDataId":"Q1504079"},{"id":149094,"Name":"Sunyani","state_id":4959,"state_code":"BO","state_name":"Bono","country_id":83,"country_code":"GH","country_name":"Ghana","latitude":"7.33803320","longitude":"-2.34871460","wikiDataId":"Q1786388"},{"id":149095,"Name":"Sunyani West","state_id":4959,"state_code":"BO","state_name":"Bono","country_id":83,"country_code":"GH","country_name":"Ghana","latitude":"7.35660520","longitude":"-2.44618620","wikiDataId":"Q7641761"},{"id":149096,"Name":"Tain","state_id":4959,"state_code":"BO","state_name":"Bono","country_id":83,"country_code":"GH","country_name":"Ghana","latitude":"8.18114110","longitude":"-2.86487620","wikiDataId":"Q695048"},{"id":149097,"Name":"Wenchi","state_id":4959,"state_code":"BO","state_name":"Bono","country_id":83,"country_code":"GH","country_name":"Ghana","latitude":"7.74059920","longitude":"-2.12267880","wikiDataId":"Q1504094"}]