[{"id":57661,"Name":"Amarpur","state_id":4037,"state_code":"BR","state_name":"Bihar","country_id":101,"country_code":"IN","country_name":"India","latitude":"25.03967000","longitude":"86.90247000","wikiDataId":"Q1609229"},{"id":57730,"Name":"Araria","state_id":4037,"state_code":"BR","state_name":"Bihar","country_id":101,"country_code":"IN","country_name":"India","latitude":"26.20000000","longitude":"87.40000000","wikiDataId":"Q42901"},{"id":57739,"Name":"Arrah","state_id":4037,"state_code":"BR","state_name":"Bihar","country_id":101,"country_code":"IN","country_name":"India","latitude":"25.55629000","longitude":"84.66335000","wikiDataId":"Q588587"},{"id":57747,"Name":"Arwal","state_id":4037,"state_code":"BR","state_name":"Bihar","country_id":101,"country_code":"IN","country_name":"India","latitude":"25.16158000","longitude":"84.69040000","wikiDataId":"Q42917"},{"id":57749,"Name":"Asarganj","state_id":4037,"state_code":"BR","state_name":"Bihar","country_id":101,"country_code":"IN","country_name":"India","latitude":"25.15046000","longitude":"86.68639000","wikiDataId":"Q589912"},{"id":57766,"Name":"Aurangabad","state_id":4037,"state_code":"BR","state_name":"Bihar","country_id":101,"country_code":"IN","country_name":"India","latitude":"24.75204000","longitude":"84.37420000","wikiDataId":"Q590550"},{"id":57796,"Name":"Bagaha","state_id":4037,"state_code":"BR","state_name":"Bihar","country_id":101,"country_code":"IN","country_name":"India","latitude":"27.09918000","longitude":"84.09003000","wikiDataId":"Q590593"},{"id":57809,"Name":"Bahadurganj","state_id":4037,"state_code":"BR","state_name":"Bihar","country_id":101,"country_code":"IN","country_name":"India","latitude":"26.26172000","longitude":"87.82443000","wikiDataId":"Q622603"},{"id":57815,"Name":"Bairagnia","state_id":4037,"state_code":"BR","state_name":"Bihar","country_id":101,"country_code":"IN","country_name":"India","latitude":"26.74063000","longitude":"85.27323000","wikiDataId":"Q636552"},{"id":57816,"Name":"Baisi","state_id":4037,"state_code":"BR","state_name":"Bihar","country_id":101,"country_code":"IN","country_name":"India","latitude":"25.86302000","longitude":"87.74487000","wikiDataId":"Q4848696"},{"id":57818,"Name":"Bakhtiyarpur","state_id":4037,"state_code":"BR","state_name":"Bihar","country_id":101,"country_code":"IN","country_name":"India","latitude":"25.46179000","longitude":"85.53179000","wikiDataId":"Q622609"},{"id":57850,"Name":"Bangaon","state_id":4037,"state_code":"BR","state_name":"Bihar","country_id":101,"country_code":"IN","country_name":"India","latitude":"25.86728000","longitude":"86.51152000","wikiDataId":"Q5266882"},{"id":57854,"Name":"Banka","state_id":4037,"state_code":"BR","state_name":"Bihar","country_id":101,"country_code":"IN","country_name":"India","latitude":"24.89214000","longitude":"86.98425000","wikiDataId":"Q43097"},{"id":57855,"Name":"Banmankhi","state_id":4037,"state_code":"BR","state_name":"Bihar","country_id":101,"country_code":"IN","country_name":"India","latitude":"25.88857000","longitude":"87.19421000","wikiDataId":"Q4856831"},{"id":57860,"Name":"Bar Bigha","state_id":4037,"state_code":"BR","state_name":"Bihar","country_id":101,"country_code":"IN","country_name":"India","latitude":"25.21855000","longitude":"85.73320000","wikiDataId":"Q622613"},{"id":57864,"Name":"Barauli","state_id":4037,"state_code":"BR","state_name":"Bihar","country_id":101,"country_code":"IN","country_name":"India","latitude":"26.38109000","longitude":"84.58648000","wikiDataId":"Q12440787"},{"id":58141,"Name":"Barh","state_id":4037,"state_code":"BR","state_name":"Bihar","country_id":101,"country_code":"IN","country_name":"India","latitude":"25.48339000","longitude":"85.70928000","wikiDataId":"Q709313"},{"id":57873,"Name":"Barhiya","state_id":4037,"state_code":"BR","state_name":"Bihar","country_id":101,"country_code":"IN","country_name":"India","latitude":"25.28814000","longitude":"86.02055000","wikiDataId":"Q709090"},{"id":57875,"Name":"Bariarpur","state_id":4037,"state_code":"BR","state_name":"Bihar","country_id":101,"country_code":"IN","country_name":"India","latitude":"25.28791000","longitude":"86.57643000","wikiDataId":"Q712396"},{"id":58145,"Name":"Baruni","state_id":4037,"state_code":"BR","state_name":"Bihar","country_id":101,"country_code":"IN","country_name":"India","latitude":"25.47509000","longitude":"85.96813000","wikiDataId":"Q42016"},{"id":57915,"Name":"Begusarai","state_id":4037,"state_code":"BR","state_name":"Bihar","country_id":101,"country_code":"IN","country_name":"India","latitude":"25.41853000","longitude":"86.13389000","wikiDataId":"Q598985"},{"id":57927,"Name":"Belsand","state_id":4037,"state_code":"BR","state_name":"Bihar","country_id":101,"country_code":"IN","country_name":"India","latitude":"26.44365000","longitude":"85.40076000","wikiDataId":"Q721485"},{"id":57941,"Name":"Bettiah","state_id":4037,"state_code":"BR","state_name":"Bihar","country_id":101,"country_code":"IN","country_name":"India","latitude":"26.80229000","longitude":"84.50311000","wikiDataId":"Q759222"},{"id":57947,"Name":"Bhabhua","state_id":4037,"state_code":"BR","state_name":"Bihar","country_id":101,"country_code":"IN","country_name":"India","latitude":"25.04049000","longitude":"83.60749000","wikiDataId":"Q759544"},{"id":58009,"Name":"Bhagalpur","state_id":4037,"state_code":"BR","state_name":"Bihar","country_id":101,"country_code":"IN","country_name":"India","latitude":"25.29023000","longitude":"87.06665000","wikiDataId":"Q49155"},{"id":57957,"Name":"Bhagirathpur","state_id":4037,"state_code":"BR","state_name":"Bihar","country_id":101,"country_code":"IN","country_name":"India","latitude":"26.26950000","longitude":"86.06346000","wikiDataId":"Q2284099"},{"id":57974,"Name":"Bhawanipur","state_id":4037,"state_code":"BR","state_name":"Bihar","country_id":101,"country_code":"IN","country_name":"India","latitude":"26.45352000","longitude":"87.02744000","wikiDataId":"Q4901597"},{"id":57991,"Name":"Bhojpur","state_id":4037,"state_code":"BR","state_name":"Bihar","country_id":101,"country_code":"IN","country_name":"India","latitude":"25.30886000","longitude":"84.44504000","wikiDataId":"Q796770"},{"id":58029,"Name":"Bihar Sharif","state_id":4037,"state_code":"BR","state_name":"Bihar","country_id":101,"country_code":"IN","country_name":"India","latitude":"25.20084000","longitude":"85.52389000","wikiDataId":"Q2308343"},{"id":58030,"Name":"Bihariganj","state_id":4037,"state_code":"BR","state_name":"Bihar","country_id":101,"country_code":"IN","country_name":"India","latitude":"25.73415000","longitude":"86.98837000","wikiDataId":"Q4907104"},{"id":58039,"Name":"Bikramganj","state_id":4037,"state_code":"BR","state_name":"Bihar","country_id":101,"country_code":"IN","country_name":"India","latitude":"25.21073000","longitude":"84.25508000","wikiDataId":"Q796526"},{"id":58160,"Name":"Birpur","state_id":4037,"state_code":"BR","state_name":"Bihar","country_id":101,"country_code":"IN","country_name":"India","latitude":"26.50823000","longitude":"87.01194000","wikiDataId":"Q795718"},{"id":58089,"Name":"Buddh Gaya","state_id":4037,"state_code":"BR","state_name":"Bihar","country_id":101,"country_code":"IN","country_name":"India","latitude":"24.69808000","longitude":"84.98690000","wikiDataId":"Q176767"},{"id":58100,"Name":"Buxar","state_id":4037,"state_code":"BR","state_name":"Bihar","country_id":101,"country_code":"IN","country_name":"India","latitude":"25.50000000","longitude":"84.10000000","wikiDataId":"Q49161"},{"id":131590,"Name":"Chakia","state_id":4037,"state_code":"BR","state_name":"Bihar","country_id":101,"country_code":"IN","country_name":"India","latitude":"26.41598000","longitude":"85.04665000","wikiDataId":"Q1924830"},{"id":131605,"Name":"Chapra","state_id":4037,"state_code":"BR","state_name":"Bihar","country_id":101,"country_code":"IN","country_name":"India","latitude":"25.78031000","longitude":"84.74709000","wikiDataId":"Q1755440"},{"id":131541,"Name":"Chhatapur","state_id":4037,"state_code":"BR","state_name":"Bihar","country_id":101,"country_code":"IN","country_name":"India","latitude":"26.21965000","longitude":"87.00479000","wikiDataId":"Q888816"},{"id":131620,"Name":"Colgong","state_id":4037,"state_code":"BR","state_name":"Bihar","country_id":101,"country_code":"IN","country_name":"India","latitude":"25.26328000","longitude":"87.23264000","wikiDataId":"Q1190209"},{"id":131647,"Name":"Dalsingh Sarai","state_id":4037,"state_code":"BR","state_name":"Bihar","country_id":101,"country_code":"IN","country_name":"India","latitude":"25.66795000","longitude":"85.83636000","wikiDataId":"Q1189794"},{"id":131654,"Name":"Darbhanga","state_id":4037,"state_code":"BR","state_name":"Bihar","country_id":101,"country_code":"IN","country_name":"India","latitude":"26.00000000","longitude":"86.00000000","wikiDataId":"Q49160"},{"id":131664,"Name":"Daudnagar","state_id":4037,"state_code":"BR","state_name":"Bihar","country_id":101,"country_code":"IN","country_name":"India","latitude":"25.03473000","longitude":"84.40095000","wikiDataId":"Q1191619"},{"id":131677,"Name":"Dehri","state_id":4037,"state_code":"BR","state_name":"Bihar","country_id":101,"country_code":"IN","country_name":"India","latitude":"24.90247000","longitude":"84.18217000","wikiDataId":"Q1190622"},{"id":131748,"Name":"Dhaka","state_id":4037,"state_code":"BR","state_name":"Bihar","country_id":101,"country_code":"IN","country_name":"India","latitude":"26.67479000","longitude":"85.16698000","wikiDataId":"Q1257018"},{"id":131767,"Name":"Dighwara","state_id":4037,"state_code":"BR","state_name":"Bihar","country_id":101,"country_code":"IN","country_name":"India","latitude":"25.74434000","longitude":"85.01003000","wikiDataId":"Q1255941"},{"id":131773,"Name":"Dinapore","state_id":4037,"state_code":"BR","state_name":"Bihar","country_id":101,"country_code":"IN","country_name":"India","latitude":"25.63705000","longitude":"85.04794000","wikiDataId":"Q1022305"},{"id":131798,"Name":"Dumra","state_id":4037,"state_code":"BR","state_name":"Bihar","country_id":101,"country_code":"IN","country_name":"India","latitude":"26.56708000","longitude":"85.52040000","wikiDataId":"Q2577657"},{"id":131799,"Name":"Dumraon","state_id":4037,"state_code":"BR","state_name":"Bihar","country_id":101,"country_code":"IN","country_name":"India","latitude":"25.55265000","longitude":"84.15149000","wikiDataId":"Q1524667"},{"id":131873,"Name":"Fatwa","state_id":4037,"state_code":"BR","state_name":"Bihar","country_id":101,"country_code":"IN","country_name":"India","latitude":"25.50958000","longitude":"85.30504000","wikiDataId":"Q1320989"},{"id":131878,"Name":"Forbesganj","state_id":4037,"state_code":"BR","state_name":"Bihar","country_id":101,"country_code":"IN","country_name":"India","latitude":"26.30253000","longitude":"87.26556000","wikiDataId":"Q721265"},{"id":131932,"Name":"Gaya","state_id":4037,"state_code":"BR","state_name":"Bihar","country_id":101,"country_code":"IN","country_name":"India","latitude":"24.79686000","longitude":"85.00385000","wikiDataId":"Q251329"},{"id":131943,"Name":"Ghoga","state_id":4037,"state_code":"BR","state_name":"Bihar","country_id":101,"country_code":"IN","country_name":"India","latitude":"25.21738000","longitude":"87.15710000","wikiDataId":"Q1706729"},{"id":131987,"Name":"Gopalganj","state_id":4037,"state_code":"BR","state_name":"Bihar","country_id":101,"country_code":"IN","country_name":"India","latitude":"26.50000000","longitude":"84.33333000","wikiDataId":"Q49171"},{"id":132138,"Name":"Hajipur","state_id":4037,"state_code":"BR","state_name":"Bihar","country_id":101,"country_code":"IN","country_name":"India","latitude":"25.68544000","longitude":"85.20981000","wikiDataId":"Q1949403"},{"id":132095,"Name":"Hilsa","state_id":4037,"state_code":"BR","state_name":"Bihar","country_id":101,"country_code":"IN","country_name":"India","latitude":"25.31642000","longitude":"85.28234000","wikiDataId":"Q2734910"},{"id":132107,"Name":"Hisua","state_id":4037,"state_code":"BR","state_name":"Bihar","country_id":101,"country_code":"IN","country_name":"India","latitude":"24.83360000","longitude":"85.41729000","wikiDataId":"Q2317259"},{"id":132174,"Name":"Islampur","state_id":4037,"state_code":"BR","state_name":"Bihar","country_id":101,"country_code":"IN","country_name":"India","latitude":"25.14075000","longitude":"85.20587000","wikiDataId":"Q1747221"},{"id":132188,"Name":"Jagdispur","state_id":4037,"state_code":"BR","state_name":"Bihar","country_id":101,"country_code":"IN","country_name":"India","latitude":"25.46811000","longitude":"84.41939000","wikiDataId":"Q5475354"},{"id":132198,"Name":"Jahanabad","state_id":4037,"state_code":"BR","state_name":"Bihar","country_id":101,"country_code":"IN","country_name":"India","latitude":"25.21368000","longitude":"84.98710000","wikiDataId":"Q3806140"},{"id":132234,"Name":"Jamalpur","state_id":4037,"state_code":"BR","state_name":"Bihar","country_id":101,"country_code":"IN","country_name":"India","latitude":"25.31258000","longitude":"86.48888000","wikiDataId":"Q2734136"},{"id":132233,"Name":"Jamui","state_id":4037,"state_code":"BR","state_name":"Bihar","country_id":101,"country_code":"IN","country_name":"India","latitude":"24.92082000","longitude":"86.17538000","wikiDataId":"Q49168"},{"id":132258,"Name":"Jaynagar","state_id":4037,"state_code":"BR","state_name":"Bihar","country_id":101,"country_code":"IN","country_name":"India","latitude":"26.59048000","longitude":"86.13791000","wikiDataId":"Q2317504"},{"id":132259,"Name":"Jehanabad","state_id":4037,"state_code":"BR","state_name":"Bihar","country_id":101,"country_code":"IN","country_name":"India","latitude":"25.20701000","longitude":"84.99573000","wikiDataId":"Q49176"},{"id":132274,"Name":"Jha-Jha","state_id":4037,"state_code":"BR","state_name":"Bihar","country_id":101,"country_code":"IN","country_name":"India","latitude":"24.77107000","longitude":"86.37888000","wikiDataId":"Q1006350"},{"id":132267,"Name":"Jhanjharpur","state_id":4037,"state_code":"BR","state_name":"Bihar","country_id":101,"country_code":"IN","country_name":"India","latitude":"26.26467000","longitude":"86.27993000","wikiDataId":"Q607709"},{"id":132288,"Name":"Jogbani","state_id":4037,"state_code":"BR","state_name":"Bihar","country_id":101,"country_code":"IN","country_name":"India","latitude":"26.39905000","longitude":"87.26525000","wikiDataId":"Q2286929"},{"id":132337,"Name":"Kaimur District","state_id":4037,"state_code":"BR","state_name":"Bihar","country_id":101,"country_code":"IN","country_name":"India","latitude":"25.05077000","longitude":"83.58261000","wikiDataId":"Q77367"},{"id":132417,"Name":"Kasba","state_id":4037,"state_code":"BR","state_name":"Bihar","country_id":101,"country_code":"IN","country_name":"India","latitude":"25.85643000","longitude":"87.53836000","wikiDataId":"Q2231019"},{"id":132423,"Name":"Katihar","state_id":4037,"state_code":"BR","state_name":"Bihar","country_id":101,"country_code":"IN","country_name":"India","latitude":"25.50000000","longitude":"87.60000000","wikiDataId":"Q2375700"},{"id":132451,"Name":"Khagaria","state_id":4037,"state_code":"BR","state_name":"Bihar","country_id":101,"country_code":"IN","country_name":"India","latitude":"25.50220000","longitude":"86.46708000","wikiDataId":"Q2070587"},{"id":132452,"Name":"Khagaul","state_id":4037,"state_code":"BR","state_name":"Bihar","country_id":101,"country_code":"IN","country_name":"India","latitude":"25.57898000","longitude":"85.04564000","wikiDataId":"Q2120482"},{"id":132470,"Name":"Kharagpur","state_id":4037,"state_code":"BR","state_name":"Bihar","country_id":101,"country_code":"IN","country_name":"India","latitude":"25.12446000","longitude":"86.55578000","wikiDataId":"Q2120147"},{"id":132510,"Name":"Khusropur","state_id":4037,"state_code":"BR","state_name":"Bihar","country_id":101,"country_code":"IN","country_name":"India","latitude":"25.48174000","longitude":"85.38492000","wikiDataId":"Q2235607"},{"id":132529,"Name":"Kishanganj","state_id":4037,"state_code":"BR","state_name":"Bihar","country_id":101,"country_code":"IN","country_name":"India","latitude":"26.30000000","longitude":"88.00000000","wikiDataId":"Q747765"},{"id":132620,"Name":"Koath","state_id":4037,"state_code":"BR","state_name":"Bihar","country_id":101,"country_code":"IN","country_name":"India","latitude":"25.32643000","longitude":"84.25983000","wikiDataId":"Q2239138"},{"id":132548,"Name":"Koelwar","state_id":4037,"state_code":"BR","state_name":"Bihar","country_id":101,"country_code":"IN","country_name":"India","latitude":"25.58055000","longitude":"84.79751000","wikiDataId":"Q2239007"},{"id":132744,"Name":"Lakhisarai","state_id":4037,"state_code":"BR","state_name":"Bihar","country_id":101,"country_code":"IN","country_name":"India","latitude":"25.20000000","longitude":"86.20000000","wikiDataId":"Q77505"},{"id":132795,"Name":"Lalganj","state_id":4037,"state_code":"BR","state_name":"Bihar","country_id":101,"country_code":"IN","country_name":"India","latitude":"25.86894000","longitude":"85.17394000","wikiDataId":"Q720183"},{"id":132781,"Name":"Luckeesarai","state_id":4037,"state_code":"BR","state_name":"Bihar","country_id":101,"country_code":"IN","country_name":"India","latitude":"25.17650000","longitude":"86.09470000","wikiDataId":"Q1929578"},{"id":132812,"Name":"Madhepura","state_id":4037,"state_code":"BR","state_name":"Bihar","country_id":101,"country_code":"IN","country_name":"India","latitude":"25.80000000","longitude":"87.00000000","wikiDataId":"Q77746"},{"id":132813,"Name":"Madhipura","state_id":4037,"state_code":"BR","state_name":"Bihar","country_id":101,"country_code":"IN","country_name":"India","latitude":"25.92127000","longitude":"86.79271000","wikiDataId":"Q1929621"},{"id":132815,"Name":"Madhubani","state_id":4037,"state_code":"BR","state_name":"Bihar","country_id":101,"country_code":"IN","country_name":"India","latitude":"26.35367000","longitude":"86.07169000","wikiDataId":"Q2767858"},{"id":132849,"Name":"Maharajgani","state_id":4037,"state_code":"BR","state_name":"Bihar","country_id":101,"country_code":"IN","country_name":"India","latitude":"26.11017000","longitude":"84.50365000","wikiDataId":"Q2733647"},{"id":132859,"Name":"Mairwa","state_id":4037,"state_code":"BR","state_name":"Bihar","country_id":101,"country_code":"IN","country_name":"India","latitude":"26.23218000","longitude":"84.16349000","wikiDataId":"Q2563828"},{"id":132901,"Name":"Maner","state_id":4037,"state_code":"BR","state_name":"Bihar","country_id":101,"country_code":"IN","country_name":"India","latitude":"25.64602000","longitude":"84.87291000","wikiDataId":"Q2317827"},{"id":132911,"Name":"Manihari","state_id":4037,"state_code":"BR","state_name":"Bihar","country_id":101,"country_code":"IN","country_name":"India","latitude":"25.33891000","longitude":"87.61998000","wikiDataId":"Q2453339"},{"id":132935,"Name":"Marhaura","state_id":4037,"state_code":"BR","state_name":"Bihar","country_id":101,"country_code":"IN","country_name":"India","latitude":"25.97349000","longitude":"84.86796000","wikiDataId":"Q2560728"},{"id":132938,"Name":"Masaurhi Buzurg","state_id":4037,"state_code":"BR","state_name":"Bihar","country_id":101,"country_code":"IN","country_name":"India","latitude":"25.35417000","longitude":"85.03195000","wikiDataId":"Q2453418"},{"id":132984,"Name":"Mohiuddinnagar","state_id":4037,"state_code":"BR","state_name":"Bihar","country_id":101,"country_code":"IN","country_name":"India","latitude":"25.57374000","longitude":"85.66944000","wikiDataId":"Q2564073"},{"id":132988,"Name":"Mokameh","state_id":4037,"state_code":"BR","state_name":"Bihar","country_id":101,"country_code":"IN","country_name":"India","latitude":"25.39662000","longitude":"85.92190000","wikiDataId":"Q2453482"},{"id":132991,"Name":"Monghyr","state_id":4037,"state_code":"BR","state_name":"Bihar","country_id":101,"country_code":"IN","country_name":"India","latitude":"25.37459000","longitude":"86.47455000","wikiDataId":"Q36796"},{"id":133005,"Name":"Mothihari","state_id":4037,"state_code":"BR","state_name":"Bihar","country_id":101,"country_code":"IN","country_name":"India","latitude":"26.64862000","longitude":"84.91656000","wikiDataId":"Q1774606"},{"id":133032,"Name":"Munger","state_id":4037,"state_code":"BR","state_name":"Bihar","country_id":101,"country_code":"IN","country_name":"India","latitude":"25.36099000","longitude":"86.46515000","wikiDataId":"Q258280"},{"id":133037,"Name":"Murliganj","state_id":4037,"state_code":"BR","state_name":"Bihar","country_id":101,"country_code":"IN","country_name":"India","latitude":"25.89690000","longitude":"86.99577000","wikiDataId":"Q2560591"},{"id":133052,"Name":"Muzaffarpur","state_id":4037,"state_code":"BR","state_name":"Bihar","country_id":101,"country_code":"IN","country_name":"India","latitude":"26.16667000","longitude":"85.41667000","wikiDataId":"Q77731"},{"id":133105,"Name":"Nabinagar","state_id":4037,"state_code":"BR","state_name":"Bihar","country_id":101,"country_code":"IN","country_name":"India","latitude":"24.60681000","longitude":"84.12624000","wikiDataId":"Q2453472"},{"id":133262,"Name":"Nalanda","state_id":4037,"state_code":"BR","state_name":"Bihar","country_id":101,"country_code":"IN","country_name":"India","latitude":"25.25000000","longitude":"85.58333000","wikiDataId":"Q77633"},{"id":133279,"Name":"Nasriganj","state_id":4037,"state_code":"BR","state_name":"Bihar","country_id":101,"country_code":"IN","country_name":"India","latitude":"25.05140000","longitude":"84.32839000","wikiDataId":"Q6967322"},{"id":133182,"Name":"Naugachhia","state_id":4037,"state_code":"BR","state_name":"Bihar","country_id":101,"country_code":"IN","country_name":"India","latitude":"25.38807000","longitude":"87.09906000","wikiDataId":"Q2453298"},{"id":133192,"Name":"Nawada","state_id":4037,"state_code":"BR","state_name":"Bihar","country_id":101,"country_code":"IN","country_name":"India","latitude":"24.75000000","longitude":"85.50000000","wikiDataId":"Q100067"},{"id":133222,"Name":"Nirmali","state_id":4037,"state_code":"BR","state_name":"Bihar","country_id":101,"country_code":"IN","country_name":"India","latitude":"26.31397000","longitude":"86.58537000","wikiDataId":"Q545770"},{"id":133373,"Name":"Pashchim Champaran","state_id":4037,"state_code":"BR","state_name":"Bihar","country_id":101,"country_code":"IN","country_name":"India","latitude":"27.00000000","longitude":"84.50000000","wikiDataId":"Q1390016"},{"id":133386,"Name":"Patna","state_id":4037,"state_code":"BR","state_name":"Bihar","country_id":101,"country_code":"IN","country_name":"India","latitude":"25.41667000","longitude":"85.16667000","wikiDataId":"Q100077"},{"id":133459,"Name":"Piro","state_id":4037,"state_code":"BR","state_name":"Bihar","country_id":101,"country_code":"IN","country_name":"India","latitude":"25.33218000","longitude":"84.40454000","wikiDataId":"Q2228653"},{"id":133509,"Name":"Pupri","state_id":4037,"state_code":"BR","state_name":"Bihar","country_id":101,"country_code":"IN","country_name":"India","latitude":"26.47079000","longitude":"85.70311000","wikiDataId":"Q2453330"},{"id":133570,"Name":"Purba Champaran","state_id":4037,"state_code":"BR","state_name":"Bihar","country_id":101,"country_code":"IN","country_name":"India","latitude":"26.58333000","longitude":"84.83333000","wikiDataId":"Q2718070"},{"id":133512,"Name":"Purnia","state_id":4037,"state_code":"BR","state_name":"Bihar","country_id":101,"country_code":"IN","country_name":"India","latitude":"25.81614000","longitude":"87.40708000","wikiDataId":"Q100082"},{"id":133581,"Name":"Rafiganj","state_id":4037,"state_code":"BR","state_name":"Bihar","country_id":101,"country_code":"IN","country_name":"India","latitude":"24.81757000","longitude":"84.63445000","wikiDataId":"Q2560697"},{"id":133582,"Name":"Raghunathpur","state_id":4037,"state_code":"BR","state_name":"Bihar","country_id":101,"country_code":"IN","country_name":"India","latitude":"25.64492000","longitude":"87.91762000","wikiDataId":"Q2560697"},{"id":133678,"Name":"Rajgir","state_id":4037,"state_code":"BR","state_name":"Bihar","country_id":101,"country_code":"IN","country_name":"India","latitude":"25.02828000","longitude":"85.42079000","wikiDataId":"Q863683"},{"id":133701,"Name":"Ramnagar","state_id":4037,"state_code":"BR","state_name":"Bihar","country_id":101,"country_code":"IN","country_name":"India","latitude":"27.16371000","longitude":"84.32342000","wikiDataId":"Q2228976"},{"id":133621,"Name":"Raxaul","state_id":4037,"state_code":"BR","state_name":"Bihar","country_id":101,"country_code":"IN","country_name":"India","latitude":"26.97982000","longitude":"84.85065000","wikiDataId":"Q2087576"},{"id":133632,"Name":"Revelganj","state_id":4037,"state_code":"BR","state_name":"Bihar","country_id":101,"country_code":"IN","country_name":"India","latitude":"25.78976000","longitude":"84.63596000","wikiDataId":"Q2453460"},{"id":133648,"Name":"Rohtas","state_id":4037,"state_code":"BR","state_name":"Bihar","country_id":101,"country_code":"IN","country_name":"India","latitude":"24.97941000","longitude":"84.02774000","wikiDataId":"Q100085"},{"id":133656,"Name":"Rusera","state_id":4037,"state_code":"BR","state_name":"Bihar","country_id":101,"country_code":"IN","country_name":"India","latitude":"25.75355000","longitude":"86.02597000","wikiDataId":"Q2717615"},{"id":133748,"Name":"Sagauli","state_id":4037,"state_code":"BR","state_name":"Bihar","country_id":101,"country_code":"IN","country_name":"India","latitude":"26.76390000","longitude":"84.74341000","wikiDataId":"Q7399079"},{"id":133749,"Name":"Saharsa","state_id":4037,"state_code":"BR","state_name":"Bihar","country_id":101,"country_code":"IN","country_name":"India","latitude":"25.87498000","longitude":"86.59611000","wikiDataId":"Q1949422"},{"id":133767,"Name":"Samastipur","state_id":4037,"state_code":"BR","state_name":"Bihar","country_id":101,"country_code":"IN","country_name":"India","latitude":"25.75000000","longitude":"85.91667000","wikiDataId":"Q2734222"},{"id":134076,"Name":"Saran","state_id":4037,"state_code":"BR","state_name":"Bihar","country_id":101,"country_code":"IN","country_name":"India","latitude":"25.91667000","longitude":"84.75000000","wikiDataId":"Q100146"},{"id":133852,"Name":"Shahbazpur","state_id":4037,"state_code":"BR","state_name":"Bihar","country_id":101,"country_code":"IN","country_name":"India","latitude":"26.30511000","longitude":"87.28865000","wikiDataId":"Q208000"},{"id":133902,"Name":"Shahpur","state_id":4037,"state_code":"BR","state_name":"Bihar","country_id":101,"country_code":"IN","country_name":"India","latitude":"25.60293000","longitude":"84.40412000","wikiDataId":"Q1925497"},{"id":133858,"Name":"Sheikhpura","state_id":4037,"state_code":"BR","state_name":"Bihar","country_id":101,"country_code":"IN","country_name":"India","latitude":"25.13073000","longitude":"85.78176000","wikiDataId":"Q2566517"},{"id":133860,"Name":"Sheohar","state_id":4037,"state_code":"BR","state_name":"Bihar","country_id":101,"country_code":"IN","country_name":"India","latitude":"26.50000000","longitude":"85.30000000","wikiDataId":"Q2483944"},{"id":133863,"Name":"Sherghati","state_id":4037,"state_code":"BR","state_name":"Bihar","country_id":101,"country_code":"IN","country_name":"India","latitude":"24.55950000","longitude":"84.79162000","wikiDataId":"Q2560001"},{"id":133933,"Name":"Silao","state_id":4037,"state_code":"BR","state_name":"Bihar","country_id":101,"country_code":"IN","country_name":"India","latitude":"25.08358000","longitude":"85.42804000","wikiDataId":"Q1617473"},{"id":134089,"Name":"Sitamarhi","state_id":4037,"state_code":"BR","state_name":"Bihar","country_id":101,"country_code":"IN","country_name":"India","latitude":"26.66667000","longitude":"85.50000000","wikiDataId":"Q1278427"},{"id":133977,"Name":"Siwan","state_id":4037,"state_code":"BR","state_name":"Bihar","country_id":101,"country_code":"IN","country_name":"India","latitude":"26.22096000","longitude":"84.35609000","wikiDataId":"Q2234098"},{"id":134049,"Name":"Supaul","state_id":4037,"state_code":"BR","state_name":"Bihar","country_id":101,"country_code":"IN","country_name":"India","latitude":"26.25000000","longitude":"86.80000000","wikiDataId":"Q100139"},{"id":134121,"Name":"Teghra","state_id":4037,"state_code":"BR","state_name":"Bihar","country_id":101,"country_code":"IN","country_name":"India","latitude":"25.49043000","longitude":"85.94001000","wikiDataId":"Q1006270"},{"id":134127,"Name":"Tekari","state_id":4037,"state_code":"BR","state_name":"Bihar","country_id":101,"country_code":"IN","country_name":"India","latitude":"24.94253000","longitude":"84.84265000","wikiDataId":"Q2733597"},{"id":134163,"Name":"Thakurganj","state_id":4037,"state_code":"BR","state_name":"Bihar","country_id":101,"country_code":"IN","country_name":"India","latitude":"26.42742000","longitude":"88.13112000","wikiDataId":"Q720796"},{"id":134314,"Name":"Vaishali","state_id":4037,"state_code":"BR","state_name":"Bihar","country_id":101,"country_code":"IN","country_name":"India","latitude":"25.75000000","longitude":"85.41667000","wikiDataId":"Q100130"},{"id":134417,"Name":"Waris Aliganj","state_id":4037,"state_code":"BR","state_name":"Bihar","country_id":101,"country_code":"IN","country_name":"India","latitude":"25.01720000","longitude":"85.64047000","wikiDataId":"Q2006496"}]