[{"id":56257,"Name":"Curug","state_id":1810,"state_code":"BT","state_name":"Banten","country_id":102,"country_code":"ID","country_name":"Indonesia","latitude":"-6.26583000","longitude":"106.55639000","wikiDataId":"Q24982677"},{"id":56491,"Name":"Kabupaten Lebak","state_id":1810,"state_code":"BT","state_name":"Banten","country_id":102,"country_code":"ID","country_name":"Indonesia","latitude":"-6.65000000","longitude":"106.21667000","wikiDataId":"Q10119"},{"id":56574,"Name":"Kabupaten Pandeglang","state_id":1810,"state_code":"BT","state_name":"Banten","country_id":102,"country_code":"ID","country_name":"Indonesia","latitude":"-6.63333000","longitude":"105.75000000","wikiDataId":"Q10121"},{"id":56623,"Name":"Kabupaten Serang","state_id":1810,"state_code":"BT","state_name":"Banten","country_id":102,"country_code":"ID","country_name":"Indonesia","latitude":"-6.15000000","longitude":"106.00000000","wikiDataId":"Q10122"},{"id":56666,"Name":"Kabupaten Tangerang","state_id":1810,"state_code":"BT","state_name":"Banten","country_id":102,"country_code":"ID","country_name":"Indonesia","latitude":"-6.20000000","longitude":"106.46667000","wikiDataId":"Q10123"},{"id":56747,"Name":"Kota Cilegon","state_id":1810,"state_code":"BT","state_name":"Banten","country_id":102,"country_code":"ID","country_name":"Indonesia","latitude":"-6.01667000","longitude":"106.01667000","wikiDataId":"Q14182"},{"id":56796,"Name":"Kota Serang","state_id":1810,"state_code":"BT","state_name":"Banten","country_id":102,"country_code":"ID","country_name":"Indonesia","latitude":"-6.12563000","longitude":"106.14999000","wikiDataId":"Q14636"},{"id":56805,"Name":"Kota Tangerang","state_id":1810,"state_code":"BT","state_name":"Banten","country_id":102,"country_code":"ID","country_name":"Indonesia","latitude":"-6.17944000","longitude":"106.62991000","wikiDataId":"Q14636"},{"id":56806,"Name":"Kota Tangerang Selatan","state_id":1810,"state_code":"BT","state_name":"Banten","country_id":102,"country_code":"ID","country_name":"Indonesia","latitude":"-6.29373000","longitude":"106.71244000","wikiDataId":"Q14636"},{"id":56829,"Name":"Labuan","state_id":1810,"state_code":"BT","state_name":"Banten","country_id":102,"country_code":"ID","country_name":"Indonesia","latitude":"-6.37840000","longitude":"105.83000000","wikiDataId":"Q24881868"},{"id":56909,"Name":"Pandeglang","state_id":1810,"state_code":"BT","state_name":"Banten","country_id":102,"country_code":"ID","country_name":"Indonesia","latitude":"-6.30840000","longitude":"106.10670000","wikiDataId":"Q24849779"},{"id":56950,"Name":"Rangkasbitung","state_id":1810,"state_code":"BT","state_name":"Banten","country_id":102,"country_code":"ID","country_name":"Indonesia","latitude":"-6.35910000","longitude":"106.24940000","wikiDataId":"Q24847783"},{"id":56969,"Name":"Serang","state_id":1810,"state_code":"BT","state_name":"Banten","country_id":102,"country_code":"ID","country_name":"Indonesia","latitude":"-6.11528000","longitude":"106.15417000","wikiDataId":"Q10126"},{"id":56996,"Name":"South Tangerang","state_id":1810,"state_code":"BT","state_name":"Banten","country_id":102,"country_code":"ID","country_name":"Indonesia","latitude":"-6.28862000","longitude":"106.71789000","wikiDataId":"Q10128"},{"id":57014,"Name":"Tangerang","state_id":1810,"state_code":"BT","state_name":"Banten","country_id":102,"country_code":"ID","country_name":"Indonesia","latitude":"-6.17806000","longitude":"106.63000000","wikiDataId":"Q10127"}]