[{"id":21645,"Name":"Alvarado","state_id":1211,"state_code":"C","state_name":"Provincia de Cartago","country_id":53,"country_code":"CR","country_name":"Costa Rica","latitude":"9.93333000","longitude":"-83.80000000","wikiDataId":"Q2610378"},{"id":21659,"Name":"Cartago","state_id":1211,"state_code":"C","state_name":"Provincia de Cartago","country_id":53,"country_code":"CR","country_name":"Costa Rica","latitude":"9.86444000","longitude":"-83.91944000","wikiDataId":"Q30617"},{"id":21665,"Name":"Concepción","state_id":1211,"state_code":"C","state_name":"Provincia de Cartago","country_id":53,"country_code":"CR","country_name":"Costa Rica","latitude":"9.93333000","longitude":"-84.00000000","wikiDataId":"Q23745508"},{"id":21668,"Name":"Cot","state_id":1211,"state_code":"C","state_name":"Provincia de Cartago","country_id":53,"country_code":"CR","country_name":"Costa Rica","latitude":"9.89449000","longitude":"-83.87302000","wikiDataId":"Q23743515"},{"id":21675,"Name":"El Guarco","state_id":1211,"state_code":"C","state_name":"Provincia de Cartago","country_id":53,"country_code":"CR","country_name":"Costa Rica","latitude":"9.75000000","longitude":"-83.91667000","wikiDataId":"Q2614085"},{"id":21694,"Name":"Jiménez","state_id":1211,"state_code":"C","state_name":"Provincia de Cartago","country_id":53,"country_code":"CR","country_name":"Costa Rica","latitude":"9.75000000","longitude":"-83.68333000","wikiDataId":"Q2610255"},{"id":21699,"Name":"La Suiza","state_id":1211,"state_code":"C","state_name":"Provincia de Cartago","country_id":53,"country_code":"CR","country_name":"Costa Rica","latitude":"9.85065000","longitude":"-83.61690000","wikiDataId":"Q23740198"},{"id":21700,"Name":"La Unión","state_id":1211,"state_code":"C","state_name":"Provincia de Cartago","country_id":53,"country_code":"CR","country_name":"Costa Rica","latitude":"9.91667000","longitude":"-83.98333000","wikiDataId":"Q2610394"},{"id":21717,"Name":"Oreamuno","state_id":1211,"state_code":"C","state_name":"Provincia de Cartago","country_id":53,"country_code":"CR","country_name":"Costa Rica","latitude":"10.00000000","longitude":"-83.83333000","wikiDataId":"Q936794"},{"id":21718,"Name":"Orosí","state_id":1211,"state_code":"C","state_name":"Provincia de Cartago","country_id":53,"country_code":"CR","country_name":"Costa Rica","latitude":"9.79617000","longitude":"-83.85383000","wikiDataId":"Q936794"},{"id":21721,"Name":"Pacayas","state_id":1211,"state_code":"C","state_name":"Provincia de Cartago","country_id":53,"country_code":"CR","country_name":"Costa Rica","latitude":"9.80709000","longitude":"-84.04764000","wikiDataId":"Q23738480"},{"id":21725,"Name":"Paraíso","state_id":1211,"state_code":"C","state_name":"Provincia de Cartago","country_id":53,"country_code":"CR","country_name":"Costa Rica","latitude":"9.75000000","longitude":"-83.80000000","wikiDataId":"Q2618877"},{"id":21728,"Name":"Pejibaye","state_id":1211,"state_code":"C","state_name":"Provincia de Cartago","country_id":53,"country_code":"CR","country_name":"Costa Rica","latitude":"9.81135000","longitude":"-83.70336000","wikiDataId":"Q23738587"},{"id":21748,"Name":"San Diego","state_id":1211,"state_code":"C","state_name":"Provincia de Cartago","country_id":53,"country_code":"CR","country_name":"Costa Rica","latitude":"9.89898000","longitude":"-84.00287000","wikiDataId":"Q931244"},{"id":21790,"Name":"Tobosi","state_id":1211,"state_code":"C","state_name":"Provincia de Cartago","country_id":53,"country_code":"CR","country_name":"Costa Rica","latitude":"9.83837000","longitude":"-83.98391000","wikiDataId":"Q2517654"},{"id":21791,"Name":"Tres Ríos","state_id":1211,"state_code":"C","state_name":"Provincia de Cartago","country_id":53,"country_code":"CR","country_name":"Costa Rica","latitude":"9.90644000","longitude":"-83.98760000","wikiDataId":"Q23735189"},{"id":21792,"Name":"Tucurrique","state_id":1211,"state_code":"C","state_name":"Provincia de Cartago","country_id":53,"country_code":"CR","country_name":"Costa Rica","latitude":"9.85336000","longitude":"-83.72273000","wikiDataId":"Q23735189"},{"id":21793,"Name":"Turrialba","state_id":1211,"state_code":"C","state_name":"Provincia de Cartago","country_id":53,"country_code":"CR","country_name":"Costa Rica","latitude":"9.80000000","longitude":"-83.53333000","wikiDataId":"Q2610150"}]