[{"id":39145,"Name":"Naitasiri Province","state_id":1929,"state_code":"C","state_name":"Central Division","country_id":73,"country_code":"FJ","country_name":"Fiji Islands","latitude":"-17.83333000","longitude":"178.25000000","wikiDataId":"Q1365284"},{"id":39146,"Name":"Namosi Province","state_id":1929,"state_code":"C","state_name":"Central Division","country_id":73,"country_code":"FJ","country_name":"Fiji Islands","latitude":"-18.05000000","longitude":"178.13333000","wikiDataId":"Q1365295"},{"id":39149,"Name":"Rewa Province","state_id":1929,"state_code":"C","state_name":"Central Division","country_id":73,"country_code":"FJ","country_name":"Fiji Islands","latitude":"-18.08333000","longitude":"178.33333000","wikiDataId":"Q1365257"},{"id":39150,"Name":"Serua Province","state_id":1929,"state_code":"C","state_name":"Central Division","country_id":73,"country_code":"FJ","country_name":"Fiji Islands","latitude":"-18.16667000","longitude":"178.00000000","wikiDataId":"Q1208362"},{"id":39151,"Name":"Suva","state_id":1929,"state_code":"C","state_name":"Central Division","country_id":73,"country_code":"FJ","country_name":"Fiji Islands","latitude":"-18.14161000","longitude":"178.44149000","wikiDataId":"Q38807"},{"id":39152,"Name":"Tailevu Province","state_id":1929,"state_code":"C","state_name":"Central Division","country_id":73,"country_code":"FJ","country_name":"Fiji Islands","latitude":"-17.83333000","longitude":"178.50000000","wikiDataId":"Q1365322"}]