[{"id":9827,"Name":"Aiquile","state_id":3381,"state_code":"C","state_name":"Cochabamba Department","country_id":27,"country_code":"BO","country_name":"Bolivia","latitude":"-18.20408000","longitude":"-65.18068000","wikiDataId":"Q1617416"},{"id":9829,"Name":"Arani","state_id":3381,"state_code":"C","state_name":"Cochabamba Department","country_id":27,"country_code":"BO","country_name":"Bolivia","latitude":"-17.56854000","longitude":"-65.76883000","wikiDataId":"Q1026281"},{"id":9836,"Name":"Bolivar","state_id":3381,"state_code":"C","state_name":"Cochabamba Department","country_id":27,"country_code":"BO","country_name":"Bolivia","latitude":"-17.96667000","longitude":"-66.53333000","wikiDataId":"Q785395"},{"id":9841,"Name":"Capinota","state_id":3381,"state_code":"C","state_name":"Cochabamba Department","country_id":27,"country_code":"BO","country_name":"Bolivia","latitude":"-17.71113000","longitude":"-66.26082000","wikiDataId":"Q1034638"},{"id":9845,"Name":"Chimoré","state_id":3381,"state_code":"C","state_name":"Cochabamba Department","country_id":27,"country_code":"BO","country_name":"Bolivia","latitude":"-16.99417000","longitude":"-65.15330000","wikiDataId":"Q990746"},{"id":9847,"Name":"Cliza","state_id":3381,"state_code":"C","state_name":"Cochabamba Department","country_id":27,"country_code":"BO","country_name":"Bolivia","latitude":"-17.58777000","longitude":"-65.93253000","wikiDataId":"Q780815"},{"id":9849,"Name":"Cochabamba","state_id":3381,"state_code":"C","state_name":"Cochabamba Department","country_id":27,"country_code":"BO","country_name":"Bolivia","latitude":"-17.38950000","longitude":"-66.15680000","wikiDataId":"Q34995"},{"id":9850,"Name":"Colchani","state_id":3381,"state_code":"C","state_name":"Cochabamba Department","country_id":27,"country_code":"BO","country_name":"Bolivia","latitude":"-17.31667000","longitude":"-66.71667000","wikiDataId":"Q34995"},{"id":9852,"Name":"Colomi","state_id":3381,"state_code":"C","state_name":"Cochabamba Department","country_id":27,"country_code":"BO","country_name":"Bolivia","latitude":"-17.35000000","longitude":"-65.86667000","wikiDataId":"Q990698"},{"id":9871,"Name":"Independencia","state_id":3381,"state_code":"C","state_name":"Cochabamba Department","country_id":27,"country_code":"BO","country_name":"Bolivia","latitude":"-17.08389000","longitude":"-66.81804000","wikiDataId":"Q1661081"},{"id":9872,"Name":"Irpa Irpa","state_id":3381,"state_code":"C","state_name":"Cochabamba Department","country_id":27,"country_code":"BO","country_name":"Bolivia","latitude":"-17.71667000","longitude":"-66.26667000","wikiDataId":"Q1673170"},{"id":9886,"Name":"Mizque","state_id":3381,"state_code":"C","state_name":"Cochabamba Department","country_id":27,"country_code":"BO","country_name":"Bolivia","latitude":"-17.94101000","longitude":"-65.34016000","wikiDataId":"Q1896917"},{"id":9902,"Name":"Provincia Arani","state_id":3381,"state_code":"C","state_name":"Cochabamba Department","country_id":27,"country_code":"BO","country_name":"Bolivia","latitude":"-17.50000000","longitude":"-65.50000000","wikiDataId":"Q1325748"},{"id":9905,"Name":"Provincia Arque","state_id":3381,"state_code":"C","state_name":"Cochabamba Department","country_id":27,"country_code":"BO","country_name":"Bolivia","latitude":"-17.75000000","longitude":"-66.66667000","wikiDataId":"Q1366072"},{"id":9908,"Name":"Provincia Ayopaya","state_id":3381,"state_code":"C","state_name":"Cochabamba Department","country_id":27,"country_code":"BO","country_name":"Bolivia","latitude":"-16.50000000","longitude":"-66.58333000","wikiDataId":"Q1365999"},{"id":9913,"Name":"Provincia Campero","state_id":3381,"state_code":"C","state_name":"Cochabamba Department","country_id":27,"country_code":"BO","country_name":"Bolivia","latitude":"-18.33333000","longitude":"-65.00000000","wikiDataId":"Q638697"},{"id":9914,"Name":"Provincia Capinota","state_id":3381,"state_code":"C","state_name":"Cochabamba Department","country_id":27,"country_code":"BO","country_name":"Bolivia","latitude":"-17.83333000","longitude":"-66.16667000","wikiDataId":"Q1366004"},{"id":9916,"Name":"Provincia Carrasco","state_id":3381,"state_code":"C","state_name":"Cochabamba Department","country_id":27,"country_code":"BO","country_name":"Bolivia","latitude":"-17.50000000","longitude":"-65.00000000","wikiDataId":"Q1366060"},{"id":9918,"Name":"Provincia Cercado","state_id":3381,"state_code":"C","state_name":"Cochabamba Department","country_id":27,"country_code":"BO","country_name":"Bolivia","latitude":"-17.33333000","longitude":"-66.16667000","wikiDataId":"Q200795"},{"id":9921,"Name":"Provincia Chaparé","state_id":3381,"state_code":"C","state_name":"Cochabamba Department","country_id":27,"country_code":"BO","country_name":"Bolivia","latitude":"-16.50000000","longitude":"-65.50000000","wikiDataId":"Q1434538"},{"id":9927,"Name":"Provincia Esteban Arce","state_id":3381,"state_code":"C","state_name":"Cochabamba Department","country_id":27,"country_code":"BO","country_name":"Bolivia","latitude":"-17.66667000","longitude":"-66.00000000","wikiDataId":"Q283889"},{"id":9933,"Name":"Provincia Germán Jordán","state_id":3381,"state_code":"C","state_name":"Cochabamba Department","country_id":27,"country_code":"BO","country_name":"Bolivia","latitude":"-17.58333000","longitude":"-65.91667000","wikiDataId":"Q1295948"},{"id":9954,"Name":"Provincia Mizque","state_id":3381,"state_code":"C","state_name":"Cochabamba Department","country_id":27,"country_code":"BO","country_name":"Bolivia","latitude":"-17.90655000","longitude":"-65.39440000","wikiDataId":"Q1427763"},{"id":9971,"Name":"Provincia Punata","state_id":3381,"state_code":"C","state_name":"Cochabamba Department","country_id":27,"country_code":"BO","country_name":"Bolivia","latitude":"-17.50000000","longitude":"-65.91667000","wikiDataId":"Q1420274"},{"id":9973,"Name":"Provincia Quillacollo","state_id":3381,"state_code":"C","state_name":"Cochabamba Department","country_id":27,"country_code":"BO","country_name":"Bolivia","latitude":"-17.50000000","longitude":"-66.50000000","wikiDataId":"Q1360766"},{"id":9986,"Name":"Provincia Tapacarí","state_id":3381,"state_code":"C","state_name":"Cochabamba Department","country_id":27,"country_code":"BO","country_name":"Bolivia","latitude":"-17.51146000","longitude":"-66.61965000","wikiDataId":"Q277886"},{"id":10002,"Name":"Punata","state_id":3381,"state_code":"C","state_name":"Cochabamba Department","country_id":27,"country_code":"BO","country_name":"Bolivia","latitude":"-17.54234000","longitude":"-65.83472000","wikiDataId":"Q1026219"},{"id":10003,"Name":"Quillacollo","state_id":3381,"state_code":"C","state_name":"Cochabamba Department","country_id":27,"country_code":"BO","country_name":"Bolivia","latitude":"-17.39228000","longitude":"-66.27838000","wikiDataId":"Q1002090"},{"id":10009,"Name":"Sacaba","state_id":3381,"state_code":"C","state_name":"Cochabamba Department","country_id":27,"country_code":"BO","country_name":"Bolivia","latitude":"-17.39799000","longitude":"-66.03825000","wikiDataId":"Q995727"},{"id":10029,"Name":"Sipe Sipe","state_id":3381,"state_code":"C","state_name":"Cochabamba Department","country_id":27,"country_code":"BO","country_name":"Bolivia","latitude":"-17.45000000","longitude":"-66.38333000","wikiDataId":"Q990709"},{"id":10034,"Name":"Tarata","state_id":3381,"state_code":"C","state_name":"Cochabamba Department","country_id":27,"country_code":"BO","country_name":"Bolivia","latitude":"-17.60898000","longitude":"-66.02135000","wikiDataId":"Q1016289"},{"id":10037,"Name":"Tiquipaya","state_id":3381,"state_code":"C","state_name":"Cochabamba Department","country_id":27,"country_code":"BO","country_name":"Bolivia","latitude":"-17.33801000","longitude":"-66.21579000","wikiDataId":"Q1020288"},{"id":10038,"Name":"Tiraque Province","state_id":3381,"state_code":"C","state_name":"Cochabamba Department","country_id":27,"country_code":"BO","country_name":"Bolivia","latitude":"-17.33333000","longitude":"-65.91667000","wikiDataId":"Q979768"},{"id":10039,"Name":"Totora","state_id":3381,"state_code":"C","state_name":"Cochabamba Department","country_id":27,"country_code":"BO","country_name":"Bolivia","latitude":"-17.72662000","longitude":"-65.19320000","wikiDataId":"Q2038566"}]