[{"id":20489,"Name":"Acandí","state_id":2876,"state_code":"CHO","state_name":"Chocó","country_id":48,"country_code":"CO","country_name":"Colombia","latitude":"8.51158000","longitude":"-77.27719000","wikiDataId":"Q1575935"},{"id":20509,"Name":"Alto Baudó","state_id":2876,"state_code":"CHO","state_name":"Chocó","country_id":48,"country_code":"CO","country_name":"Colombia","latitude":"5.51604000","longitude":"-76.97449000","wikiDataId":"Q1391883"},{"id":20557,"Name":"Atrato","state_id":2876,"state_code":"CHO","state_name":"Chocó","country_id":48,"country_code":"CO","country_name":"Colombia","latitude":"5.57362000","longitude":"-76.64063000","wikiDataId":"Q1576206"},{"id":20559,"Name":"Bagadó","state_id":2876,"state_code":"CHO","state_name":"Chocó","country_id":48,"country_code":"CO","country_name":"Colombia","latitude":"5.41164000","longitude":"-76.41520000","wikiDataId":"Q1576654"},{"id":20560,"Name":"Bahía Solano","state_id":2876,"state_code":"CHO","state_name":"Chocó","country_id":48,"country_code":"CO","country_name":"Colombia","latitude":"6.22520000","longitude":"-77.39147000","wikiDataId":"Q1579457"},{"id":20561,"Name":"Bajo Baudó","state_id":2876,"state_code":"CHO","state_name":"Chocó","country_id":48,"country_code":"CO","country_name":"Colombia","latitude":"4.95334000","longitude":"-77.36598000","wikiDataId":"Q1525766"},{"id":20596,"Name":"Bojayá","state_id":2876,"state_code":"CHO","state_name":"Chocó","country_id":48,"country_code":"CO","country_name":"Colombia","latitude":"6.55645000","longitude":"-76.88389000","wikiDataId":"Q1579055"},{"id":20657,"Name":"Carmen del Darien","state_id":2876,"state_code":"CHO","state_name":"Chocó","country_id":48,"country_code":"CO","country_name":"Colombia","latitude":"7.15777888","longitude":"-76.97083333","wikiDataId":"Q963885"},{"id":20767,"Name":"Cértegui","state_id":2876,"state_code":"CHO","state_name":"Chocó","country_id":48,"country_code":"CO","country_name":"Colombia","latitude":"5.37073000","longitude":"-76.60440000","wikiDataId":"Q610657"},{"id":20728,"Name":"Condoto","state_id":2876,"state_code":"CHO","state_name":"Chocó","country_id":48,"country_code":"CO","country_name":"Colombia","latitude":"5.09351000","longitude":"-76.64973000","wikiDataId":"Q1525250"},{"id":20791,"Name":"El Cantón de San Pablo","state_id":2876,"state_code":"CHO","state_name":"Chocó","country_id":48,"country_code":"CO","country_name":"Colombia","latitude":"5.33889000","longitude":"-76.73139000","wikiDataId":"Q1576215"},{"id":20795,"Name":"El Carmen de Atrato","state_id":2876,"state_code":"CHO","state_name":"Chocó","country_id":48,"country_code":"CO","country_name":"Colombia","latitude":"5.83333000","longitude":"-76.25000000","wikiDataId":"Q533627"},{"id":20952,"Name":"Istmina","state_id":2876,"state_code":"CHO","state_name":"Chocó","country_id":48,"country_code":"CO","country_name":"Colombia","latitude":"5.16054000","longitude":"-76.68397000","wikiDataId":"Q1441410"},{"id":20969,"Name":"Juradó","state_id":2876,"state_code":"CHO","state_name":"Chocó","country_id":48,"country_code":"CO","country_name":"Colombia","latitude":"7.10421000","longitude":"-77.76200000","wikiDataId":"Q1655005"},{"id":21418,"Name":"Litoral del San Juan","state_id":2876,"state_code":"CHO","state_name":"Chocó","country_id":48,"country_code":"CO","country_name":"Colombia","latitude":"4.25875000","longitude":"-77.36516000","wikiDataId":"Q931811"},{"id":21030,"Name":"Lloró","state_id":2876,"state_code":"CHO","state_name":"Chocó","country_id":48,"country_code":"CO","country_name":"Colombia","latitude":"5.49605000","longitude":"-76.54945000","wikiDataId":"Q1575268"},{"id":21076,"Name":"Medio Atrato","state_id":2876,"state_code":"CHO","state_name":"Chocó","country_id":48,"country_code":"CO","country_name":"Colombia","latitude":"5.99500000","longitude":"-76.78250000","wikiDataId":"Q1442444"},{"id":21077,"Name":"Medio Baudó","state_id":2876,"state_code":"CHO","state_name":"Chocó","country_id":48,"country_code":"CO","country_name":"Colombia","latitude":"5.05000000","longitude":"-77.05000000","wikiDataId":"Q1525732"},{"id":21078,"Name":"Medio San Juan","state_id":2876,"state_code":"CHO","state_name":"Chocó","country_id":48,"country_code":"CO","country_name":"Colombia","latitude":"5.09278000","longitude":"-76.69528000","wikiDataId":"Q1526086"},{"id":21143,"Name":"Nóvita","state_id":2876,"state_code":"CHO","state_name":"Chocó","country_id":48,"country_code":"CO","country_name":"Colombia","latitude":"4.95511000","longitude":"-76.60526000","wikiDataId":"Q1579423"},{"id":21142,"Name":"Nuquí","state_id":2876,"state_code":"CHO","state_name":"Chocó","country_id":48,"country_code":"CO","country_name":"Colombia","latitude":"5.71250000","longitude":"-77.27083000","wikiDataId":"Q1577833"},{"id":21272,"Name":"Quibdó","state_id":2876,"state_code":"CHO","state_name":"Chocó","country_id":48,"country_code":"CO","country_name":"Colombia","latitude":"5.76075000","longitude":"-76.83701000","wikiDataId":"Q23684295"},{"id":21304,"Name":"Río Iro","state_id":2876,"state_code":"CHO","state_name":"Chocó","country_id":48,"country_code":"CO","country_name":"Colombia","latitude":"5.18333000","longitude":"-76.48330000","wikiDataId":"Q646865"},{"id":21305,"Name":"Río Quito","state_id":2876,"state_code":"CHO","state_name":"Chocó","country_id":48,"country_code":"CO","country_name":"Colombia","latitude":"5.51667000","longitude":"-76.75000000","wikiDataId":"Q646865"},{"id":21295,"Name":"Riosucio","state_id":2876,"state_code":"CHO","state_name":"Chocó","country_id":48,"country_code":"CO","country_name":"Colombia","latitude":"7.41667000","longitude":"-77.16667000","wikiDataId":"Q2196660"},{"id":21371,"Name":"San José del Palmar","state_id":2876,"state_code":"CHO","state_name":"Chocó","country_id":48,"country_code":"CO","country_name":"Colombia","latitude":"4.89616000","longitude":"-76.23422000","wikiDataId":"Q1654797"},{"id":21462,"Name":"Sipí","state_id":2876,"state_code":"CHO","state_name":"Chocó","country_id":48,"country_code":"CO","country_name":"Colombia","latitude":"4.65374000","longitude":"-76.64442000","wikiDataId":"Q1656061"},{"id":21504,"Name":"Tadó","state_id":2876,"state_code":"CHO","state_name":"Chocó","country_id":48,"country_code":"CO","country_name":"Colombia","latitude":"5.26598000","longitude":"-76.56487000","wikiDataId":"Q1524808"},{"id":21570,"Name":"Unguía","state_id":2876,"state_code":"CHO","state_name":"Chocó","country_id":48,"country_code":"CO","country_name":"Colombia","latitude":"8.04364000","longitude":"-77.09137000","wikiDataId":"Q1525509"},{"id":21571,"Name":"Unión Panamericana","state_id":2876,"state_code":"CHO","state_name":"Chocó","country_id":48,"country_code":"CO","country_name":"Colombia","latitude":"5.28139000","longitude":"-76.63000000","wikiDataId":"Q941447"}]