[{"id":20558,"Name":"Ayapel","state_id":2898,"state_code":"COR","state_name":"Córdoba","country_id":48,"country_code":"CO","country_name":"Colombia","latitude":"8.31372000","longitude":"-75.13982000","wikiDataId":"Q2430087"},{"id":20608,"Name":"Buenavista","state_id":2898,"state_code":"COR","state_name":"Córdoba","country_id":48,"country_code":"CO","country_name":"Colombia","latitude":"9.04963000","longitude":"-76.00280000","wikiDataId":"Q23696468"},{"id":20642,"Name":"Canalete","state_id":2898,"state_code":"COR","state_name":"Córdoba","country_id":48,"country_code":"CO","country_name":"Colombia","latitude":"8.67611000","longitude":"-76.20417000","wikiDataId":"Q23706698"},{"id":20669,"Name":"Cereté","state_id":2898,"state_code":"COR","state_name":"Córdoba","country_id":48,"country_code":"CO","country_name":"Colombia","latitude":"8.88479000","longitude":"-75.79052000","wikiDataId":"Q2308618"},{"id":20686,"Name":"Chimá","state_id":2898,"state_code":"COR","state_name":"Córdoba","country_id":48,"country_code":"CO","country_name":"Colombia","latitude":"9.14893000","longitude":"-75.62841000","wikiDataId":"Q1525620"},{"id":20690,"Name":"Chinú","state_id":2898,"state_code":"COR","state_name":"Córdoba","country_id":48,"country_code":"CO","country_name":"Colombia","latitude":"9.03869000","longitude":"-75.34273000","wikiDataId":"Q2387112"},{"id":20713,"Name":"Ciénaga de Oro","state_id":2898,"state_code":"COR","state_name":"Córdoba","country_id":48,"country_code":"CO","country_name":"Colombia","latitude":"8.83581000","longitude":"-75.60425000","wikiDataId":"Q23695464"},{"id":20742,"Name":"Cotorra","state_id":2898,"state_code":"COR","state_name":"Córdoba","country_id":48,"country_code":"CO","country_name":"Colombia","latitude":"9.03886000","longitude":"-75.78969000","wikiDataId":"Q1526122"},{"id":20970,"Name":"La Apartada","state_id":2898,"state_code":"COR","state_name":"Córdoba","country_id":48,"country_code":"CO","country_name":"Colombia","latitude":"8.04787000","longitude":"-75.30097000","wikiDataId":"Q1525412"},{"id":21031,"Name":"Lorica","state_id":2898,"state_code":"COR","state_name":"Córdoba","country_id":48,"country_code":"CO","country_name":"Colombia","latitude":"9.23648000","longitude":"-75.81350000","wikiDataId":"Q23687836"},{"id":21033,"Name":"Los Córdobas","state_id":2898,"state_code":"COR","state_name":"Córdoba","country_id":48,"country_code":"CO","country_name":"Colombia","latitude":"8.89403000","longitude":"-76.35455000","wikiDataId":"Q1525401"},{"id":21092,"Name":"Momil","state_id":2898,"state_code":"COR","state_name":"Córdoba","country_id":48,"country_code":"CO","country_name":"Colombia","latitude":"9.23767000","longitude":"-75.67489000","wikiDataId":"Q24831"},{"id":21112,"Name":"Moñitos","state_id":2898,"state_code":"COR","state_name":"Córdoba","country_id":48,"country_code":"CO","country_name":"Colombia","latitude":"9.22615000","longitude":"-76.13594000","wikiDataId":"Q1441218"},{"id":21099,"Name":"Montelíbano","state_id":2898,"state_code":"COR","state_name":"Córdoba","country_id":48,"country_code":"CO","country_name":"Colombia","latitude":"7.97917000","longitude":"-75.42020000","wikiDataId":"Q1787546"},{"id":21102,"Name":"Montería","state_id":2898,"state_code":"COR","state_name":"Córdoba","country_id":48,"country_code":"CO","country_name":"Colombia","latitude":"8.74798000","longitude":"-75.88143000","wikiDataId":"Q852725"},{"id":21213,"Name":"Planeta Rica","state_id":2898,"state_code":"COR","state_name":"Córdoba","country_id":48,"country_code":"CO","country_name":"Colombia","latitude":"8.41150000","longitude":"-75.58508000","wikiDataId":"Q956174"},{"id":21225,"Name":"Pueblo Nuevo","state_id":2898,"state_code":"COR","state_name":"Córdoba","country_id":48,"country_code":"CO","country_name":"Colombia","latitude":"8.24110000","longitude":"-74.95815000","wikiDataId":"Q23684193"},{"id":21241,"Name":"Puerto Escondido","state_id":2898,"state_code":"COR","state_name":"Córdoba","country_id":48,"country_code":"CO","country_name":"Colombia","latitude":"8.99453000","longitude":"-76.19351000","wikiDataId":"Q1441033"},{"id":21245,"Name":"Puerto Libertador","state_id":2898,"state_code":"COR","state_name":"Córdoba","country_id":48,"country_code":"CO","country_name":"Colombia","latitude":"7.68181000","longitude":"-75.78312000","wikiDataId":"Q2433456"},{"id":21266,"Name":"Purísima","state_id":2898,"state_code":"COR","state_name":"Córdoba","country_id":48,"country_code":"CO","country_name":"Colombia","latitude":"9.23657000","longitude":"-75.72191000","wikiDataId":"Q1525834"},{"id":21316,"Name":"Sahagún","state_id":2898,"state_code":"COR","state_name":"Córdoba","country_id":48,"country_code":"CO","country_name":"Colombia","latitude":"8.94617000","longitude":"-75.44275000","wikiDataId":"Q591547"},{"id":21333,"Name":"San Andrés de Sotavento","state_id":2898,"state_code":"COR","state_name":"Córdoba","country_id":48,"country_code":"CO","country_name":"Colombia","latitude":"9.12183000","longitude":"-75.51627000","wikiDataId":"Q2433828"},{"id":21335,"Name":"San Antero","state_id":2898,"state_code":"COR","state_name":"Córdoba","country_id":48,"country_code":"CO","country_name":"Colombia","latitude":"9.37410000","longitude":"-75.75891000","wikiDataId":"Q1442369"},{"id":21343,"Name":"San Bernardo del Viento","state_id":2898,"state_code":"COR","state_name":"Córdoba","country_id":48,"country_code":"CO","country_name":"Colombia","latitude":"9.35330000","longitude":"-75.95244000","wikiDataId":"Q2433835"},{"id":21346,"Name":"San Carlos","state_id":2898,"state_code":"COR","state_name":"Córdoba","country_id":48,"country_code":"CO","country_name":"Colombia","latitude":"8.79577000","longitude":"-75.69947000","wikiDataId":"Q1440812"},{"id":149251,"Name":"San José de Uré","state_id":2898,"state_code":"COR","state_name":"Córdoba","country_id":48,"country_code":"CO","country_name":"Colombia","latitude":"7.78722222","longitude":"-75.53305666","wikiDataId":"Q2605421"},{"id":21401,"Name":"San Pelayo","state_id":2898,"state_code":"COR","state_name":"Córdoba","country_id":48,"country_code":"CO","country_name":"Colombia","latitude":"8.95833000","longitude":"-75.83627000","wikiDataId":"Q2314281"},{"id":21527,"Name":"Tierralta","state_id":2898,"state_code":"COR","state_name":"Córdoba","country_id":48,"country_code":"CO","country_name":"Colombia","latitude":"7.87863000","longitude":"-76.21307000","wikiDataId":"Q2434756"},{"id":149258,"Name":"Tuchín","state_id":2898,"state_code":"COR","state_name":"Córdoba","country_id":48,"country_code":"CO","country_name":"Colombia","latitude":"9.18583333","longitude":"-75.55527888","wikiDataId":"Q2606076"},{"id":21578,"Name":"Valencia","state_id":2898,"state_code":"COR","state_name":"Córdoba","country_id":48,"country_code":"CO","country_name":"Colombia","latitude":"8.23350000","longitude":"-76.21428000","wikiDataId":"Q1983488"}]