[{"id":53836,"Name":"Agua Azul","state_id":4046,"state_code":"CR","state_name":"Cortés Department","country_id":97,"country_code":"HN","country_name":"Honduras","latitude":"14.91667000","longitude":"-87.96667000","wikiDataId":"Q1018877"},{"id":53837,"Name":"Agua Azul Rancho","state_id":4046,"state_code":"CR","state_name":"Cortés Department","country_id":97,"country_code":"HN","country_name":"Honduras","latitude":"14.90000000","longitude":"-87.95000000","wikiDataId":"Q1018877"},{"id":53859,"Name":"Armenta","state_id":4046,"state_code":"CR","state_name":"Cortés Department","country_id":97,"country_code":"HN","country_name":"Honduras","latitude":"15.50000000","longitude":"-88.05000000","wikiDataId":"Q2254748"},{"id":53866,"Name":"Baja Mar","state_id":4046,"state_code":"CR","state_name":"Cortés Department","country_id":97,"country_code":"HN","country_name":"Honduras","latitude":"15.88851000","longitude":"-87.85547000","wikiDataId":"Q935031"},{"id":53868,"Name":"Baracoa","state_id":4046,"state_code":"CR","state_name":"Cortés Department","country_id":97,"country_code":"HN","country_name":"Honduras","latitude":"15.76667000","longitude":"-87.85000000","wikiDataId":"Q935031"},{"id":53870,"Name":"Bejuco","state_id":4046,"state_code":"CR","state_name":"Cortés Department","country_id":97,"country_code":"HN","country_name":"Honduras","latitude":"15.13333000","longitude":"-87.93333000","wikiDataId":"Q935031"},{"id":53891,"Name":"Cañaveral","state_id":4046,"state_code":"CR","state_name":"Cortés Department","country_id":97,"country_code":"HN","country_name":"Honduras","latitude":"14.98333000","longitude":"-88.01667000","wikiDataId":"Q773081"},{"id":53889,"Name":"Casa Quemada","state_id":4046,"state_code":"CR","state_name":"Cortés Department","country_id":97,"country_code":"HN","country_name":"Honduras","latitude":"15.11667000","longitude":"-88.08333000","wikiDataId":"Q773081"},{"id":53899,"Name":"Chivana","state_id":4046,"state_code":"CR","state_name":"Cortés Department","country_id":97,"country_code":"HN","country_name":"Honduras","latitude":"15.75000000","longitude":"-87.98333000","wikiDataId":"Q2394615"},{"id":53900,"Name":"Choloma","state_id":4046,"state_code":"CR","state_name":"Cortés Department","country_id":97,"country_code":"HN","country_name":"Honduras","latitude":"15.64000000","longitude":"-87.92000000","wikiDataId":"Q998218"},{"id":53902,"Name":"Chotepe","state_id":4046,"state_code":"CR","state_name":"Cortés Department","country_id":97,"country_code":"HN","country_name":"Honduras","latitude":"15.41667000","longitude":"-87.98333000","wikiDataId":"Q998218"},{"id":53904,"Name":"Cofradía","state_id":4046,"state_code":"CR","state_name":"Cortés Department","country_id":97,"country_code":"HN","country_name":"Honduras","latitude":"15.40000000","longitude":"-88.15000000","wikiDataId":"Q1773148"},{"id":53931,"Name":"Cuyamel","state_id":4046,"state_code":"CR","state_name":"Cortés Department","country_id":97,"country_code":"HN","country_name":"Honduras","latitude":"15.66667000","longitude":"-88.20000000","wikiDataId":"Q593881"},{"id":53958,"Name":"El Llano","state_id":4046,"state_code":"CR","state_name":"Cortés Department","country_id":97,"country_code":"HN","country_name":"Honduras","latitude":"15.15000000","longitude":"-87.88333000","wikiDataId":"Q2090091"},{"id":53960,"Name":"El Marañón","state_id":4046,"state_code":"CR","state_name":"Cortés Department","country_id":97,"country_code":"HN","country_name":"Honduras","latitude":"15.40000000","longitude":"-88.05000000","wikiDataId":"Q2090091"},{"id":53961,"Name":"El Milagro","state_id":4046,"state_code":"CR","state_name":"Cortés Department","country_id":97,"country_code":"HN","country_name":"Honduras","latitude":"15.40000000","longitude":"-87.96667000","wikiDataId":"Q2090091"},{"id":53969,"Name":"El Olivar","state_id":4046,"state_code":"CR","state_name":"Cortés Department","country_id":97,"country_code":"HN","country_name":"Honduras","latitude":"15.08333000","longitude":"-87.88333000","wikiDataId":"Q2302837"},{"id":53973,"Name":"El Perico","state_id":4046,"state_code":"CR","state_name":"Cortés Department","country_id":97,"country_code":"HN","country_name":"Honduras","latitude":"15.08333000","longitude":"-88.10000000","wikiDataId":"Q2302837"},{"id":53975,"Name":"El Plan","state_id":4046,"state_code":"CR","state_name":"Cortés Department","country_id":97,"country_code":"HN","country_name":"Honduras","latitude":"15.28333000","longitude":"-87.96667000","wikiDataId":"Q2302837"},{"id":53977,"Name":"El Porvenir","state_id":4046,"state_code":"CR","state_name":"Cortés Department","country_id":97,"country_code":"HN","country_name":"Honduras","latitude":"15.83333000","longitude":"-87.93333000","wikiDataId":"Q1643252"},{"id":53982,"Name":"El Rancho","state_id":4046,"state_code":"CR","state_name":"Cortés Department","country_id":97,"country_code":"HN","country_name":"Honduras","latitude":"15.66667000","longitude":"-87.95000000","wikiDataId":"Q1643252"},{"id":53993,"Name":"El Tigre","state_id":4046,"state_code":"CR","state_name":"Cortés Department","country_id":97,"country_code":"HN","country_name":"Honduras","latitude":"14.93333000","longitude":"-87.98333000","wikiDataId":"Q1643252"},{"id":53998,"Name":"El Zapotal del Norte","state_id":4046,"state_code":"CR","state_name":"Cortés Department","country_id":97,"country_code":"HN","country_name":"Honduras","latitude":"15.51667000","longitude":"-88.05000000","wikiDataId":"Q1643252"},{"id":54060,"Name":"La Guama","state_id":4046,"state_code":"CR","state_name":"Cortés Department","country_id":97,"country_code":"HN","country_name":"Honduras","latitude":"14.88333000","longitude":"-87.93333000","wikiDataId":"Q2561304"},{"id":54062,"Name":"La Huesa","state_id":4046,"state_code":"CR","state_name":"Cortés Department","country_id":97,"country_code":"HN","country_name":"Honduras","latitude":"15.58333000","longitude":"-87.88333000","wikiDataId":"Q2394928"},{"id":54065,"Name":"La Jutosa","state_id":4046,"state_code":"CR","state_name":"Cortés Department","country_id":97,"country_code":"HN","country_name":"Honduras","latitude":"15.63333000","longitude":"-88.00000000","wikiDataId":"Q2394928"},{"id":54070,"Name":"La Lima","state_id":4046,"state_code":"CR","state_name":"Cortés Department","country_id":97,"country_code":"HN","country_name":"Honduras","latitude":"15.43333000","longitude":"-87.91667000","wikiDataId":"Q2279521"},{"id":54076,"Name":"La Sabana","state_id":4046,"state_code":"CR","state_name":"Cortés Department","country_id":97,"country_code":"HN","country_name":"Honduras","latitude":"15.36667000","longitude":"-87.93333000","wikiDataId":"Q2283725"},{"id":54107,"Name":"Los Caminos","state_id":4046,"state_code":"CR","state_name":"Cortés Department","country_id":97,"country_code":"HN","country_name":"Honduras","latitude":"14.95000000","longitude":"-87.96667000","wikiDataId":"Q1948279"},{"id":54109,"Name":"Los Naranjos","state_id":4046,"state_code":"CR","state_name":"Cortés Department","country_id":97,"country_code":"HN","country_name":"Honduras","latitude":"14.90000000","longitude":"-88.05000000","wikiDataId":"Q1948279"},{"id":54132,"Name":"Monterrey","state_id":4046,"state_code":"CR","state_name":"Cortés Department","country_id":97,"country_code":"HN","country_name":"Honduras","latitude":"15.58333000","longitude":"-87.88333000","wikiDataId":"Q10331869"},{"id":54152,"Name":"Nuevo Chamelecón","state_id":4046,"state_code":"CR","state_name":"Cortés Department","country_id":97,"country_code":"HN","country_name":"Honduras","latitude":"15.38333000","longitude":"-88.01667000","wikiDataId":"Q3307235"},{"id":54159,"Name":"Omoa","state_id":4046,"state_code":"CR","state_name":"Cortés Department","country_id":97,"country_code":"HN","country_name":"Honduras","latitude":"15.76667000","longitude":"-88.03333000","wikiDataId":"Q520386"},{"id":54164,"Name":"Oropéndolas","state_id":4046,"state_code":"CR","state_name":"Cortés Department","country_id":97,"country_code":"HN","country_name":"Honduras","latitude":"15.01667000","longitude":"-87.93333000","wikiDataId":"Q2481144"},{"id":54170,"Name":"Peña Blanca","state_id":4046,"state_code":"CR","state_name":"Cortés Department","country_id":97,"country_code":"HN","country_name":"Honduras","latitude":"15.53333000","longitude":"-88.05000000","wikiDataId":"Q2394913"},{"id":54171,"Name":"Pimienta","state_id":4046,"state_code":"CR","state_name":"Cortés Department","country_id":97,"country_code":"HN","country_name":"Honduras","latitude":"15.26500000","longitude":"-87.96667000","wikiDataId":"Q2394913"},{"id":54172,"Name":"Pimienta Vieja","state_id":4046,"state_code":"CR","state_name":"Cortés Department","country_id":97,"country_code":"HN","country_name":"Honduras","latitude":"15.23333000","longitude":"-87.96667000","wikiDataId":"Q2394913"},{"id":54176,"Name":"Potrerillos","state_id":4046,"state_code":"CR","state_name":"Cortés Department","country_id":97,"country_code":"HN","country_name":"Honduras","latitude":"15.21000000","longitude":"-87.95000000","wikiDataId":"Q2394913"},{"id":54180,"Name":"Pueblo Nuevo","state_id":4046,"state_code":"CR","state_name":"Cortés Department","country_id":97,"country_code":"HN","country_name":"Honduras","latitude":"15.28333000","longitude":"-88.01667000","wikiDataId":"Q2362030"},{"id":54182,"Name":"Puerto Alto","state_id":4046,"state_code":"CR","state_name":"Cortés Department","country_id":97,"country_code":"HN","country_name":"Honduras","latitude":"15.70000000","longitude":"-87.86667000","wikiDataId":"Q2362030"},{"id":54185,"Name":"Puerto Cortés","state_id":4046,"state_code":"CR","state_name":"Cortés Department","country_id":97,"country_code":"HN","country_name":"Honduras","latitude":"15.79000000","longitude":"-87.84900000","wikiDataId":"Q2058947"},{"id":54184,"Name":"Puerto Cortez","state_id":4046,"state_code":"CR","state_name":"Cortés Department","country_id":97,"country_code":"HN","country_name":"Honduras","latitude":"15.82562000","longitude":"-87.92968000","wikiDataId":"Q2058947"},{"id":54191,"Name":"Quebrada Seca","state_id":4046,"state_code":"CR","state_name":"Cortés Department","country_id":97,"country_code":"HN","country_name":"Honduras","latitude":"15.66667000","longitude":"-87.95000000","wikiDataId":"Q2075665"},{"id":54199,"Name":"Río Blanquito","state_id":4046,"state_code":"CR","state_name":"Cortés Department","country_id":97,"country_code":"HN","country_name":"Honduras","latitude":"15.73333000","longitude":"-87.90000000","wikiDataId":"Q2604760"},{"id":54201,"Name":"Río Chiquito","state_id":4046,"state_code":"CR","state_name":"Cortés Department","country_id":97,"country_code":"HN","country_name":"Honduras","latitude":"15.63333000","longitude":"-88.25000000","wikiDataId":"Q2604760"},{"id":54203,"Name":"Río Lindo","state_id":4046,"state_code":"CR","state_name":"Cortés Department","country_id":97,"country_code":"HN","country_name":"Honduras","latitude":"15.03333000","longitude":"-87.98333000","wikiDataId":"Q2604760"},{"id":54215,"Name":"San Antonio de Cortés","state_id":4046,"state_code":"CR","state_name":"Cortés Department","country_id":97,"country_code":"HN","country_name":"Honduras","latitude":"15.11667000","longitude":"-88.03333000","wikiDataId":"Q967937"},{"id":54221,"Name":"San Buenaventura","state_id":4046,"state_code":"CR","state_name":"Cortés Department","country_id":97,"country_code":"HN","country_name":"Honduras","latitude":"15.01667000","longitude":"-88.00000000","wikiDataId":"Q967937"},{"id":54233,"Name":"San Francisco de Yojoa","state_id":4046,"state_code":"CR","state_name":"Cortés Department","country_id":97,"country_code":"HN","country_name":"Honduras","latitude":"15.01667000","longitude":"-87.96667000","wikiDataId":"Q1644762"},{"id":54254,"Name":"San José del Boquerón","state_id":4046,"state_code":"CR","state_name":"Cortés Department","country_id":97,"country_code":"HN","country_name":"Honduras","latitude":"15.48333000","longitude":"-87.86667000","wikiDataId":"Q25268885"},{"id":54268,"Name":"San Manuel","state_id":4046,"state_code":"CR","state_name":"Cortés Department","country_id":97,"country_code":"HN","country_name":"Honduras","latitude":"15.37279000","longitude":"-87.90167000","wikiDataId":"Q1644884"},{"id":54281,"Name":"San Pedro Sula","state_id":4046,"state_code":"CR","state_name":"Cortés Department","country_id":97,"country_code":"HN","country_name":"Honduras","latitude":"15.50417000","longitude":"-88.02500000","wikiDataId":"Q274584"},{"id":54298,"Name":"Santa Cruz de Yojoa","state_id":4046,"state_code":"CR","state_name":"Cortés Department","country_id":97,"country_code":"HN","country_name":"Honduras","latitude":"14.98333000","longitude":"-87.90000000","wikiDataId":"Q2180652"},{"id":54299,"Name":"Santa Elena","state_id":4046,"state_code":"CR","state_name":"Cortés Department","country_id":97,"country_code":"HN","country_name":"Honduras","latitude":"15.38333000","longitude":"-88.13333000","wikiDataId":"Q2180652"},{"id":54344,"Name":"Travesía","state_id":4046,"state_code":"CR","state_name":"Cortés Department","country_id":97,"country_code":"HN","country_name":"Honduras","latitude":"15.86667000","longitude":"-87.90000000","wikiDataId":"Q2226585"},{"id":54362,"Name":"Villanueva","state_id":4046,"state_code":"CR","state_name":"Cortés Department","country_id":97,"country_code":"HN","country_name":"Honduras","latitude":"15.31667000","longitude":"-88.00000000","wikiDataId":"Q2542686"}]