[{"id":89872,"Name":"23 August","state_id":4737,"state_code":"CT","state_name":"Constanța County","country_id":181,"country_code":"RO","country_name":"Romania","latitude":"43.91667000","longitude":"28.58333000","wikiDataId":"Q5060164"},{"id":89879,"Name":"Adamclisi","state_id":4737,"state_code":"CT","state_name":"Constanța County","country_id":181,"country_code":"RO","country_name":"Romania","latitude":"44.08333000","longitude":"27.95000000","wikiDataId":"Q12076728"},{"id":89896,"Name":"Agigea","state_id":4737,"state_code":"CT","state_name":"Constanța County","country_id":181,"country_code":"RO","country_name":"Romania","latitude":"44.09258000","longitude":"28.61079000","wikiDataId":"Q5060127"},{"id":89917,"Name":"Albeşti","state_id":4737,"state_code":"CT","state_name":"Constanța County","country_id":181,"country_code":"RO","country_name":"Romania","latitude":"43.80000000","longitude":"28.41667000","wikiDataId":"Q579707"},{"id":89931,"Name":"Aliman","state_id":4737,"state_code":"CT","state_name":"Constanța County","country_id":181,"country_code":"RO","country_name":"Romania","latitude":"44.18333000","longitude":"27.85000000","wikiDataId":"Q650279"},{"id":89950,"Name":"Amzacea","state_id":4737,"state_code":"CT","state_name":"Constanța County","country_id":181,"country_code":"RO","country_name":"Romania","latitude":"43.95000000","longitude":"28.40000000","wikiDataId":"Q697735"},{"id":90532,"Name":"Băneasa","state_id":4737,"state_code":"CT","state_name":"Constanța County","country_id":181,"country_code":"RO","country_name":"Romania","latitude":"44.06667000","longitude":"27.70000000","wikiDataId":"Q2717304"},{"id":90546,"Name":"Bărăganu","state_id":4737,"state_code":"CT","state_name":"Constanța County","country_id":181,"country_code":"RO","country_name":"Romania","latitude":"44.08939000","longitude":"28.41980000","wikiDataId":"Q855750"},{"id":90584,"Name":"Castelu","state_id":4737,"state_code":"CT","state_name":"Constanța County","country_id":181,"country_code":"RO","country_name":"Romania","latitude":"44.25000000","longitude":"28.33333000","wikiDataId":"Q858861"},{"id":90623,"Name":"Cerchezu","state_id":4737,"state_code":"CT","state_name":"Constanța County","country_id":181,"country_code":"RO","country_name":"Romania","latitude":"43.81667000","longitude":"28.10000000","wikiDataId":"Q859620"},{"id":90630,"Name":"Cernavodă","state_id":4737,"state_code":"CT","state_name":"Constanța County","country_id":181,"country_code":"RO","country_name":"Romania","latitude":"44.33957000","longitude":"28.03273000","wikiDataId":"Q13583705"},{"id":90678,"Name":"Chirnogeni","state_id":4737,"state_code":"CT","state_name":"Constanța County","country_id":181,"country_code":"RO","country_name":"Romania","latitude":"43.90000000","longitude":"28.23333000","wikiDataId":"Q860821"},{"id":90705,"Name":"Ciobanu","state_id":4737,"state_code":"CT","state_name":"Constanța County","country_id":181,"country_code":"RO","country_name":"Romania","latitude":"44.71759000","longitude":"27.98698000","wikiDataId":"Q867451"},{"id":90711,"Name":"Ciocârlia","state_id":4737,"state_code":"CT","state_name":"Constanța County","country_id":181,"country_code":"RO","country_name":"Romania","latitude":"44.10000000","longitude":"28.28333000","wikiDataId":"Q867452"},{"id":90712,"Name":"Ciocârlia de Sus","state_id":4737,"state_code":"CT","state_name":"Constanța County","country_id":181,"country_code":"RO","country_name":"Romania","latitude":"44.11712000","longitude":"28.33402000","wikiDataId":"Q12170418"},{"id":90775,"Name":"Cobadin","state_id":4737,"state_code":"CT","state_name":"Constanța County","country_id":181,"country_code":"RO","country_name":"Romania","latitude":"44.08333000","longitude":"28.21667000","wikiDataId":"Q868112"},{"id":90787,"Name":"Cogealac","state_id":4737,"state_code":"CT","state_name":"Constanța County","country_id":181,"country_code":"RO","country_name":"Romania","latitude":"44.55000000","longitude":"28.56667000","wikiDataId":"Q868214"},{"id":90804,"Name":"Comana","state_id":4737,"state_code":"CT","state_name":"Constanța County","country_id":181,"country_code":"RO","country_name":"Romania","latitude":"43.90000000","longitude":"28.31667000","wikiDataId":"Q868420"},{"id":90817,"Name":"Comuna 23 August","state_id":4737,"state_code":"CT","state_name":"Constanța County","country_id":181,"country_code":"RO","country_name":"Romania","latitude":"43.91938000","longitude":"28.55437000","wikiDataId":"Q216248"},{"id":90821,"Name":"Comuna Adamclisi","state_id":4737,"state_code":"CT","state_name":"Constanța County","country_id":181,"country_code":"RO","country_name":"Romania","latitude":"44.11447000","longitude":"27.94990000","wikiDataId":"Q351559"},{"id":90831,"Name":"Comuna Agigea","state_id":4737,"state_code":"CT","state_name":"Constanța County","country_id":181,"country_code":"RO","country_name":"Romania","latitude":"44.09654000","longitude":"28.62684000","wikiDataId":"Q516748"},{"id":90842,"Name":"Comuna Albeşti","state_id":4737,"state_code":"CT","state_name":"Constanța County","country_id":181,"country_code":"RO","country_name":"Romania","latitude":"43.80863000","longitude":"28.40325000","wikiDataId":"Q12077550"},{"id":90852,"Name":"Comuna Aliman","state_id":4737,"state_code":"CT","state_name":"Constanța County","country_id":181,"country_code":"RO","country_name":"Romania","latitude":"44.18430000","longitude":"27.83697000","wikiDataId":"Q12077924"},{"id":90864,"Name":"Comuna Amzacea","state_id":4737,"state_code":"CT","state_name":"Constanța County","country_id":181,"country_code":"RO","country_name":"Romania","latitude":"43.95983000","longitude":"28.32122000","wikiDataId":"Q12078004"},{"id":91242,"Name":"Comuna Bărăganu","state_id":4737,"state_code":"CT","state_name":"Constanța County","country_id":181,"country_code":"RO","country_name":"Romania","latitude":"44.07931000","longitude":"28.39887000","wikiDataId":"Q5062337"},{"id":91264,"Name":"Comuna Castelu","state_id":4737,"state_code":"CT","state_name":"Constanța County","country_id":181,"country_code":"RO","country_name":"Romania","latitude":"44.25846000","longitude":"28.36908000","wikiDataId":"Q5062970"},{"id":91288,"Name":"Comuna Cerchezu","state_id":4737,"state_code":"CT","state_name":"Constanța County","country_id":181,"country_code":"RO","country_name":"Romania","latitude":"43.84984000","longitude":"28.08444000","wikiDataId":"Q5062884"},{"id":91321,"Name":"Comuna Chirnogeni","state_id":4737,"state_code":"CT","state_name":"Constanța County","country_id":181,"country_code":"RO","country_name":"Romania","latitude":"43.94216000","longitude":"28.22195000","wikiDataId":"Q5052415"},{"id":91339,"Name":"Comuna Ciobanu","state_id":4737,"state_code":"CT","state_name":"Constanța County","country_id":181,"country_code":"RO","country_name":"Romania","latitude":"44.71771000","longitude":"27.98904000","wikiDataId":"Q5052651"},{"id":91344,"Name":"Comuna Ciocârlia","state_id":4737,"state_code":"CT","state_name":"Constanța County","country_id":181,"country_code":"RO","country_name":"Romania","latitude":"44.11098000","longitude":"28.31161000","wikiDataId":"Q5052624"},{"id":91384,"Name":"Comuna Cobadin","state_id":4737,"state_code":"CT","state_name":"Constanța County","country_id":181,"country_code":"RO","country_name":"Romania","latitude":"44.02574000","longitude":"28.16695000","wikiDataId":"Q5060637"},{"id":91393,"Name":"Comuna Cogealac","state_id":4737,"state_code":"CT","state_name":"Constanța County","country_id":181,"country_code":"RO","country_name":"Romania","latitude":"44.57661000","longitude":"28.52244000","wikiDataId":"Q12111150"},{"id":91403,"Name":"Comuna Comana","state_id":4737,"state_code":"CT","state_name":"Constanța County","country_id":181,"country_code":"RO","country_name":"Romania","latitude":"43.89963000","longitude":"28.35491000","wikiDataId":"Q5052486"},{"id":91429,"Name":"Comuna Corbu","state_id":4737,"state_code":"CT","state_name":"Constanța County","country_id":181,"country_code":"RO","country_name":"Romania","latitude":"44.40319000","longitude":"28.67797000","wikiDataId":"Q5054198"},{"id":91459,"Name":"Comuna Costineşti","state_id":4737,"state_code":"CT","state_name":"Constanța County","country_id":181,"country_code":"RO","country_name":"Romania","latitude":"43.94780000","longitude":"28.63284000","wikiDataId":"Q12113675"},{"id":91508,"Name":"Comuna Crucea","state_id":4737,"state_code":"CT","state_name":"Constanța County","country_id":181,"country_code":"RO","country_name":"Romania","latitude":"44.55046000","longitude":"28.20592000","wikiDataId":"Q5115409"},{"id":91524,"Name":"Comuna Cumpăna","state_id":4737,"state_code":"CT","state_name":"Constanța County","country_id":181,"country_code":"RO","country_name":"Romania","latitude":"44.10747000","longitude":"28.51226000","wikiDataId":"Q5066192"},{"id":91534,"Name":"Comuna Cuza Voda","state_id":4737,"state_code":"CT","state_name":"Constanța County","country_id":181,"country_code":"RO","country_name":"Romania","latitude":"44.28773000","longitude":"28.31005000","wikiDataId":"Q5052200"},{"id":91609,"Name":"Comuna Deleni","state_id":4737,"state_code":"CT","state_name":"Constanța County","country_id":181,"country_code":"RO","country_name":"Romania","latitude":"44.06175000","longitude":"28.02263000","wikiDataId":"Q5052674"},{"id":93583,"Name":"Comună Dobromir","state_id":4737,"state_code":"CT","state_name":"Constanța County","country_id":181,"country_code":"RO","country_name":"Romania","latitude":"44.01813000","longitude":"27.83888000","wikiDataId":"Q5052429"},{"id":91716,"Name":"Comuna Dumbrăveni","state_id":4737,"state_code":"CT","state_name":"Constanța County","country_id":181,"country_code":"RO","country_name":"Romania","latitude":"43.93127000","longitude":"27.99112000","wikiDataId":"Q5052557"},{"id":91806,"Name":"Comuna Fântânele","state_id":4737,"state_code":"CT","state_name":"Constanța County","country_id":181,"country_code":"RO","country_name":"Romania","latitude":"44.61278000","longitude":"28.57655000","wikiDataId":"Q5066106"},{"id":91975,"Name":"Comuna Gârliciu","state_id":4737,"state_code":"CT","state_name":"Constanța County","country_id":181,"country_code":"RO","country_name":"Romania","latitude":"44.77933000","longitude":"28.09461000","wikiDataId":"Q5065792"},{"id":91860,"Name":"Comuna Ghindăreşti","state_id":4737,"state_code":"CT","state_name":"Constanța County","country_id":181,"country_code":"RO","country_name":"Romania","latitude":"44.63520000","longitude":"28.03193000","wikiDataId":"Q5065390"},{"id":91935,"Name":"Comuna Grădina","state_id":4737,"state_code":"CT","state_name":"Constanța County","country_id":181,"country_code":"RO","country_name":"Romania","latitude":"44.52298000","longitude":"28.44846000","wikiDataId":"Q5052564"},{"id":92017,"Name":"Comuna Horia","state_id":4737,"state_code":"CT","state_name":"Constanța County","country_id":181,"country_code":"RO","country_name":"Romania","latitude":"44.63551000","longitude":"28.12034000","wikiDataId":"Q5053092"},{"id":92079,"Name":"Comuna Independenţa","state_id":4737,"state_code":"CT","state_name":"Constanța County","country_id":181,"country_code":"RO","country_name":"Romania","latitude":"43.96020000","longitude":"28.06290000","wikiDataId":"Q5052508"},{"id":92081,"Name":"Comuna Ion Corvin","state_id":4737,"state_code":"CT","state_name":"Constanța County","country_id":181,"country_code":"RO","country_name":"Romania","latitude":"44.10717000","longitude":"27.80268000","wikiDataId":"Q5052950"},{"id":92094,"Name":"Comuna Istria","state_id":4737,"state_code":"CT","state_name":"Constanța County","country_id":181,"country_code":"RO","country_name":"Romania","latitude":"44.55487000","longitude":"28.68155000","wikiDataId":"Q5053165"},{"id":92165,"Name":"Comuna Limanu","state_id":4737,"state_code":"CT","state_name":"Constanța County","country_id":181,"country_code":"RO","country_name":"Romania","latitude":"43.78024000","longitude":"28.53931000","wikiDataId":"Q5052857"},{"id":92166,"Name":"Comuna Lipniţa","state_id":4737,"state_code":"CT","state_name":"Constanța County","country_id":181,"country_code":"RO","country_name":"Romania","latitude":"44.09073000","longitude":"27.56683000","wikiDataId":"Q5053057"},{"id":92196,"Name":"Comuna Lumina","state_id":4737,"state_code":"CT","state_name":"Constanța County","country_id":181,"country_code":"RO","country_name":"Romania","latitude":"44.32756000","longitude":"28.54709000","wikiDataId":"Q5054376"},{"id":92258,"Name":"Comuna Mereni","state_id":4737,"state_code":"CT","state_name":"Constanța County","country_id":181,"country_code":"RO","country_name":"Romania","latitude":"44.01545000","longitude":"28.33559000","wikiDataId":"Q5053191"},{"id":92274,"Name":"Comuna Mihai Viteazu","state_id":4737,"state_code":"CT","state_name":"Constanța County","country_id":181,"country_code":"RO","country_name":"Romania","latitude":"44.63727000","longitude":"28.70460000","wikiDataId":"Q5063836"},{"id":92277,"Name":"Comuna Mihail Kogălniceanu","state_id":4737,"state_code":"CT","state_name":"Constanța County","country_id":181,"country_code":"RO","country_name":"Romania","latitude":"44.40479000","longitude":"28.51919000","wikiDataId":"Q5062278"},{"id":92296,"Name":"Comuna Mircea Vodă","state_id":4737,"state_code":"CT","state_name":"Constanța County","country_id":181,"country_code":"RO","country_name":"Romania","latitude":"44.30137000","longitude":"28.18647000","wikiDataId":"Q5065996"},{"id":92440,"Name":"Comuna Nicolae Bălcescu","state_id":4737,"state_code":"CT","state_name":"Constanța County","country_id":181,"country_code":"RO","country_name":"Romania","latitude":"44.39829000","longitude":"28.35323000","wikiDataId":"Q5053117"},{"id":92498,"Name":"Comuna Oltina","state_id":4737,"state_code":"CT","state_name":"Constanța County","country_id":181,"country_code":"RO","country_name":"Romania","latitude":"44.13879000","longitude":"27.64881000","wikiDataId":"Q5062217"},{"id":92518,"Name":"Comuna Ostrov","state_id":4737,"state_code":"CT","state_name":"Constanța County","country_id":181,"country_code":"RO","country_name":"Romania","latitude":"44.08152000","longitude":"27.42046000","wikiDataId":"Q5062507"},{"id":92534,"Name":"Comuna Pantelimon","state_id":4737,"state_code":"CT","state_name":"Constanța County","country_id":181,"country_code":"RO","country_name":"Romania","latitude":"44.60047000","longitude":"28.36014000","wikiDataId":"Q5063949"},{"id":92544,"Name":"Comuna Pecineaga","state_id":4737,"state_code":"CT","state_name":"Constanța County","country_id":181,"country_code":"RO","country_name":"Romania","latitude":"43.88676000","longitude":"28.51012000","wikiDataId":"Q5066493"},{"id":92570,"Name":"Comuna Peştera","state_id":4737,"state_code":"CT","state_name":"Constanța County","country_id":181,"country_code":"RO","country_name":"Romania","latitude":"44.18951000","longitude":"28.10722000","wikiDataId":"Q5054134"},{"id":92607,"Name":"Comuna Poarta Albă","state_id":4737,"state_code":"CT","state_name":"Constanța County","country_id":181,"country_code":"RO","country_name":"Romania","latitude":"44.21622000","longitude":"28.41904000","wikiDataId":"Q1188568"},{"id":92748,"Name":"Comuna Rasova","state_id":4737,"state_code":"CT","state_name":"Constanța County","country_id":181,"country_code":"RO","country_name":"Romania","latitude":"44.25918000","longitude":"27.96962000","wikiDataId":"Q5062358"},{"id":93082,"Name":"Comuna Săcele","state_id":4737,"state_code":"CT","state_name":"Constanța County","country_id":181,"country_code":"RO","country_name":"Romania","latitude":"44.48866000","longitude":"28.66382000","wikiDataId":"Q12725193"},{"id":92867,"Name":"Comuna Saligny","state_id":4737,"state_code":"CT","state_name":"Constanța County","country_id":181,"country_code":"RO","country_name":"Romania","latitude":"44.28318000","longitude":"28.08929000","wikiDataId":"Q5110221"},{"id":92873,"Name":"Comuna Saraiu","state_id":4737,"state_code":"CT","state_name":"Constanța County","country_id":181,"country_code":"RO","country_name":"Romania","latitude":"44.71747000","longitude":"28.14732000","wikiDataId":"Q5052607"},{"id":92919,"Name":"Comuna Seimeni","state_id":4737,"state_code":"CT","state_name":"Constanța County","country_id":181,"country_code":"RO","country_name":"Romania","latitude":"44.40184000","longitude":"28.08756000","wikiDataId":"Q5052979"},{"id":92931,"Name":"Comuna Siliştea","state_id":4737,"state_code":"CT","state_name":"Constanța County","country_id":181,"country_code":"RO","country_name":"Romania","latitude":"44.42359000","longitude":"28.20967000","wikiDataId":"Q5053224"},{"id":93225,"Name":"Comuna Târguşor","state_id":4737,"state_code":"CT","state_name":"Constanța County","country_id":181,"country_code":"RO","country_name":"Romania","latitude":"44.47713000","longitude":"28.38821000","wikiDataId":"Q5062808"},{"id":93173,"Name":"Comuna Topalu","state_id":4737,"state_code":"CT","state_name":"Constanța County","country_id":181,"country_code":"RO","country_name":"Romania","latitude":"44.52116000","longitude":"28.07081000","wikiDataId":"Q12161957"},{"id":93181,"Name":"Comuna Topraisar","state_id":4737,"state_code":"CT","state_name":"Constanța County","country_id":181,"country_code":"RO","country_name":"Romania","latitude":"44.03126000","longitude":"28.48845000","wikiDataId":"Q1188240"},{"id":93183,"Name":"Comuna Tortoman","state_id":4737,"state_code":"CT","state_name":"Constanța County","country_id":181,"country_code":"RO","country_name":"Romania","latitude":"44.34569000","longitude":"28.26562000","wikiDataId":"Q5054175"},{"id":93220,"Name":"Comuna Tuzla","state_id":4737,"state_code":"CT","state_name":"Constanța County","country_id":181,"country_code":"RO","country_name":"Romania","latitude":"44.00158000","longitude":"28.63874000","wikiDataId":"Q5065650"},{"id":93330,"Name":"Comuna Valu lui Traian","state_id":4737,"state_code":"CT","state_name":"Constanța County","country_id":181,"country_code":"RO","country_name":"Romania","latitude":"44.16386000","longitude":"28.46526000","wikiDataId":"Q12725256"},{"id":93423,"Name":"Comuna Vulturu","state_id":4737,"state_code":"CT","state_name":"Constanța County","country_id":181,"country_code":"RO","country_name":"Romania","latitude":"44.64806000","longitude":"28.27294000","wikiDataId":"Q5065915"},{"id":93595,"Name":"Constanţa","state_id":4737,"state_code":"CT","state_name":"Constanța County","country_id":181,"country_code":"RO","country_name":"Romania","latitude":"44.18073000","longitude":"28.63432000","wikiDataId":"Q75662"},{"id":93618,"Name":"Corbu","state_id":4737,"state_code":"CT","state_name":"Constanța County","country_id":181,"country_code":"RO","country_name":"Romania","latitude":"44.38333000","longitude":"28.65000000","wikiDataId":"Q869069"},{"id":93667,"Name":"Costineşti","state_id":4737,"state_code":"CT","state_name":"Constanța County","country_id":181,"country_code":"RO","country_name":"Romania","latitude":"43.95000000","longitude":"28.63333000","wikiDataId":"Q869365"},{"id":93741,"Name":"Crucea","state_id":4737,"state_code":"CT","state_name":"Constanța County","country_id":181,"country_code":"RO","country_name":"Romania","latitude":"44.53333000","longitude":"28.23333000","wikiDataId":"Q869986"},{"id":93768,"Name":"Culmea","state_id":4737,"state_code":"CT","state_name":"Constanța County","country_id":181,"country_code":"RO","country_name":"Romania","latitude":"44.25759000","longitude":"28.46643000","wikiDataId":"Q15931139"},{"id":93769,"Name":"Cumpăna","state_id":4737,"state_code":"CT","state_name":"Constanța County","country_id":181,"country_code":"RO","country_name":"Romania","latitude":"44.11667000","longitude":"28.56667000","wikiDataId":"Q899563"},{"id":93783,"Name":"Cuza Vodă","state_id":4737,"state_code":"CT","state_name":"Constanța County","country_id":181,"country_code":"RO","country_name":"Romania","latitude":"44.28773000","longitude":"28.31005000","wikiDataId":"Q643719"},{"id":93913,"Name":"Deleni","state_id":4737,"state_code":"CT","state_name":"Constanța County","country_id":181,"country_code":"RO","country_name":"Romania","latitude":"44.10000000","longitude":"28.01667000","wikiDataId":"Q903487"},{"id":93962,"Name":"Dobromir","state_id":4737,"state_code":"CT","state_name":"Constanța County","country_id":181,"country_code":"RO","country_name":"Romania","latitude":"44.01667000","longitude":"27.78333000","wikiDataId":"Q907361"},{"id":94004,"Name":"Dorobanțu","state_id":4737,"state_code":"CT","state_name":"Constanța County","country_id":181,"country_code":"RO","country_name":"Romania","latitude":"44.41035000","longitude":"28.32687000","wikiDataId":"Q12102108"},{"id":94074,"Name":"Dulcești","state_id":4737,"state_code":"CT","state_name":"Constanța County","country_id":181,"country_code":"RO","country_name":"Romania","latitude":"43.90506000","longitude":"28.54796000","wikiDataId":"Q568052"},{"id":94083,"Name":"Dumbrăveni","state_id":4737,"state_code":"CT","state_name":"Constanța County","country_id":181,"country_code":"RO","country_name":"Romania","latitude":"43.93333000","longitude":"27.98333000","wikiDataId":"Q911106"},{"id":94101,"Name":"Dunăreni","state_id":4737,"state_code":"CT","state_name":"Constanța County","country_id":181,"country_code":"RO","country_name":"Romania","latitude":"44.20463000","longitude":"27.79058000","wikiDataId":"Q12102913"},{"id":94137,"Name":"Eforie Nord","state_id":4737,"state_code":"CT","state_name":"Constanța County","country_id":181,"country_code":"RO","country_name":"Romania","latitude":"44.06530000","longitude":"28.63211000","wikiDataId":"Q1296448"},{"id":94138,"Name":"Eforie Sud","state_id":4737,"state_code":"CT","state_name":"Constanța County","country_id":181,"country_code":"RO","country_name":"Romania","latitude":"44.02294000","longitude":"28.64943000","wikiDataId":"Q734438"},{"id":94248,"Name":"Făclia","state_id":4737,"state_code":"CT","state_name":"Constanța County","country_id":181,"country_code":"RO","country_name":"Romania","latitude":"44.28039000","longitude":"28.10583000","wikiDataId":"Q12165539"},{"id":94239,"Name":"Fântânele","state_id":4737,"state_code":"CT","state_name":"Constanța County","country_id":181,"country_code":"RO","country_name":"Romania","latitude":"44.61278000","longitude":"28.57655000","wikiDataId":"Q1004656"},{"id":94494,"Name":"Gârliciu","state_id":4737,"state_code":"CT","state_name":"Constanța County","country_id":181,"country_code":"RO","country_name":"Romania","latitude":"44.76667000","longitude":"28.08333000","wikiDataId":"Q934014"},{"id":94329,"Name":"Ghindăreşti","state_id":4737,"state_code":"CT","state_name":"Constanța County","country_id":181,"country_code":"RO","country_name":"Romania","latitude":"44.65000000","longitude":"28.03333000","wikiDataId":"Q242006"},{"id":94433,"Name":"Grădina","state_id":4737,"state_code":"CT","state_name":"Constanța County","country_id":181,"country_code":"RO","country_name":"Romania","latitude":"44.55520000","longitude":"28.43236000","wikiDataId":"Q1028459"},{"id":94594,"Name":"Hârşova","state_id":4737,"state_code":"CT","state_name":"Constanța County","country_id":181,"country_code":"RO","country_name":"Romania","latitude":"44.68555000","longitude":"27.95009000","wikiDataId":"Q15256020"},{"id":94560,"Name":"Horia","state_id":4737,"state_code":"CT","state_name":"Constanța County","country_id":181,"country_code":"RO","country_name":"Romania","latitude":"44.63333000","longitude":"28.11667000","wikiDataId":"Q1055134"},{"id":94664,"Name":"Independenţa","state_id":4737,"state_code":"CT","state_name":"Constanța County","country_id":181,"country_code":"RO","country_name":"Romania","latitude":"43.96667000","longitude":"28.08333000","wikiDataId":"Q1091607"},{"id":94673,"Name":"Ion Corvin","state_id":4737,"state_code":"CT","state_name":"Constanța County","country_id":181,"country_code":"RO","country_name":"Romania","latitude":"44.11667000","longitude":"27.80000000","wikiDataId":"Q1091887"},{"id":94692,"Name":"Istria","state_id":4737,"state_code":"CT","state_name":"Constanța County","country_id":181,"country_code":"RO","country_name":"Romania","latitude":"44.56667000","longitude":"28.71667000","wikiDataId":"Q1079468"},{"id":94798,"Name":"Limanu","state_id":4737,"state_code":"CT","state_name":"Constanța County","country_id":181,"country_code":"RO","country_name":"Romania","latitude":"43.80000000","longitude":"28.53333000","wikiDataId":"Q1079477"},{"id":94802,"Name":"Lipniţa","state_id":4737,"state_code":"CT","state_name":"Constanța County","country_id":181,"country_code":"RO","country_name":"Romania","latitude":"44.10000000","longitude":"27.60000000","wikiDataId":"Q1130294"},{"id":94849,"Name":"Lumina","state_id":4737,"state_code":"CT","state_name":"Constanța County","country_id":181,"country_code":"RO","country_name":"Romania","latitude":"44.28333000","longitude":"28.56667000","wikiDataId":"Q1159853"},{"id":94920,"Name":"Mamaia-Sat","state_id":4737,"state_code":"CT","state_name":"Constanța County","country_id":181,"country_code":"RO","country_name":"Romania","latitude":"44.31159000","longitude":"28.62546000","wikiDataId":"Q2606390"},{"id":94922,"Name":"Mangalia","state_id":4737,"state_code":"CT","state_name":"Constanța County","country_id":181,"country_code":"RO","country_name":"Romania","latitude":"43.80000000","longitude":"28.58333000","wikiDataId":"Q2718304"},{"id":94942,"Name":"Medgidia","state_id":4737,"state_code":"CT","state_name":"Constanța County","country_id":181,"country_code":"RO","country_name":"Romania","latitude":"44.25000000","longitude":"28.28333000","wikiDataId":"Q1084767"},{"id":94952,"Name":"Mereni","state_id":4737,"state_code":"CT","state_name":"Constanța County","country_id":181,"country_code":"RO","country_name":"Romania","latitude":"44.05000000","longitude":"28.36667000","wikiDataId":"Q1091903"},{"id":94978,"Name":"Mihai Viteazu","state_id":4737,"state_code":"CT","state_name":"Constanța County","country_id":181,"country_code":"RO","country_name":"Romania","latitude":"44.63333000","longitude":"28.68333000","wikiDataId":"Q1176862"},{"id":94984,"Name":"Mihail Kogălniceanu","state_id":4737,"state_code":"CT","state_name":"Constanța County","country_id":181,"country_code":"RO","country_name":"Romania","latitude":"44.36798000","longitude":"28.46000000","wikiDataId":"Q1077654"},{"id":95012,"Name":"Mircea Vodă","state_id":4737,"state_code":"CT","state_name":"Constanța County","country_id":181,"country_code":"RO","country_name":"Romania","latitude":"44.28333000","longitude":"28.16667000","wikiDataId":"Q1068870"},{"id":95094,"Name":"Moșneni","state_id":4737,"state_code":"CT","state_name":"Constanța County","country_id":181,"country_code":"RO","country_name":"Romania","latitude":"43.93487000","longitude":"28.53132000","wikiDataId":"Q1179659"},{"id":95127,"Name":"Municipiul Constanţa","state_id":4737,"state_code":"CT","state_name":"Constanța County","country_id":181,"country_code":"RO","country_name":"Romania","latitude":"44.21414000","longitude":"28.61862000","wikiDataId":"Q79808"},{"id":95152,"Name":"Municipiul Mangalia","state_id":4737,"state_code":"CT","state_name":"Constanța County","country_id":181,"country_code":"RO","country_name":"Romania","latitude":"43.85085000","longitude":"28.59780000","wikiDataId":"Q467498"},{"id":95154,"Name":"Municipiul Medgidia","state_id":4737,"state_code":"CT","state_name":"Constanța County","country_id":181,"country_code":"RO","country_name":"Romania","latitude":"44.22795000","longitude":"28.26801000","wikiDataId":"Q685857"},{"id":95204,"Name":"Murfatlar","state_id":4737,"state_code":"CT","state_name":"Constanța County","country_id":181,"country_code":"RO","country_name":"Romania","latitude":"44.18333000","longitude":"28.41667000","wikiDataId":"Q2297493"},{"id":95377,"Name":"Năvodari","state_id":4737,"state_code":"CT","state_name":"Constanța County","country_id":181,"country_code":"RO","country_name":"Romania","latitude":"44.31667000","longitude":"28.60000000","wikiDataId":"Q2721053"},{"id":95324,"Name":"Negru Vodă","state_id":4737,"state_code":"CT","state_name":"Constanța County","country_id":181,"country_code":"RO","country_name":"Romania","latitude":"43.81667000","longitude":"28.20000000","wikiDataId":"Q2539215"},{"id":95337,"Name":"Nicolae Bălcescu","state_id":4737,"state_code":"CT","state_name":"Constanța County","country_id":181,"country_code":"RO","country_name":"Romania","latitude":"44.38333000","longitude":"28.38333000","wikiDataId":"Q1092725"},{"id":95348,"Name":"Nisipari","state_id":4737,"state_code":"CT","state_name":"Constanța County","country_id":181,"country_code":"RO","country_name":"Romania","latitude":"44.25964000","longitude":"28.39840000","wikiDataId":"Q12134750"},{"id":95364,"Name":"Nuntași","state_id":4737,"state_code":"CT","state_name":"Constanța County","country_id":181,"country_code":"RO","country_name":"Romania","latitude":"44.53755000","longitude":"28.64880000","wikiDataId":"Q3623975"},{"id":95434,"Name":"Oltina","state_id":4737,"state_code":"CT","state_name":"Constanța County","country_id":181,"country_code":"RO","country_name":"Romania","latitude":"44.16667000","longitude":"27.66667000","wikiDataId":"Q1188214"},{"id":95488,"Name":"Oraş Bãneasa","state_id":4737,"state_code":"CT","state_name":"Constanța County","country_id":181,"country_code":"RO","country_name":"Romania","latitude":"44.05008000","longitude":"27.71430000","wikiDataId":"Q276042"},{"id":95490,"Name":"Oraş Cernavodã","state_id":4737,"state_code":"CT","state_name":"Constanța County","country_id":181,"country_code":"RO","country_name":"Romania","latitude":"44.34331000","longitude":"28.03694000","wikiDataId":"Q736276"},{"id":95514,"Name":"Oraş Eforie","state_id":4737,"state_code":"CT","state_name":"Constanța County","country_id":181,"country_code":"RO","country_name":"Romania","latitude":"44.04431000","longitude":"28.64529000","wikiDataId":"Q586387"},{"id":95532,"Name":"Oraş Hârşova","state_id":4737,"state_code":"CT","state_name":"Constanța County","country_id":181,"country_code":"RO","country_name":"Romania","latitude":"44.68721000","longitude":"27.94785000","wikiDataId":"Q748068"},{"id":95544,"Name":"Oraş Murfatlar","state_id":4737,"state_code":"CT","state_name":"Constanța County","country_id":181,"country_code":"RO","country_name":"Romania","latitude":"44.17090000","longitude":"28.38185000","wikiDataId":"Q593157"},{"id":95555,"Name":"Oraş Nãvodari","state_id":4737,"state_code":"CT","state_name":"Constanța County","country_id":181,"country_code":"RO","country_name":"Romania","latitude":"44.30511000","longitude":"28.61407000","wikiDataId":"Q837960"},{"id":95550,"Name":"Oraş Negru Vodã","state_id":4737,"state_code":"CT","state_name":"Constanța County","country_id":181,"country_code":"RO","country_name":"Romania","latitude":"43.79534000","longitude":"28.28041000","wikiDataId":"Q305001"},{"id":95562,"Name":"Oraş Ovidiu","state_id":4737,"state_code":"CT","state_name":"Constanța County","country_id":181,"country_code":"RO","country_name":"Romania","latitude":"44.23828000","longitude":"28.53210000","wikiDataId":"Q596043"},{"id":95601,"Name":"Oraş Techirghiol","state_id":4737,"state_code":"CT","state_name":"Constanța County","country_id":181,"country_code":"RO","country_name":"Romania","latitude":"44.05497000","longitude":"28.59539000","wikiDataId":"Q912224"},{"id":95676,"Name":"Ostrov","state_id":4737,"state_code":"CT","state_name":"Constanța County","country_id":181,"country_code":"RO","country_name":"Romania","latitude":"44.11667000","longitude":"27.36667000","wikiDataId":"Q1188593"},{"id":95686,"Name":"Ovidiu","state_id":4737,"state_code":"CT","state_name":"Constanța County","country_id":181,"country_code":"RO","country_name":"Romania","latitude":"44.25800000","longitude":"28.56083000","wikiDataId":"Q12135076"},{"id":95700,"Name":"Palazu Mare","state_id":4737,"state_code":"CT","state_name":"Constanța County","country_id":181,"country_code":"RO","country_name":"Romania","latitude":"44.22902000","longitude":"28.60114000","wikiDataId":"Q12137507"},{"id":95707,"Name":"Pantelimon","state_id":4737,"state_code":"CT","state_name":"Constanța County","country_id":181,"country_code":"RO","country_name":"Romania","latitude":"44.54589000","longitude":"28.33094000","wikiDataId":"Q1188177"},{"id":95708,"Name":"Pantelimon de Jos","state_id":4737,"state_code":"CT","state_name":"Constanța County","country_id":181,"country_code":"RO","country_name":"Romania","latitude":"44.56667000","longitude":"28.38333000","wikiDataId":"Q12138719"},{"id":95723,"Name":"Pecineaga","state_id":4737,"state_code":"CT","state_name":"Constanța County","country_id":181,"country_code":"RO","country_name":"Romania","latitude":"43.90000000","longitude":"28.50000000","wikiDataId":"Q1188252"},{"id":95759,"Name":"Peştera","state_id":4737,"state_code":"CT","state_name":"Constanța County","country_id":181,"country_code":"RO","country_name":"Romania","latitude":"44.18333000","longitude":"28.13333000","wikiDataId":"Q1188227"},{"id":95769,"Name":"Piatra","state_id":4737,"state_code":"CT","state_name":"Constanța County","country_id":181,"country_code":"RO","country_name":"Romania","latitude":"44.40492000","longitude":"28.56143000","wikiDataId":"Q425933"},{"id":95780,"Name":"Pietreni","state_id":4737,"state_code":"CT","state_name":"Constanța County","country_id":181,"country_code":"RO","country_name":"Romania","latitude":"44.09609000","longitude":"28.06833000","wikiDataId":"Q6273332"},{"id":95818,"Name":"Plopeni","state_id":4737,"state_code":"CT","state_name":"Constanța County","country_id":181,"country_code":"RO","country_name":"Romania","latitude":"43.95089000","longitude":"28.19452000","wikiDataId":"Q12140938"},{"id":95836,"Name":"Poarta Albă","state_id":4737,"state_code":"CT","state_name":"Constanța County","country_id":181,"country_code":"RO","country_name":"Romania","latitude":"44.21667000","longitude":"28.40000000","wikiDataId":"Q5052748"},{"id":96061,"Name":"Rasova","state_id":4737,"state_code":"CT","state_name":"Constanța County","country_id":181,"country_code":"RO","country_name":"Romania","latitude":"44.24616000","longitude":"27.93466000","wikiDataId":"Q1077665"},{"id":105993,"Name":"Săcele","state_id":4737,"state_code":"CT","state_name":"Constanța County","country_id":181,"country_code":"RO","country_name":"Romania","latitude":"44.48333000","longitude":"28.65000000","wikiDataId":"Q611726"},{"id":96235,"Name":"Saligny","state_id":4737,"state_code":"CT","state_name":"Constanța County","country_id":181,"country_code":"RO","country_name":"Romania","latitude":"44.28111000","longitude":"28.09092000","wikiDataId":"Q1091949"},{"id":96243,"Name":"Saraiu","state_id":4737,"state_code":"CT","state_name":"Constanța County","country_id":181,"country_code":"RO","country_name":"Romania","latitude":"44.71667000","longitude":"28.15000000","wikiDataId":"Q1188247"},{"id":96260,"Name":"Satu Nou","state_id":4737,"state_code":"CT","state_name":"Constanța County","country_id":181,"country_code":"RO","country_name":"Romania","latitude":"44.26918000","longitude":"28.22579000","wikiDataId":"Q12150761"},{"id":96271,"Name":"Schitu","state_id":4737,"state_code":"CT","state_name":"Constanța County","country_id":181,"country_code":"RO","country_name":"Romania","latitude":"43.94279000","longitude":"28.62829000","wikiDataId":"Q12153509"},{"id":96322,"Name":"Seimeni","state_id":4737,"state_code":"CT","state_name":"Constanța County","country_id":181,"country_code":"RO","country_name":"Romania","latitude":"44.38333000","longitude":"28.06667000","wikiDataId":"Q1091890"},{"id":96341,"Name":"Siliştea","state_id":4737,"state_code":"CT","state_name":"Constanța County","country_id":181,"country_code":"RO","country_name":"Romania","latitude":"44.40000000","longitude":"28.16667000","wikiDataId":"Q1091917"},{"id":96348,"Name":"Siminoc","state_id":4737,"state_code":"CT","state_name":"Constanța County","country_id":181,"country_code":"RO","country_name":"Romania","latitude":"44.16866000","longitude":"28.35277000","wikiDataId":"Q12159438"},{"id":96590,"Name":"Târguşor","state_id":4737,"state_code":"CT","state_name":"Constanța County","country_id":181,"country_code":"RO","country_name":"Romania","latitude":"44.45000000","longitude":"28.41667000","wikiDataId":"Q1188294"},{"id":106061,"Name":"Tariverde","state_id":4737,"state_code":"CT","state_name":"Constanța County","country_id":181,"country_code":"RO","country_name":"Romania","latitude":"44.56268000","longitude":"28.60245000","wikiDataId":"Q12160115"},{"id":106068,"Name":"Techirghiol","state_id":4737,"state_code":"CT","state_name":"Constanța County","country_id":181,"country_code":"RO","country_name":"Romania","latitude":"44.05000000","longitude":"28.60000000","wikiDataId":"Q2416957"},{"id":106127,"Name":"Topalu","state_id":4737,"state_code":"CT","state_name":"Constanța County","country_id":181,"country_code":"RO","country_name":"Romania","latitude":"44.54381000","longitude":"28.04575000","wikiDataId":"Q1077657"},{"id":106139,"Name":"Topraisar","state_id":4737,"state_code":"CT","state_name":"Constanța County","country_id":181,"country_code":"RO","country_name":"Romania","latitude":"44.01667000","longitude":"28.45000000","wikiDataId":"Q15938827"},{"id":106141,"Name":"Tortoman","state_id":4737,"state_code":"CT","state_name":"Constanța County","country_id":181,"country_code":"RO","country_name":"Romania","latitude":"44.35000000","longitude":"28.21667000","wikiDataId":"Q1188563"},{"id":96573,"Name":"Tuzla","state_id":4737,"state_code":"CT","state_name":"Constanța County","country_id":181,"country_code":"RO","country_name":"Romania","latitude":"44.00000000","longitude":"28.63333000","wikiDataId":"Q1065953"},{"id":96721,"Name":"Valea Dacilor","state_id":4737,"state_code":"CT","state_name":"Constanța County","country_id":181,"country_code":"RO","country_name":"Romania","latitude":"44.19495000","longitude":"28.31776000","wikiDataId":"Q12087445"},{"id":96769,"Name":"Valu lui Traian","state_id":4737,"state_code":"CT","state_name":"Constanța County","country_id":181,"country_code":"RO","country_name":"Romania","latitude":"44.16667000","longitude":"28.46667000","wikiDataId":"Q931160"},{"id":96815,"Name":"Viile","state_id":4737,"state_code":"CT","state_name":"Constanța County","country_id":181,"country_code":"RO","country_name":"Romania","latitude":"44.16200000","longitude":"27.75769000","wikiDataId":"Q12093622"},{"id":96828,"Name":"Viișoara","state_id":4737,"state_code":"CT","state_name":"Constanța County","country_id":181,"country_code":"RO","country_name":"Romania","latitude":"44.07758000","longitude":"28.19424000","wikiDataId":"Q12093635"},{"id":96913,"Name":"Vulturu","state_id":4737,"state_code":"CT","state_name":"Constanța County","country_id":181,"country_code":"RO","country_name":"Romania","latitude":"44.65000000","longitude":"28.26667000","wikiDataId":"Q589501"}]