[{"id":57619,"Name":"Akaltara","state_id":4040,"state_code":"CT","state_name":"Chhattisgarh","country_id":101,"country_code":"IN","country_name":"India","latitude":"22.02463000","longitude":"82.42641000","wikiDataId":"Q582949"},{"id":57672,"Name":"Ambagarh Chauki","state_id":4040,"state_code":"CT","state_name":"Chhattisgarh","country_id":101,"country_code":"IN","country_name":"India","latitude":"20.77644000","longitude":"80.74608000","wikiDataId":"Q590056"},{"id":57670,"Name":"Ambikapur","state_id":4040,"state_code":"CT","state_name":"Chhattisgarh","country_id":101,"country_code":"IN","country_name":"India","latitude":"23.11892000","longitude":"83.19537000","wikiDataId":"Q2088480"},{"id":57728,"Name":"Arang","state_id":4040,"state_code":"CT","state_name":"Chhattisgarh","country_id":101,"country_code":"IN","country_name":"India","latitude":"21.19639000","longitude":"81.96912000","wikiDataId":"Q589854"},{"id":57812,"Name":"Baikunthpur","state_id":4040,"state_code":"CT","state_name":"Chhattisgarh","country_id":101,"country_code":"IN","country_name":"India","latitude":"23.26206000","longitude":"82.56051000","wikiDataId":"Q623920"},{"id":57830,"Name":"Balod","state_id":4040,"state_code":"CT","state_name":"Chhattisgarh","country_id":101,"country_code":"IN","country_name":"India","latitude":"20.73081000","longitude":"81.20578000","wikiDataId":"Q921009"},{"id":57831,"Name":"Baloda","state_id":4040,"state_code":"CT","state_name":"Chhattisgarh","country_id":101,"country_code":"IN","country_name":"India","latitude":"22.13890000","longitude":"82.48171000","wikiDataId":"Q622838"},{"id":57832,"Name":"Baloda Bazar","state_id":4040,"state_code":"CT","state_name":"Chhattisgarh","country_id":101,"country_code":"IN","country_name":"India","latitude":"21.65678000","longitude":"82.16062000","wikiDataId":"Q625680"},{"id":57898,"Name":"Basna","state_id":4040,"state_code":"CT","state_name":"Chhattisgarh","country_id":101,"country_code":"IN","country_name":"India","latitude":"21.27885000","longitude":"82.82670000","wikiDataId":"Q708834"},{"id":57900,"Name":"Bastar","state_id":4040,"state_code":"CT","state_name":"Chhattisgarh","country_id":101,"country_code":"IN","country_name":"India","latitude":"19.26794000","longitude":"81.73828000","wikiDataId":"Q100152"},{"id":57931,"Name":"Bemetara","state_id":4040,"state_code":"CT","state_name":"Chhattisgarh","country_id":101,"country_code":"IN","country_name":"India","latitude":"21.71556000","longitude":"81.53423000","wikiDataId":"Q4885104"},{"id":58013,"Name":"Bhanpuri","state_id":4040,"state_code":"CT","state_name":"Chhattisgarh","country_id":101,"country_code":"IN","country_name":"India","latitude":"21.09190000","longitude":"80.93218000","wikiDataId":"Q720123"},{"id":58015,"Name":"Bhatapara","state_id":4040,"state_code":"CT","state_name":"Chhattisgarh","country_id":101,"country_code":"IN","country_name":"India","latitude":"21.73500000","longitude":"81.94711000","wikiDataId":"Q757847"},{"id":57969,"Name":"Bhatgaon","state_id":4040,"state_code":"CT","state_name":"Chhattisgarh","country_id":101,"country_code":"IN","country_name":"India","latitude":"21.15000000","longitude":"81.70000000","wikiDataId":"Q13403597"},{"id":57981,"Name":"Bhilai","state_id":4040,"state_code":"CT","state_name":"Chhattisgarh","country_id":101,"country_code":"IN","country_name":"India","latitude":"21.20919000","longitude":"81.42850000","wikiDataId":"Q242144"},{"id":58032,"Name":"Bijapur","state_id":4040,"state_code":"CT","state_name":"Chhattisgarh","country_id":101,"country_code":"IN","country_name":"India","latitude":"18.84322000","longitude":"80.77610000","wikiDataId":"Q100164"},{"id":58055,"Name":"Bilaspur","state_id":4040,"state_code":"CT","state_name":"Chhattisgarh","country_id":101,"country_code":"IN","country_name":"India","latitude":"22.38333000","longitude":"82.13333000","wikiDataId":"Q100157"},{"id":131593,"Name":"Champa","state_id":4040,"state_code":"CT","state_name":"Chhattisgarh","country_id":101,"country_code":"IN","country_name":"India","latitude":"22.03532000","longitude":"82.64234000","wikiDataId":"Q3666066"},{"id":131538,"Name":"Chhuikhadan","state_id":4040,"state_code":"CT","state_name":"Chhattisgarh","country_id":101,"country_code":"IN","country_name":"India","latitude":"21.52316000","longitude":"80.99788000","wikiDataId":"Q1105863"},{"id":131690,"Name":"Deori","state_id":4040,"state_code":"CT","state_name":"Chhattisgarh","country_id":101,"country_code":"IN","country_name":"India","latitude":"21.45000000","longitude":"82.61667000","wikiDataId":"Q1190738"},{"id":131712,"Name":"Dhamtari","state_id":4040,"state_code":"CT","state_name":"Chhattisgarh","country_id":101,"country_code":"IN","country_name":"India","latitude":"20.70718000","longitude":"81.54874000","wikiDataId":"Q1264075"},{"id":131787,"Name":"Dongargaon","state_id":4040,"state_code":"CT","state_name":"Chhattisgarh","country_id":101,"country_code":"IN","country_name":"India","latitude":"20.97172000","longitude":"80.85077000","wikiDataId":"Q1387439"},{"id":131788,"Name":"Dongargarh","state_id":4040,"state_code":"CT","state_name":"Chhattisgarh","country_id":101,"country_code":"IN","country_name":"India","latitude":"21.18893000","longitude":"80.75459000","wikiDataId":"Q1387087"},{"id":131801,"Name":"Durg","state_id":4040,"state_code":"CT","state_name":"Chhattisgarh","country_id":101,"country_code":"IN","country_name":"India","latitude":"21.15000000","longitude":"81.40000000","wikiDataId":"Q100182"},{"id":131897,"Name":"Gandai","state_id":4040,"state_code":"CT","state_name":"Chhattisgarh","country_id":101,"country_code":"IN","country_name":"India","latitude":"21.66667000","longitude":"81.10013000","wikiDataId":"Q1656707"},{"id":131926,"Name":"Gariaband","state_id":4040,"state_code":"CT","state_name":"Chhattisgarh","country_id":101,"country_code":"IN","country_name":"India","latitude":"20.63323000","longitude":"82.06221000","wikiDataId":"Q536870"},{"id":131927,"Name":"Gaurela","state_id":4040,"state_code":"CT","state_name":"Chhattisgarh","country_id":101,"country_code":"IN","country_name":"India","latitude":"22.75449000","longitude":"81.90107000","wikiDataId":"Q536870"},{"id":131938,"Name":"Gharghoda","state_id":4040,"state_code":"CT","state_name":"Chhattisgarh","country_id":101,"country_code":"IN","country_name":"India","latitude":"22.17427000","longitude":"83.35170000","wikiDataId":"Q1706460"},{"id":132048,"Name":"Gidam","state_id":4040,"state_code":"CT","state_name":"Chhattisgarh","country_id":101,"country_code":"IN","country_name":"India","latitude":"18.97431000","longitude":"81.39894000","wikiDataId":"Q41543"},{"id":132186,"Name":"Jagdalpur","state_id":4040,"state_code":"CT","state_name":"Chhattisgarh","country_id":101,"country_code":"IN","country_name":"India","latitude":"19.08136000","longitude":"82.02131000","wikiDataId":"Q1006363"},{"id":132312,"Name":"Janjgir","state_id":4040,"state_code":"CT","state_name":"Chhattisgarh","country_id":101,"country_code":"IN","country_name":"India","latitude":"22.00922000","longitude":"82.57780000","wikiDataId":"Q3634114"},{"id":132240,"Name":"Janjgir-Champa","state_id":4040,"state_code":"CT","state_name":"Chhattisgarh","country_id":101,"country_code":"IN","country_name":"India","latitude":"21.90000000","longitude":"82.70000000","wikiDataId":"Q2575633"},{"id":132244,"Name":"Jashpur","state_id":4040,"state_code":"CT","state_name":"Chhattisgarh","country_id":101,"country_code":"IN","country_name":"India","latitude":"22.78495000","longitude":"83.84573000","wikiDataId":"Q2577551"},{"id":132245,"Name":"Jashpurnagar","state_id":4040,"state_code":"CT","state_name":"Chhattisgarh","country_id":101,"country_code":"IN","country_name":"India","latitude":"22.88783000","longitude":"84.13864000","wikiDataId":"Q2577551"},{"id":132318,"Name":"Junagarh","state_id":4040,"state_code":"CT","state_name":"Chhattisgarh","country_id":101,"country_code":"IN","country_name":"India","latitude":"19.85993000","longitude":"82.93385000","wikiDataId":"Q1937526"},{"id":132319,"Name":"Kabeerdham","state_id":4040,"state_code":"CT","state_name":"Chhattisgarh","country_id":101,"country_code":"IN","country_name":"India","latitude":"22.10000000","longitude":"81.20000000","wikiDataId":"Q2450255"},{"id":132704,"Name":"Kanker","state_id":4040,"state_code":"CT","state_name":"Chhattisgarh","country_id":101,"country_code":"IN","country_name":"India","latitude":"20.27193000","longitude":"81.49177000","wikiDataId":"Q609848"},{"id":132421,"Name":"Katghora","state_id":4040,"state_code":"CT","state_name":"Chhattisgarh","country_id":101,"country_code":"IN","country_name":"India","latitude":"22.50247000","longitude":"82.54279000","wikiDataId":"Q2317239"},{"id":132433,"Name":"Kawardha","state_id":4040,"state_code":"CT","state_name":"Chhattisgarh","country_id":101,"country_code":"IN","country_name":"India","latitude":"22.00853000","longitude":"81.23148000","wikiDataId":"Q1929610"},{"id":132456,"Name":"Khairagarh","state_id":4040,"state_code":"CT","state_name":"Chhattisgarh","country_id":101,"country_code":"IN","country_name":"India","latitude":"21.41859000","longitude":"80.97942000","wikiDataId":"Q3195939"},{"id":132463,"Name":"Khamharia","state_id":4040,"state_code":"CT","state_name":"Chhattisgarh","country_id":101,"country_code":"IN","country_name":"India","latitude":"20.97600000","longitude":"82.25116000","wikiDataId":"Q1740527"},{"id":132480,"Name":"Kharod","state_id":4040,"state_code":"CT","state_name":"Chhattisgarh","country_id":101,"country_code":"IN","country_name":"India","latitude":"21.74420000","longitude":"82.57880000","wikiDataId":"Q2120445"},{"id":132481,"Name":"Kharsia","state_id":4040,"state_code":"CT","state_name":"Chhattisgarh","country_id":101,"country_code":"IN","country_name":"India","latitude":"21.98953000","longitude":"83.10476000","wikiDataId":"Q2317203"},{"id":132525,"Name":"Kirandul","state_id":4040,"state_code":"CT","state_name":"Chhattisgarh","country_id":101,"country_code":"IN","country_name":"India","latitude":"18.63649000","longitude":"81.25827000","wikiDataId":"Q2237173"},{"id":132565,"Name":"Kondagaon","state_id":4040,"state_code":"CT","state_name":"Chhattisgarh","country_id":101,"country_code":"IN","country_name":"India","latitude":"19.59083000","longitude":"81.66400000","wikiDataId":"Q2234676"},{"id":132581,"Name":"Korba","state_id":4040,"state_code":"CT","state_name":"Chhattisgarh","country_id":101,"country_code":"IN","country_name":"India","latitude":"22.50000000","longitude":"82.60000000","wikiDataId":"Q2299121"},{"id":132583,"Name":"Koriya","state_id":4040,"state_code":"CT","state_name":"Chhattisgarh","country_id":101,"country_code":"IN","country_name":"India","latitude":"23.48326000","longitude":"82.15037000","wikiDataId":"Q2299121"},{"id":132612,"Name":"Kota","state_id":4040,"state_code":"CT","state_name":"Chhattisgarh","country_id":101,"country_code":"IN","country_name":"India","latitude":"22.29507000","longitude":"82.02366000","wikiDataId":"Q2236924"},{"id":132596,"Name":"Kotaparh","state_id":4040,"state_code":"CT","state_name":"Chhattisgarh","country_id":101,"country_code":"IN","country_name":"India","latitude":"19.14256000","longitude":"82.32536000","wikiDataId":"Q279106"},{"id":132641,"Name":"Kumhari","state_id":4040,"state_code":"CT","state_name":"Chhattisgarh","country_id":101,"country_code":"IN","country_name":"India","latitude":"21.26667000","longitude":"81.51667000","wikiDataId":"Q2234421"},{"id":132661,"Name":"Kurud","state_id":4040,"state_code":"CT","state_name":"Chhattisgarh","country_id":101,"country_code":"IN","country_name":"India","latitude":"20.83073000","longitude":"81.72212000","wikiDataId":"Q591621"},{"id":132777,"Name":"Lormi","state_id":4040,"state_code":"CT","state_name":"Chhattisgarh","country_id":101,"country_code":"IN","country_name":"India","latitude":"22.27434000","longitude":"81.70181000","wikiDataId":"Q303819"},{"id":132827,"Name":"Mahasamund","state_id":4040,"state_code":"CT","state_name":"Chhattisgarh","country_id":101,"country_code":"IN","country_name":"India","latitude":"21.20000000","longitude":"82.50000000","wikiDataId":"Q2450240"},{"id":133031,"Name":"Mungeli","state_id":4040,"state_code":"CT","state_name":"Chhattisgarh","country_id":101,"country_code":"IN","country_name":"India","latitude":"22.06566000","longitude":"81.68543000","wikiDataId":"Q2452734"},{"id":133163,"Name":"Narayanpur","state_id":4040,"state_code":"CT","state_name":"Chhattisgarh","country_id":101,"country_code":"IN","country_name":"India","latitude":"19.60426000","longitude":"81.08119000","wikiDataId":"Q2322000"},{"id":133168,"Name":"Narharpur","state_id":4040,"state_code":"CT","state_name":"Chhattisgarh","country_id":101,"country_code":"IN","country_name":"India","latitude":"20.44892000","longitude":"81.62004000","wikiDataId":"Q15261015"},{"id":133346,"Name":"Pandaria","state_id":4040,"state_code":"CT","state_name":"Chhattisgarh","country_id":101,"country_code":"IN","country_name":"India","latitude":"22.22495000","longitude":"81.40994000","wikiDataId":"Q520157"},{"id":133540,"Name":"Pandatarai","state_id":4040,"state_code":"CT","state_name":"Chhattisgarh","country_id":101,"country_code":"IN","country_name":"India","latitude":"22.18714000","longitude":"81.32815000","wikiDataId":"Q7130519"},{"id":133375,"Name":"Pasan","state_id":4040,"state_code":"CT","state_name":"Chhattisgarh","country_id":101,"country_code":"IN","country_name":"India","latitude":"22.84412000","longitude":"82.19823000","wikiDataId":"Q2720089"},{"id":133552,"Name":"Patan","state_id":4040,"state_code":"CT","state_name":"Chhattisgarh","country_id":101,"country_code":"IN","country_name":"India","latitude":"21.03333000","longitude":"81.53333000","wikiDataId":"Q3786789"},{"id":133379,"Name":"Pathalgaon","state_id":4040,"state_code":"CT","state_name":"Chhattisgarh","country_id":101,"country_code":"IN","country_name":"India","latitude":"22.55656000","longitude":"83.46355000","wikiDataId":"Q2558945"},{"id":133405,"Name":"Pendra","state_id":4040,"state_code":"CT","state_name":"Chhattisgarh","country_id":101,"country_code":"IN","country_name":"India","latitude":"22.77548000","longitude":"81.95968000","wikiDataId":"Q2558897"},{"id":133463,"Name":"Pithora","state_id":4040,"state_code":"CT","state_name":"Chhattisgarh","country_id":101,"country_code":"IN","country_name":"India","latitude":"21.25021000","longitude":"82.51707000","wikiDataId":"Q745401"},{"id":133587,"Name":"Raigarh","state_id":4040,"state_code":"CT","state_name":"Chhattisgarh","country_id":101,"country_code":"IN","country_name":"India","latitude":"22.08582000","longitude":"83.30603000","wikiDataId":"Q2286310"},{"id":133590,"Name":"Raipur","state_id":4040,"state_code":"CT","state_name":"Chhattisgarh","country_id":101,"country_code":"IN","country_name":"India","latitude":"21.25621000","longitude":"81.69022000","wikiDataId":"Q2295914"},{"id":133668,"Name":"Raj Nandgaon","state_id":4040,"state_code":"CT","state_name":"Chhattisgarh","country_id":101,"country_code":"IN","country_name":"India","latitude":"21.16667000","longitude":"81.00000000","wikiDataId":"Q2551329"},{"id":133669,"Name":"Raj-Nandgaon","state_id":4040,"state_code":"CT","state_name":"Chhattisgarh","country_id":101,"country_code":"IN","country_name":"India","latitude":"21.09687000","longitude":"81.02890000","wikiDataId":"Q2551329"},{"id":133711,"Name":"Ramanuj Ganj","state_id":4040,"state_code":"CT","state_name":"Chhattisgarh","country_id":101,"country_code":"IN","country_name":"India","latitude":"23.80637000","longitude":"83.69981000","wikiDataId":"Q2545077"},{"id":133616,"Name":"Ratanpur","state_id":4040,"state_code":"CT","state_name":"Chhattisgarh","country_id":101,"country_code":"IN","country_name":"India","latitude":"22.28660000","longitude":"82.16823000","wikiDataId":"Q720204"},{"id":133761,"Name":"Sakti","state_id":4040,"state_code":"CT","state_name":"Chhattisgarh","country_id":101,"country_code":"IN","country_name":"India","latitude":"22.02662000","longitude":"82.96091000","wikiDataId":"Q2734644"},{"id":133801,"Name":"Saraipali","state_id":4040,"state_code":"CT","state_name":"Chhattisgarh","country_id":101,"country_code":"IN","country_name":"India","latitude":"21.31530000","longitude":"83.00629000","wikiDataId":"Q2559019"},{"id":134077,"Name":"Sarangarh","state_id":4040,"state_code":"CT","state_name":"Chhattisgarh","country_id":101,"country_code":"IN","country_name":"India","latitude":"21.58614000","longitude":"83.07850000","wikiDataId":"Q2317301"},{"id":133845,"Name":"Seorinarayan","state_id":4040,"state_code":"CT","state_name":"Chhattisgarh","country_id":101,"country_code":"IN","country_name":"India","latitude":"21.72055000","longitude":"82.59344000","wikiDataId":"Q2545959"},{"id":133940,"Name":"Simga","state_id":4040,"state_code":"CT","state_name":"Chhattisgarh","country_id":101,"country_code":"IN","country_name":"India","latitude":"21.62810000","longitude":"81.70376000","wikiDataId":"Q2734480"},{"id":134051,"Name":"Surguja","state_id":4040,"state_code":"CT","state_name":"Chhattisgarh","country_id":101,"country_code":"IN","country_name":"India","latitude":"22.89624000","longitude":"83.09631000","wikiDataId":"Q1805075"},{"id":134099,"Name":"Takhatpur","state_id":4040,"state_code":"CT","state_name":"Chhattisgarh","country_id":101,"country_code":"IN","country_name":"India","latitude":"22.12915000","longitude":"81.86959000","wikiDataId":"Q2734491"},{"id":134273,"Name":"Umarkot","state_id":4040,"state_code":"CT","state_name":"Chhattisgarh","country_id":101,"country_code":"IN","country_name":"India","latitude":"19.66529000","longitude":"82.20629000","wikiDataId":"Q2718792"},{"id":134299,"Name":"Uttar Bastar Kanker","state_id":4040,"state_code":"CT","state_name":"Chhattisgarh","country_id":101,"country_code":"IN","country_name":"India","latitude":"20.20000000","longitude":"81.10000000","wikiDataId":"Q2231121"}]