[{"id":39237,"Name":"Abilly","state_id":4818,"state_code":"CVL","state_name":"Centre-Val de Loire","country_id":75,"country_code":"FR","country_name":"France","latitude":"46.93333000","longitude":"0.73333000","wikiDataId":"Q1069923"},{"id":39244,"Name":"Abondant","state_id":4818,"state_code":"CVL","state_name":"Centre-Val de Loire","country_id":75,"country_code":"FR","country_name":"France","latitude":"48.78590000","longitude":"1.44006000","wikiDataId":"Q322435"},{"id":39279,"Name":"Aigurande","state_id":4818,"state_code":"CVL","state_name":"Centre-Val de Loire","country_id":75,"country_code":"FR","country_name":"France","latitude":"46.43397000","longitude":"1.83026000","wikiDataId":"Q211643"},{"id":39351,"Name":"Ambillou","state_id":4818,"state_code":"CVL","state_name":"Centre-Val de Loire","country_id":75,"country_code":"FR","country_name":"France","latitude":"47.45100000","longitude":"0.44730000","wikiDataId":"Q213317"},{"id":39355,"Name":"Amboise","state_id":4818,"state_code":"CVL","state_name":"Centre-Val de Loire","country_id":75,"country_code":"FR","country_name":"France","latitude":"47.41249000","longitude":"0.98266000","wikiDataId":"Q205116"},{"id":39365,"Name":"Amilly","state_id":4818,"state_code":"CVL","state_name":"Centre-Val de Loire","country_id":75,"country_code":"FR","country_name":"France","latitude":"47.97281000","longitude":"2.77186000","wikiDataId":"Q34797235"},{"id":39394,"Name":"Anet","state_id":4818,"state_code":"CVL","state_name":"Centre-Val de Loire","country_id":75,"country_code":"FR","country_name":"France","latitude":"48.85642000","longitude":"1.43981000","wikiDataId":"Q240921"},{"id":39467,"Name":"Ardentes","state_id":4818,"state_code":"CVL","state_name":"Centre-Val de Loire","country_id":75,"country_code":"FR","country_name":"France","latitude":"46.74191000","longitude":"1.83428000","wikiDataId":"Q1011529"},{"id":39478,"Name":"Argent-sur-Sauldre","state_id":4818,"state_code":"CVL","state_name":"Centre-Val de Loire","country_id":75,"country_code":"FR","country_name":"France","latitude":"47.55847000","longitude":"2.44410000","wikiDataId":"Q644665"},{"id":39483,"Name":"Argenton-sur-Creuse","state_id":4818,"state_code":"CVL","state_name":"Centre-Val de Loire","country_id":75,"country_code":"FR","country_name":"France","latitude":"46.58997000","longitude":"1.51981000","wikiDataId":"Q275438"},{"id":39492,"Name":"Armenonville-les-Gâtineaux","state_id":4818,"state_code":"CVL","state_name":"Centre-Val de Loire","country_id":75,"country_code":"FR","country_name":"France","latitude":"48.54365000","longitude":"1.64750000","wikiDataId":"Q61573"},{"id":39512,"Name":"Arrou","state_id":4818,"state_code":"CVL","state_name":"Centre-Val de Loire","country_id":75,"country_code":"FR","country_name":"France","latitude":"48.09768000","longitude":"1.12851000","wikiDataId":"Q624270"},{"id":39518,"Name":"Artannes-sur-Indre","state_id":4818,"state_code":"CVL","state_name":"Centre-Val de Loire","country_id":75,"country_code":"FR","country_name":"France","latitude":"47.27451000","longitude":"0.60036000","wikiDataId":"Q1138725"},{"id":39521,"Name":"Artenay","state_id":4818,"state_code":"CVL","state_name":"Centre-Val de Loire","country_id":75,"country_code":"FR","country_name":"France","latitude":"48.08246000","longitude":"1.88098000","wikiDataId":"Q706912"},{"id":39524,"Name":"Arthon","state_id":4818,"state_code":"CVL","state_name":"Centre-Val de Loire","country_id":75,"country_code":"FR","country_name":"France","latitude":"46.69361000","longitude":"1.69857000","wikiDataId":"Q1071892"},{"id":39541,"Name":"Aschères-le-Marché","state_id":4818,"state_code":"CVL","state_name":"Centre-Val de Loire","country_id":75,"country_code":"FR","country_name":"France","latitude":"48.11008000","longitude":"2.00725000","wikiDataId":"Q1168009"},{"id":39559,"Name":"Athée-sur-Cher","state_id":4818,"state_code":"CVL","state_name":"Centre-Val de Loire","country_id":75,"country_code":"FR","country_name":"France","latitude":"47.32023000","longitude":"0.91659000","wikiDataId":"Q244289"},{"id":39582,"Name":"Aubigny-sur-Nère","state_id":4818,"state_code":"CVL","state_name":"Centre-Val de Loire","country_id":75,"country_code":"FR","country_name":"France","latitude":"47.48819000","longitude":"2.43895000","wikiDataId":"Q658812"},{"id":39618,"Name":"Aunay-sous-Auneau","state_id":4818,"state_code":"CVL","state_name":"Centre-Val de Loire","country_id":75,"country_code":"FR","country_name":"France","latitude":"48.44140000","longitude":"1.81094000","wikiDataId":"Q43411"},{"id":39620,"Name":"Auneau","state_id":4818,"state_code":"CVL","state_name":"Centre-Val de Loire","country_id":75,"country_code":"FR","country_name":"France","latitude":"48.46361000","longitude":"1.77263000","wikiDataId":"Q637489"},{"id":39636,"Name":"Authon-du-Perche","state_id":4818,"state_code":"CVL","state_name":"Centre-Val de Loire","country_id":75,"country_code":"FR","country_name":"France","latitude":"48.19615000","longitude":"0.89189000","wikiDataId":"Q174234"},{"id":39638,"Name":"Autry-le-Châtel","state_id":4818,"state_code":"CVL","state_name":"Centre-Val de Loire","country_id":75,"country_code":"FR","country_name":"France","latitude":"47.59886000","longitude":"2.60200000","wikiDataId":"Q475938"},{"id":39654,"Name":"Auzouer-en-Touraine","state_id":4818,"state_code":"CVL","state_name":"Centre-Val de Loire","country_id":75,"country_code":"FR","country_name":"France","latitude":"47.54230000","longitude":"0.92067000","wikiDataId":"Q20161"},{"id":39675,"Name":"Avoine","state_id":4818,"state_code":"CVL","state_name":"Centre-Val de Loire","country_id":75,"country_code":"FR","country_name":"France","latitude":"47.20533000","longitude":"0.18253000","wikiDataId":"Q791195"},{"id":39677,"Name":"Avord","state_id":4818,"state_code":"CVL","state_name":"Centre-Val de Loire","country_id":75,"country_code":"FR","country_name":"France","latitude":"47.03514000","longitude":"2.65295000","wikiDataId":"Q791277"},{"id":39693,"Name":"Azay-le-Ferron","state_id":4818,"state_code":"CVL","state_name":"Centre-Val de Loire","country_id":75,"country_code":"FR","country_name":"France","latitude":"46.85097000","longitude":"1.07084000","wikiDataId":"Q72240"},{"id":39694,"Name":"Azay-le-Rideau","state_id":4818,"state_code":"CVL","state_name":"Centre-Val de Loire","country_id":75,"country_code":"FR","country_name":"France","latitude":"47.26405000","longitude":"0.47132000","wikiDataId":"Q72240"},{"id":39695,"Name":"Azay-sur-Cher","state_id":4818,"state_code":"CVL","state_name":"Centre-Val de Loire","country_id":75,"country_code":"FR","country_name":"France","latitude":"47.34966000","longitude":"0.84562000","wikiDataId":"Q72240"},{"id":39698,"Name":"Azé","state_id":4818,"state_code":"CVL","state_name":"Centre-Val de Loire","country_id":75,"country_code":"FR","country_name":"France","latitude":"47.85141000","longitude":"0.99829000","wikiDataId":"Q49345047"},{"id":39723,"Name":"Bailleau-l’Évêque","state_id":4818,"state_code":"CVL","state_name":"Centre-Val de Loire","country_id":75,"country_code":"FR","country_name":"France","latitude":"48.48960000","longitude":"1.39665000","wikiDataId":"Q1073102"},{"id":39722,"Name":"Bailleau-le-Pin","state_id":4818,"state_code":"CVL","state_name":"Centre-Val de Loire","country_id":75,"country_code":"FR","country_name":"France","latitude":"48.36698000","longitude":"1.32948000","wikiDataId":"Q1073102"},{"id":39752,"Name":"Ballan-Miré","state_id":4818,"state_code":"CVL","state_name":"Centre-Val de Loire","country_id":75,"country_code":"FR","country_name":"France","latitude":"47.34057000","longitude":"0.61466000","wikiDataId":"Q632428"},{"id":39786,"Name":"Barjouville","state_id":4818,"state_code":"CVL","state_name":"Centre-Val de Loire","country_id":75,"country_code":"FR","country_name":"France","latitude":"48.41002000","longitude":"1.47639000","wikiDataId":"Q658840"},{"id":39809,"Name":"Baugy","state_id":4818,"state_code":"CVL","state_name":"Centre-Val de Loire","country_id":75,"country_code":"FR","country_name":"France","latitude":"47.08181000","longitude":"2.72848000","wikiDataId":"Q1001582"},{"id":39811,"Name":"Baule","state_id":4818,"state_code":"CVL","state_name":"Centre-Val de Loire","country_id":75,"country_code":"FR","country_name":"France","latitude":"47.81084000","longitude":"1.67259000","wikiDataId":"Q26768"},{"id":39832,"Name":"Bazoches-les-Gallerandes","state_id":4818,"state_code":"CVL","state_name":"Centre-Val de Loire","country_id":75,"country_code":"FR","country_name":"France","latitude":"48.16540000","longitude":"2.04319000","wikiDataId":"Q83446"},{"id":39848,"Name":"Beaugency","state_id":4818,"state_code":"CVL","state_name":"Centre-Val de Loire","country_id":75,"country_code":"FR","country_name":"France","latitude":"47.78019000","longitude":"1.62705000","wikiDataId":"Q429910"},{"id":39851,"Name":"Beaulieu-lès-Loches","state_id":4818,"state_code":"CVL","state_name":"Centre-Val de Loire","country_id":75,"country_code":"FR","country_name":"France","latitude":"47.12526000","longitude":"1.01585000","wikiDataId":"Q1136125"},{"id":39867,"Name":"Beaumont-en-Véron","state_id":4818,"state_code":"CVL","state_name":"Centre-Val de Loire","country_id":75,"country_code":"FR","country_name":"France","latitude":"47.19397000","longitude":"0.18436000","wikiDataId":"Q177155"},{"id":39868,"Name":"Beaumont-la-Ronce","state_id":4818,"state_code":"CVL","state_name":"Centre-Val de Loire","country_id":75,"country_code":"FR","country_name":"France","latitude":"47.56948000","longitude":"0.67017000","wikiDataId":"Q177155"},{"id":39875,"Name":"Beaune-la-Rolande","state_id":4818,"state_code":"CVL","state_name":"Centre-Val de Loire","country_id":75,"country_code":"FR","country_name":"France","latitude":"48.07124000","longitude":"2.43140000","wikiDataId":"Q177155"},{"id":40422,"Name":"Bélâbre","state_id":4818,"state_code":"CVL","state_name":"Centre-Val de Loire","country_id":75,"country_code":"FR","country_name":"France","latitude":"46.55121000","longitude":"1.15791000","wikiDataId":"Q1011330"},{"id":39912,"Name":"Bellegarde","state_id":4818,"state_code":"CVL","state_name":"Centre-Val de Loire","country_id":75,"country_code":"FR","country_name":"France","latitude":"47.98333000","longitude":"2.43333000","wikiDataId":"Q214597"},{"id":39924,"Name":"Belleville-sur-Loire","state_id":4818,"state_code":"CVL","state_name":"Centre-Val de Loire","country_id":75,"country_code":"FR","country_name":"France","latitude":"47.50000000","longitude":"2.85000000","wikiDataId":"Q1139878"},{"id":40435,"Name":"Béville-le-Comte","state_id":4818,"state_code":"CVL","state_name":"Centre-Val de Loire","country_id":75,"country_code":"FR","country_name":"France","latitude":"48.43558000","longitude":"1.71305000","wikiDataId":"Q737451"},{"id":40053,"Name":"Blancafort","state_id":4818,"state_code":"CVL","state_name":"Centre-Val de Loire","country_id":75,"country_code":"FR","country_name":"France","latitude":"47.53219000","longitude":"2.52981000","wikiDataId":"Q247806"},{"id":40076,"Name":"Bléré","state_id":4818,"state_code":"CVL","state_name":"Centre-Val de Loire","country_id":75,"country_code":"FR","country_name":"France","latitude":"47.32738000","longitude":"0.99186000","wikiDataId":"Q263003"},{"id":40069,"Name":"Blois","state_id":4818,"state_code":"CVL","state_name":"Centre-Val de Loire","country_id":75,"country_code":"FR","country_name":"France","latitude":"47.59432000","longitude":"1.32912000","wikiDataId":"Q160927"},{"id":40083,"Name":"Boigny-sur-Bionne","state_id":4818,"state_code":"CVL","state_name":"Centre-Val de Loire","country_id":75,"country_code":"FR","country_name":"France","latitude":"47.93333000","longitude":"2.01667000","wikiDataId":"Q740299"},{"id":40091,"Name":"Boiscommun","state_id":4818,"state_code":"CVL","state_name":"Centre-Val de Loire","country_id":75,"country_code":"FR","country_name":"France","latitude":"48.03576000","longitude":"2.38333000","wikiDataId":"Q1021422"},{"id":40124,"Name":"Bonneval","state_id":4818,"state_code":"CVL","state_name":"Centre-Val de Loire","country_id":75,"country_code":"FR","country_name":"France","latitude":"48.18312000","longitude":"1.38524000","wikiDataId":"Q670957"},{"id":40129,"Name":"Bonny-sur-Loire","state_id":4818,"state_code":"CVL","state_name":"Centre-Val de Loire","country_id":75,"country_code":"FR","country_name":"France","latitude":"47.56172000","longitude":"2.83933000","wikiDataId":"Q1166799"},{"id":40170,"Name":"Boulleret","state_id":4818,"state_code":"CVL","state_name":"Centre-Val de Loire","country_id":75,"country_code":"FR","country_name":"France","latitude":"47.42419000","longitude":"2.87343000","wikiDataId":"Q254934"},{"id":40199,"Name":"Bourges","state_id":4818,"state_code":"CVL","state_name":"Centre-Val de Loire","country_id":75,"country_code":"FR","country_name":"France","latitude":"47.08333000","longitude":"2.40000000","wikiDataId":"Q132404"},{"id":40206,"Name":"Bourgueil","state_id":4818,"state_code":"CVL","state_name":"Centre-Val de Loire","country_id":75,"country_code":"FR","country_name":"France","latitude":"47.28333000","longitude":"0.16612000","wikiDataId":"Q504875"},{"id":40237,"Name":"Bouzy-la-Forêt","state_id":4818,"state_code":"CVL","state_name":"Centre-Val de Loire","country_id":75,"country_code":"FR","country_name":"France","latitude":"47.85120000","longitude":"2.37773000","wikiDataId":"Q1030362"},{"id":40241,"Name":"Boynes","state_id":4818,"state_code":"CVL","state_name":"Centre-Val de Loire","country_id":75,"country_code":"FR","country_name":"France","latitude":"48.11822000","longitude":"2.36006000","wikiDataId":"Q1030362"},{"id":40247,"Name":"Bracieux","state_id":4818,"state_code":"CVL","state_name":"Centre-Val de Loire","country_id":75,"country_code":"FR","country_name":"France","latitude":"47.54895000","longitude":"1.54120000","wikiDataId":"Q1135654"},{"id":40267,"Name":"Bray-en-Val","state_id":4818,"state_code":"CVL","state_name":"Centre-Val de Loire","country_id":75,"country_code":"FR","country_name":"France","latitude":"47.82856000","longitude":"2.36644000","wikiDataId":"Q391365"},{"id":40299,"Name":"Brezolles","state_id":4818,"state_code":"CVL","state_name":"Centre-Val de Loire","country_id":75,"country_code":"FR","country_name":"France","latitude":"48.69033000","longitude":"1.07404000","wikiDataId":"Q1011314"},{"id":40301,"Name":"Briare","state_id":4818,"state_code":"CVL","state_name":"Centre-Val de Loire","country_id":75,"country_code":"FR","country_name":"France","latitude":"47.63343000","longitude":"2.74380000","wikiDataId":"Q818443"},{"id":40304,"Name":"Bricy","state_id":4818,"state_code":"CVL","state_name":"Centre-Val de Loire","country_id":75,"country_code":"FR","country_name":"France","latitude":"47.99847000","longitude":"1.77937000","wikiDataId":"Q473942"},{"id":40317,"Name":"Brinon-sur-Sauldre","state_id":4818,"state_code":"CVL","state_name":"Centre-Val de Loire","country_id":75,"country_code":"FR","country_name":"France","latitude":"47.56600000","longitude":"2.25647000","wikiDataId":"Q1139908"},{"id":40334,"Name":"Brou","state_id":4818,"state_code":"CVL","state_name":"Centre-Val de Loire","country_id":75,"country_code":"FR","country_name":"France","latitude":"48.21719000","longitude":"1.16539000","wikiDataId":"Q214396"},{"id":40438,"Name":"Bû","state_id":4818,"state_code":"CVL","state_name":"Centre-Val de Loire","country_id":75,"country_code":"FR","country_name":"France","latitude":"48.79705000","longitude":"1.49702000","wikiDataId":"Q626918"},{"id":40406,"Name":"Buzançais","state_id":4818,"state_code":"CVL","state_name":"Centre-Val de Loire","country_id":75,"country_code":"FR","country_name":"France","latitude":"46.88877000","longitude":"1.41950000","wikiDataId":"Q454445"},{"id":40508,"Name":"Candé-sur-Beuvron","state_id":4818,"state_code":"CVL","state_name":"Centre-Val de Loire","country_id":75,"country_code":"FR","country_name":"France","latitude":"47.49499000","longitude":"1.25937000","wikiDataId":"Q1070597"},{"id":40511,"Name":"Cangey","state_id":4818,"state_code":"CVL","state_name":"Centre-Val de Loire","country_id":75,"country_code":"FR","country_name":"France","latitude":"47.46718000","longitude":"1.06051000","wikiDataId":"Q1070597"},{"id":40635,"Name":"Cellettes","state_id":4818,"state_code":"CVL","state_name":"Centre-Val de Loire","country_id":75,"country_code":"FR","country_name":"France","latitude":"47.52758000","longitude":"1.38102000","wikiDataId":"Q1047781"},{"id":40640,"Name":"Cepoy","state_id":4818,"state_code":"CVL","state_name":"Centre-Val de Loire","country_id":75,"country_code":"FR","country_name":"France","latitude":"48.04795000","longitude":"2.73782000","wikiDataId":"Q1406192"},{"id":40643,"Name":"Cerdon","state_id":4818,"state_code":"CVL","state_name":"Centre-Val de Loire","country_id":75,"country_code":"FR","country_name":"France","latitude":"47.63571000","longitude":"2.36277000","wikiDataId":"Q377533"},{"id":40644,"Name":"Cerelles","state_id":4818,"state_code":"CVL","state_name":"Centre-Val de Loire","country_id":75,"country_code":"FR","country_name":"France","latitude":"47.50168000","longitude":"0.68333000","wikiDataId":"Q1138774"},{"id":40672,"Name":"Chabris","state_id":4818,"state_code":"CVL","state_name":"Centre-Val de Loire","country_id":75,"country_code":"FR","country_name":"France","latitude":"47.25343000","longitude":"1.65181000","wikiDataId":"Q1080911"},{"id":40676,"Name":"Chaillac","state_id":4818,"state_code":"CVL","state_name":"Centre-Val de Loire","country_id":75,"country_code":"FR","country_name":"France","latitude":"46.43382000","longitude":"1.29889000","wikiDataId":"Q34791282"},{"id":40678,"Name":"Chailles","state_id":4818,"state_code":"CVL","state_name":"Centre-Val de Loire","country_id":75,"country_code":"FR","country_name":"France","latitude":"47.54160000","longitude":"1.31220000","wikiDataId":"Q582924"},{"id":40683,"Name":"Chaingy","state_id":4818,"state_code":"CVL","state_name":"Centre-Val de Loire","country_id":75,"country_code":"FR","country_name":"France","latitude":"47.88326000","longitude":"1.77059000","wikiDataId":"Q1169595"},{"id":40932,"Name":"Châlette-sur-Loing","state_id":4818,"state_code":"CVL","state_name":"Centre-Val de Loire","country_id":75,"country_code":"FR","country_name":"France","latitude":"48.01337000","longitude":"2.73587000","wikiDataId":"Q1169620"},{"id":40710,"Name":"Chambourg-sur-Indre","state_id":4818,"state_code":"CVL","state_name":"Centre-Val de Loire","country_id":75,"country_code":"FR","country_name":"France","latitude":"47.18159000","longitude":"0.96863000","wikiDataId":"Q1138709"},{"id":40711,"Name":"Chambray-lès-Tours","state_id":4818,"state_code":"CVL","state_name":"Centre-Val de Loire","country_id":75,"country_code":"FR","country_name":"France","latitude":"47.33537000","longitude":"0.70286000","wikiDataId":"Q641181"},{"id":40737,"Name":"Champhol","state_id":4818,"state_code":"CVL","state_name":"Centre-Val de Loire","country_id":75,"country_code":"FR","country_name":"France","latitude":"48.46813000","longitude":"1.50281000","wikiDataId":"Q634981"},{"id":40757,"Name":"Chanceaux-sur-Choisille","state_id":4818,"state_code":"CVL","state_name":"Centre-Val de Loire","country_id":75,"country_code":"FR","country_name":"France","latitude":"47.47145000","longitude":"0.70539000","wikiDataId":"Q34791695"},{"id":40762,"Name":"Changy-les-Bois","state_id":4818,"state_code":"CVL","state_name":"Centre-Val de Loire","country_id":75,"country_code":"FR","country_name":"France","latitude":"47.85793000","longitude":"2.68543000","wikiDataId":"Q957295"},{"id":40767,"Name":"Chanteau","state_id":4818,"state_code":"CVL","state_name":"Centre-Val de Loire","country_id":75,"country_code":"FR","country_name":"France","latitude":"47.96651000","longitude":"1.97129000","wikiDataId":"Q632394"},{"id":40778,"Name":"Chantôme","state_id":4818,"state_code":"CVL","state_name":"Centre-Val de Loire","country_id":75,"country_code":"FR","country_name":"France","latitude":"46.41067000","longitude":"1.55590000","wikiDataId":"Q34791904"},{"id":40796,"Name":"Charentilly","state_id":4818,"state_code":"CVL","state_name":"Centre-Val de Loire","country_id":75,"country_code":"FR","country_name":"France","latitude":"47.46981000","longitude":"0.60903000","wikiDataId":"Q3278"},{"id":40797,"Name":"Charenton-du-Cher","state_id":4818,"state_code":"CVL","state_name":"Centre-Val de Loire","country_id":75,"country_code":"FR","country_name":"France","latitude":"46.73007000","longitude":"2.64438000","wikiDataId":"Q1081558"},{"id":40799,"Name":"Chargé","state_id":4818,"state_code":"CVL","state_name":"Centre-Val de Loire","country_id":75,"country_code":"FR","country_name":"France","latitude":"47.43270000","longitude":"1.03037000","wikiDataId":"Q212793"},{"id":40936,"Name":"Chârost","state_id":4818,"state_code":"CVL","state_name":"Centre-Val de Loire","country_id":75,"country_code":"FR","country_name":"France","latitude":"46.99390000","longitude":"2.11639000","wikiDataId":"Q622720"},{"id":40819,"Name":"Chartres","state_id":4818,"state_code":"CVL","state_name":"Centre-Val de Loire","country_id":75,"country_code":"FR","country_name":"France","latitude":"48.44685000","longitude":"1.48925000","wikiDataId":"Q130272"},{"id":40949,"Name":"Château-la-Vallière","state_id":4818,"state_code":"CVL","state_name":"Centre-Val de Loire","country_id":75,"country_code":"FR","country_name":"France","latitude":"47.54665000","longitude":"0.32458000","wikiDataId":"Q1068811"},{"id":40943,"Name":"Château-Renard","state_id":4818,"state_code":"CVL","state_name":"Centre-Val de Loire","country_id":75,"country_code":"FR","country_name":"France","latitude":"47.93333000","longitude":"2.93333000","wikiDataId":"Q819787"},{"id":40944,"Name":"Château-Renault","state_id":4818,"state_code":"CVL","state_name":"Centre-Val de Loire","country_id":75,"country_code":"FR","country_name":"France","latitude":"47.59188000","longitude":"0.91143000","wikiDataId":"Q819787"},{"id":40953,"Name":"Châteaudun","state_id":4818,"state_code":"CVL","state_name":"Centre-Val de Loire","country_id":75,"country_code":"FR","country_name":"France","latitude":"48.07086000","longitude":"1.33783000","wikiDataId":"Q181886"},{"id":40958,"Name":"Châteaumeillant","state_id":4818,"state_code":"CVL","state_name":"Centre-Val de Loire","country_id":75,"country_code":"FR","country_name":"France","latitude":"46.56219000","longitude":"2.19515000","wikiDataId":"Q639610"},{"id":40967,"Name":"Châteauneuf-en-Thymerais","state_id":4818,"state_code":"CVL","state_name":"Centre-Val de Loire","country_id":75,"country_code":"FR","country_name":"France","latitude":"48.58112000","longitude":"1.24085000","wikiDataId":"Q475369"},{"id":40972,"Name":"Châteauneuf-sur-Cher","state_id":4818,"state_code":"CVL","state_name":"Centre-Val de Loire","country_id":75,"country_code":"FR","country_name":"France","latitude":"46.85778000","longitude":"2.31710000","wikiDataId":"Q837510"},{"id":40974,"Name":"Châteauneuf-sur-Loire","state_id":4818,"state_code":"CVL","state_name":"Centre-Val de Loire","country_id":75,"country_code":"FR","country_name":"France","latitude":"47.86575000","longitude":"2.21903000","wikiDataId":"Q819934"},{"id":40978,"Name":"Châteauroux","state_id":4818,"state_code":"CVL","state_name":"Centre-Val de Loire","country_id":75,"country_code":"FR","country_name":"France","latitude":"46.81248000","longitude":"1.69362000","wikiDataId":"Q174251"},{"id":40993,"Name":"Châtillon-Coligny","state_id":4818,"state_code":"CVL","state_name":"Centre-Val de Loire","country_id":75,"country_code":"FR","country_name":"France","latitude":"47.82266000","longitude":"2.84563000","wikiDataId":"Q732483"},{"id":41000,"Name":"Châtillon-sur-Cher","state_id":4818,"state_code":"CVL","state_name":"Centre-Val de Loire","country_id":75,"country_code":"FR","country_name":"France","latitude":"47.27571000","longitude":"1.49424000","wikiDataId":"Q1135644"},{"id":41002,"Name":"Châtillon-sur-Indre","state_id":4818,"state_code":"CVL","state_name":"Centre-Val de Loire","country_id":75,"country_code":"FR","country_name":"France","latitude":"46.98735000","longitude":"1.17218000","wikiDataId":"Q470682"},{"id":41008,"Name":"Châtres-sur-Cher","state_id":4818,"state_code":"CVL","state_name":"Centre-Val de Loire","country_id":75,"country_code":"FR","country_name":"France","latitude":"47.26505000","longitude":"1.90591000","wikiDataId":"Q1172578"},{"id":40837,"Name":"Chaudon","state_id":4818,"state_code":"CVL","state_name":"Centre-Val de Loire","country_id":75,"country_code":"FR","country_name":"France","latitude":"48.66276000","longitude":"1.49670000","wikiDataId":"Q269112"},{"id":40845,"Name":"Chaumont-sur-Loire","state_id":4818,"state_code":"CVL","state_name":"Centre-Val de Loire","country_id":75,"country_code":"FR","country_name":"France","latitude":"47.48108000","longitude":"1.18929000","wikiDataId":"Q193880"},{"id":40846,"Name":"Chaumont-sur-Tharonne","state_id":4818,"state_code":"CVL","state_name":"Centre-Val de Loire","country_id":75,"country_code":"FR","country_name":"France","latitude":"47.61039000","longitude":"1.90514000","wikiDataId":"Q193880"},{"id":41010,"Name":"Chécy","state_id":4818,"state_code":"CVL","state_name":"Centre-Val de Loire","country_id":75,"country_code":"FR","country_name":"France","latitude":"47.89402000","longitude":"2.02304000","wikiDataId":"Q693520"},{"id":40868,"Name":"Cheillé","state_id":4818,"state_code":"CVL","state_name":"Centre-Val de Loire","country_id":75,"country_code":"FR","country_name":"France","latitude":"47.26114000","longitude":"0.40553000","wikiDataId":"Q838332"},{"id":40880,"Name":"Cher","state_id":4818,"state_code":"CVL","state_name":"Centre-Val de Loire","country_id":75,"country_code":"FR","country_name":"France","latitude":"47.11304000","longitude":"2.50983000","wikiDataId":"Q3286"},{"id":40882,"Name":"Cherisy","state_id":4818,"state_code":"CVL","state_name":"Centre-Val de Loire","country_id":75,"country_code":"FR","country_name":"France","latitude":"48.75000000","longitude":"1.43333000","wikiDataId":"Q160199"},{"id":40895,"Name":"Cheverny","state_id":4818,"state_code":"CVL","state_name":"Centre-Val de Loire","country_id":75,"country_code":"FR","country_name":"France","latitude":"47.50079000","longitude":"1.45951000","wikiDataId":"Q659942"},{"id":40898,"Name":"Chevillon-sur-Huillard","state_id":4818,"state_code":"CVL","state_name":"Centre-Val de Loire","country_id":75,"country_code":"FR","country_name":"France","latitude":"47.96197000","longitude":"2.62601000","wikiDataId":"Q659942"},{"id":40899,"Name":"Chevilly","state_id":4818,"state_code":"CVL","state_name":"Centre-Val de Loire","country_id":75,"country_code":"FR","country_name":"France","latitude":"48.02973000","longitude":"1.87402000","wikiDataId":"Q659942"},{"id":40907,"Name":"Chilleurs-aux-Bois","state_id":4818,"state_code":"CVL","state_name":"Centre-Val de Loire","country_id":75,"country_code":"FR","country_name":"France","latitude":"48.07220000","longitude":"2.13540000","wikiDataId":"Q34793011"},{"id":40912,"Name":"Chinon","state_id":4818,"state_code":"CVL","state_name":"Centre-Val de Loire","country_id":75,"country_code":"FR","country_name":"France","latitude":"47.16701000","longitude":"0.24284000","wikiDataId":"Q34793011"},{"id":40916,"Name":"Chissay-en-Touraine","state_id":4818,"state_code":"CVL","state_name":"Centre-Val de Loire","country_id":75,"country_code":"FR","country_name":"France","latitude":"47.33747000","longitude":"1.13362000","wikiDataId":"Q965163"},{"id":40917,"Name":"Chitenay","state_id":4818,"state_code":"CVL","state_name":"Centre-Val de Loire","country_id":75,"country_code":"FR","country_name":"France","latitude":"47.49753000","longitude":"1.37139000","wikiDataId":"Q1135543"},{"id":40928,"Name":"Chouzé-sur-Loire","state_id":4818,"state_code":"CVL","state_name":"Centre-Val de Loire","country_id":75,"country_code":"FR","country_name":"France","latitude":"47.23673000","longitude":"0.12364000","wikiDataId":"Q681259"},{"id":40927,"Name":"Chouzy-sur-Cisse","state_id":4818,"state_code":"CVL","state_name":"Centre-Val de Loire","country_id":75,"country_code":"FR","country_name":"France","latitude":"47.52576000","longitude":"1.24661000","wikiDataId":"Q1135459"},{"id":41021,"Name":"Cinq-Mars-la-Pile","state_id":4818,"state_code":"CVL","state_name":"Centre-Val de Loire","country_id":75,"country_code":"FR","country_name":"France","latitude":"47.34638000","longitude":"0.45873000","wikiDataId":"Q235208"},{"id":41032,"Name":"Civray-de-Touraine","state_id":4818,"state_code":"CVL","state_name":"Centre-Val de Loire","country_id":75,"country_code":"FR","country_name":"France","latitude":"47.33253000","longitude":"1.04952000","wikiDataId":"Q1135868"},{"id":41075,"Name":"Cléré-les-Pins","state_id":4818,"state_code":"CVL","state_name":"Centre-Val de Loire","country_id":75,"country_code":"FR","country_name":"France","latitude":"47.42550000","longitude":"0.38963000","wikiDataId":"Q816291"},{"id":41074,"Name":"Cléry-Saint-André","state_id":4818,"state_code":"CVL","state_name":"Centre-Val de Loire","country_id":75,"country_code":"FR","country_name":"France","latitude":"47.82218000","longitude":"1.75091000","wikiDataId":"Q816291"},{"id":41055,"Name":"Clion","state_id":4818,"state_code":"CVL","state_name":"Centre-Val de Loire","country_id":75,"country_code":"FR","country_name":"France","latitude":"46.94085000","longitude":"1.23214000","wikiDataId":"Q232056"},{"id":41061,"Name":"Cloyes-sur-le-Loir","state_id":4818,"state_code":"CVL","state_name":"Centre-Val de Loire","country_id":75,"country_code":"FR","country_name":"France","latitude":"47.99726000","longitude":"1.23711000","wikiDataId":"Q34795765"},{"id":41062,"Name":"Cluis","state_id":4818,"state_code":"CVL","state_name":"Centre-Val de Loire","country_id":75,"country_code":"FR","country_name":"France","latitude":"46.54486000","longitude":"1.74933000","wikiDataId":"Q587042"},{"id":41156,"Name":"Contres","state_id":4818,"state_code":"CVL","state_name":"Centre-Val de Loire","country_id":75,"country_code":"FR","country_name":"France","latitude":"47.41754000","longitude":"1.42849000","wikiDataId":"Q34796422"},{"id":41165,"Name":"Corbeilles","state_id":4818,"state_code":"CVL","state_name":"Centre-Val de Loire","country_id":75,"country_code":"FR","country_name":"France","latitude":"48.07201000","longitude":"2.55030000","wikiDataId":"Q1651173"},{"id":41182,"Name":"Cormeray","state_id":4818,"state_code":"CVL","state_name":"Centre-Val de Loire","country_id":75,"country_code":"FR","country_name":"France","latitude":"47.49195000","longitude":"1.40610000","wikiDataId":"Q330937"},{"id":41183,"Name":"Cormery","state_id":4818,"state_code":"CVL","state_name":"Centre-Val de Loire","country_id":75,"country_code":"FR","country_name":"France","latitude":"47.26812000","longitude":"0.83583000","wikiDataId":"Q330937"},{"id":41201,"Name":"Corquilleroy","state_id":4818,"state_code":"CVL","state_name":"Centre-Val de Loire","country_id":75,"country_code":"FR","country_name":"France","latitude":"48.04212000","longitude":"2.70382000","wikiDataId":"Q1011038"},{"id":41231,"Name":"Coullons","state_id":4818,"state_code":"CVL","state_name":"Centre-Val de Loire","country_id":75,"country_code":"FR","country_name":"France","latitude":"47.62105000","longitude":"2.49258000","wikiDataId":"Q305768"},{"id":41234,"Name":"Coulombs","state_id":4818,"state_code":"CVL","state_name":"Centre-Val de Loire","country_id":75,"country_code":"FR","country_name":"France","latitude":"48.65253000","longitude":"1.54646000","wikiDataId":"Q305768"},{"id":41240,"Name":"Cour-Cheverny","state_id":4818,"state_code":"CVL","state_name":"Centre-Val de Loire","country_id":75,"country_code":"FR","country_name":"France","latitude":"47.51033000","longitude":"1.45583000","wikiDataId":"Q1429296"},{"id":41263,"Name":"Cours-les-Barres","state_id":4818,"state_code":"CVL","state_name":"Centre-Val de Loire","country_id":75,"country_code":"FR","country_name":"France","latitude":"47.02513000","longitude":"3.03167000","wikiDataId":"Q1617140"},{"id":41268,"Name":"Courtenay","state_id":4818,"state_code":"CVL","state_name":"Centre-Val de Loire","country_id":75,"country_code":"FR","country_name":"France","latitude":"48.03901000","longitude":"3.05851000","wikiDataId":"Q34797143"},{"id":41272,"Name":"Courville-sur-Eure","state_id":4818,"state_code":"CVL","state_name":"Centre-Val de Loire","country_id":75,"country_code":"FR","country_name":"France","latitude":"48.44899000","longitude":"1.24085000","wikiDataId":"Q1072386"},{"id":41361,"Name":"Cuffy","state_id":4818,"state_code":"CVL","state_name":"Centre-Val de Loire","country_id":75,"country_code":"FR","country_name":"France","latitude":"46.96275000","longitude":"3.05238000","wikiDataId":"Q322680"},{"id":41403,"Name":"Dadonville","state_id":4818,"state_code":"CVL","state_name":"Centre-Val de Loire","country_id":75,"country_code":"FR","country_name":"France","latitude":"48.15776000","longitude":"2.27150000","wikiDataId":"Q1371748"},{"id":41414,"Name":"Dammarie","state_id":4818,"state_code":"CVL","state_name":"Centre-Val de Loire","country_id":75,"country_code":"FR","country_name":"France","latitude":"48.34314000","longitude":"1.49444000","wikiDataId":"Q34800164"},{"id":41419,"Name":"Dampierre-en-Burly","state_id":4818,"state_code":"CVL","state_name":"Centre-Val de Loire","country_id":75,"country_code":"FR","country_name":"France","latitude":"47.76143000","longitude":"2.51962000","wikiDataId":"Q34800203"},{"id":41437,"Name":"Darvoy","state_id":4818,"state_code":"CVL","state_name":"Centre-Val de Loire","country_id":75,"country_code":"FR","country_name":"France","latitude":"47.85839000","longitude":"2.10033000","wikiDataId":"Q1169741"},{"id":41602,"Name":"Déols","state_id":4818,"state_code":"CVL","state_name":"Centre-Val de Loire","country_id":75,"country_code":"FR","country_name":"France","latitude":"46.82934000","longitude":"1.70428000","wikiDataId":"Q473103"},{"id":41603,"Name":"Département d'Eure-et-Loir","state_id":4818,"state_code":"CVL","state_name":"Centre-Val de Loire","country_id":75,"country_code":"FR","country_name":"France","latitude":"48.50000000","longitude":"1.50000000","wikiDataId":"Q3377"},{"id":41605,"Name":"Département d'Indre-et-Loire","state_id":4818,"state_code":"CVL","state_name":"Centre-Val de Loire","country_id":75,"country_code":"FR","country_name":"France","latitude":"47.25000000","longitude":"0.75000000","wikiDataId":"Q12556"},{"id":41619,"Name":"Département de l'Indre","state_id":4818,"state_code":"CVL","state_name":"Centre-Val de Loire","country_id":75,"country_code":"FR","country_name":"France","latitude":"46.83333000","longitude":"1.66667000","wikiDataId":"Q12553"},{"id":41641,"Name":"Département du Loir-et-Cher","state_id":4818,"state_code":"CVL","state_name":"Centre-Val de Loire","country_id":75,"country_code":"FR","country_name":"France","latitude":"47.50000000","longitude":"1.50000000","wikiDataId":"Q12564"},{"id":41455,"Name":"Descartes","state_id":4818,"state_code":"CVL","state_name":"Centre-Val de Loire","country_id":75,"country_code":"FR","country_name":"France","latitude":"46.96667000","longitude":"0.70000000","wikiDataId":"Q34801578"},{"id":41464,"Name":"Dhuizon","state_id":4818,"state_code":"CVL","state_name":"Centre-Val de Loire","country_id":75,"country_code":"FR","country_name":"France","latitude":"47.58723000","longitude":"1.65809000","wikiDataId":"Q1135535"},{"id":41533,"Name":"Donnery","state_id":4818,"state_code":"CVL","state_name":"Centre-Val de Loire","country_id":75,"country_code":"FR","country_name":"France","latitude":"47.91486000","longitude":"2.10299000","wikiDataId":"Q1167518"},{"id":41538,"Name":"Dordives","state_id":4818,"state_code":"CVL","state_name":"Centre-Val de Loire","country_id":75,"country_code":"FR","country_name":"France","latitude":"48.14253000","longitude":"2.76775000","wikiDataId":"Q817843"},{"id":41548,"Name":"Douchy","state_id":4818,"state_code":"CVL","state_name":"Centre-Val de Loire","country_id":75,"country_code":"FR","country_name":"France","latitude":"47.94282000","longitude":"3.05392000","wikiDataId":"Q3361"},{"id":41574,"Name":"Dreux","state_id":4818,"state_code":"CVL","state_name":"Centre-Val de Loire","country_id":75,"country_code":"FR","country_name":"France","latitude":"48.73649000","longitude":"1.36566000","wikiDataId":"Q142410"},{"id":41577,"Name":"Droué","state_id":4818,"state_code":"CVL","state_name":"Centre-Val de Loire","country_id":75,"country_code":"FR","country_name":"France","latitude":"48.04023000","longitude":"1.07534000","wikiDataId":"Q1382094"},{"id":41576,"Name":"Droue-sur-Drouette","state_id":4818,"state_code":"CVL","state_name":"Centre-Val de Loire","country_id":75,"country_code":"FR","country_name":"France","latitude":"48.60053000","longitude":"1.70113000","wikiDataId":"Q1079734"},{"id":41582,"Name":"Dry","state_id":4818,"state_code":"CVL","state_name":"Centre-Val de Loire","country_id":75,"country_code":"FR","country_name":"France","latitude":"47.79612000","longitude":"1.71330000","wikiDataId":"Q1470363"},{"id":41590,"Name":"Dun-sur-Auron","state_id":4818,"state_code":"CVL","state_name":"Centre-Val de Loire","country_id":75,"country_code":"FR","country_name":"France","latitude":"46.88490000","longitude":"2.57345000","wikiDataId":"Q817409"},{"id":48053,"Name":"Écueillé","state_id":4818,"state_code":"CVL","state_name":"Centre-Val de Loire","country_id":75,"country_code":"FR","country_name":"France","latitude":"47.08462000","longitude":"1.34668000","wikiDataId":"Q273736"},{"id":48062,"Name":"Éguzon-Chantôme","state_id":4818,"state_code":"CVL","state_name":"Centre-Val de Loire","country_id":75,"country_code":"FR","country_name":"France","latitude":"46.45000000","longitude":"1.58333000","wikiDataId":"Q274555"},{"id":48074,"Name":"Épernon","state_id":4818,"state_code":"CVL","state_name":"Centre-Val de Loire","country_id":75,"country_code":"FR","country_name":"France","latitude":"48.61031000","longitude":"1.67218000","wikiDataId":"Q287148"},{"id":48076,"Name":"Épieds-en-Beauce","state_id":4818,"state_code":"CVL","state_name":"Centre-Val de Loire","country_id":75,"country_code":"FR","country_name":"France","latitude":"47.95066000","longitude":"1.61732000","wikiDataId":"Q742478"},{"id":41739,"Name":"Esvres","state_id":4818,"state_code":"CVL","state_name":"Centre-Val de Loire","country_id":75,"country_code":"FR","country_name":"France","latitude":"47.28537000","longitude":"0.78588000","wikiDataId":"Q1069558"},{"id":41785,"Name":"Faverolles-sur-Cher","state_id":4818,"state_code":"CVL","state_name":"Centre-Val de Loire","country_id":75,"country_code":"FR","country_name":"France","latitude":"47.31732000","longitude":"1.19045000","wikiDataId":"Q1170141"},{"id":41787,"Name":"Fay-aux-Loges","state_id":4818,"state_code":"CVL","state_name":"Centre-Val de Loire","country_id":75,"country_code":"FR","country_name":"France","latitude":"47.92724000","longitude":"2.14012000","wikiDataId":"Q1170141"},{"id":42006,"Name":"Férolles","state_id":4818,"state_code":"CVL","state_name":"Centre-Val de Loire","country_id":75,"country_code":"FR","country_name":"France","latitude":"47.83475000","longitude":"2.11113000","wikiDataId":"Q71101"},{"id":41849,"Name":"Fleury-les-Aubrais","state_id":4818,"state_code":"CVL","state_name":"Centre-Val de Loire","country_id":75,"country_code":"FR","country_name":"France","latitude":"47.93328000","longitude":"1.91811000","wikiDataId":"Q857771"},{"id":41941,"Name":"Foëcy","state_id":4818,"state_code":"CVL","state_name":"Centre-Val de Loire","country_id":75,"country_code":"FR","country_name":"France","latitude":"47.17618000","longitude":"2.16257000","wikiDataId":"Q679386"},{"id":41873,"Name":"Fondettes","state_id":4818,"state_code":"CVL","state_name":"Centre-Val de Loire","country_id":75,"country_code":"FR","country_name":"France","latitude":"47.40350000","longitude":"0.59686000","wikiDataId":"Q527676"},{"id":41879,"Name":"Fontaine-la-Guyon","state_id":4818,"state_code":"CVL","state_name":"Centre-Val de Loire","country_id":75,"country_code":"FR","country_name":"France","latitude":"48.47270000","longitude":"1.31417000","wikiDataId":"Q367373"},{"id":41903,"Name":"Fontenay-sur-Loing","state_id":4818,"state_code":"CVL","state_name":"Centre-Val de Loire","country_id":75,"country_code":"FR","country_name":"France","latitude":"48.10365000","longitude":"2.77542000","wikiDataId":"Q1114600"},{"id":41995,"Name":"Fussy","state_id":4818,"state_code":"CVL","state_name":"Centre-Val de Loire","country_id":75,"country_code":"FR","country_name":"France","latitude":"47.14372000","longitude":"2.42953000","wikiDataId":"Q637279"},{"id":42021,"Name":"Gallardon","state_id":4818,"state_code":"CVL","state_name":"Centre-Val de Loire","country_id":75,"country_code":"FR","country_name":"France","latitude":"48.52622000","longitude":"1.69307000","wikiDataId":"Q627220"},{"id":42046,"Name":"Garnay","state_id":4818,"state_code":"CVL","state_name":"Centre-Val de Loire","country_id":75,"country_code":"FR","country_name":"France","latitude":"48.70489000","longitude":"1.33706000","wikiDataId":"Q1343957"},{"id":42051,"Name":"Gasville-Oisème","state_id":4818,"state_code":"CVL","state_name":"Centre-Val de Loire","country_id":75,"country_code":"FR","country_name":"France","latitude":"48.46973000","longitude":"1.53843000","wikiDataId":"Q1073294"},{"id":42065,"Name":"Genillé","state_id":4818,"state_code":"CVL","state_name":"Centre-Val de Loire","country_id":75,"country_code":"FR","country_name":"France","latitude":"47.18333000","longitude":"1.10000000","wikiDataId":"Q833422"},{"id":42087,"Name":"Gidy","state_id":4818,"state_code":"CVL","state_name":"Centre-Val de Loire","country_id":75,"country_code":"FR","country_name":"France","latitude":"47.98539000","longitude":"1.83816000","wikiDataId":"Q637313"},{"id":42088,"Name":"Gien","state_id":4818,"state_code":"CVL","state_name":"Centre-Val de Loire","country_id":75,"country_code":"FR","country_name":"France","latitude":"47.69332000","longitude":"2.63094000","wikiDataId":"Q475599"},{"id":42112,"Name":"Gièvres","state_id":4818,"state_code":"CVL","state_name":"Centre-Val de Loire","country_id":75,"country_code":"FR","country_name":"France","latitude":"47.27847000","longitude":"1.66943000","wikiDataId":"Q1172598"},{"id":42194,"Name":"Graçay","state_id":4818,"state_code":"CVL","state_name":"Centre-Val de Loire","country_id":75,"country_code":"FR","country_name":"France","latitude":"47.14371000","longitude":"1.84733000","wikiDataId":"Q265332"},{"id":42322,"Name":"Hanches","state_id":4818,"state_code":"CVL","state_name":"Centre-Val de Loire","country_id":75,"country_code":"FR","country_name":"France","latitude":"48.60115000","longitude":"1.65137000","wikiDataId":"Q1001547"},{"id":42369,"Name":"Henrichemont","state_id":4818,"state_code":"CVL","state_name":"Centre-Val de Loire","country_id":75,"country_code":"FR","country_name":"France","latitude":"47.30333000","longitude":"2.52458000","wikiDataId":"Q1141372"},{"id":42371,"Name":"Herbault","state_id":4818,"state_code":"CVL","state_name":"Centre-Val de Loire","country_id":75,"country_code":"FR","country_name":"France","latitude":"47.60501000","longitude":"1.13934000","wikiDataId":"Q1135484"},{"id":42384,"Name":"Herry","state_id":4818,"state_code":"CVL","state_name":"Centre-Val de Loire","country_id":75,"country_code":"FR","country_name":"France","latitude":"47.21667000","longitude":"2.95385000","wikiDataId":"Q381549"},{"id":42437,"Name":"Huismes","state_id":4818,"state_code":"CVL","state_name":"Centre-Val de Loire","country_id":75,"country_code":"FR","country_name":"France","latitude":"47.23319000","longitude":"0.25116000","wikiDataId":"Q752895"},{"id":42438,"Name":"Huisseau-sur-Cosson","state_id":4818,"state_code":"CVL","state_name":"Centre-Val de Loire","country_id":75,"country_code":"FR","country_name":"France","latitude":"47.59335000","longitude":"1.45333000","wikiDataId":"Q1170182"},{"id":42439,"Name":"Huisseau-sur-Mauves","state_id":4818,"state_code":"CVL","state_name":"Centre-Val de Loire","country_id":75,"country_code":"FR","country_name":"France","latitude":"47.89319000","longitude":"1.70274000","wikiDataId":"Q1170182"},{"id":42489,"Name":"Ingré","state_id":4818,"state_code":"CVL","state_name":"Centre-Val de Loire","country_id":75,"country_code":"FR","country_name":"France","latitude":"47.91995000","longitude":"1.82778000","wikiDataId":"Q379164"},{"id":42507,"Name":"Issoudun","state_id":4818,"state_code":"CVL","state_name":"Centre-Val de Loire","country_id":75,"country_code":"FR","country_name":"France","latitude":"46.94848000","longitude":"1.99362000","wikiDataId":"Q210772"},{"id":42527,"Name":"Janville","state_id":4818,"state_code":"CVL","state_name":"Centre-Val de Loire","country_id":75,"country_code":"FR","country_name":"France","latitude":"48.20284000","longitude":"1.88020000","wikiDataId":"Q1155287"},{"id":42532,"Name":"Jargeau","state_id":4818,"state_code":"CVL","state_name":"Centre-Val de Loire","country_id":75,"country_code":"FR","country_name":"France","latitude":"47.86316000","longitude":"2.12648000","wikiDataId":"Q630345"},{"id":42579,"Name":"Joué-lès-Tours","state_id":4818,"state_code":"CVL","state_name":"Centre-Val de Loire","country_id":75,"country_code":"FR","country_name":"France","latitude":"47.35223000","longitude":"0.66905000","wikiDataId":"Q269364"},{"id":42568,"Name":"Jouet-sur-l'Aubois","state_id":4818,"state_code":"CVL","state_name":"Centre-Val de Loire","country_id":75,"country_code":"FR","country_name":"France","latitude":"47.04562000","longitude":"2.98725000","wikiDataId":"Q255198"},{"id":42572,"Name":"Jouy","state_id":4818,"state_code":"CVL","state_name":"Centre-Val de Loire","country_id":75,"country_code":"FR","country_name":"France","latitude":"48.51005000","longitude":"1.54501000","wikiDataId":"Q640906"},{"id":42577,"Name":"Jouy-le-Potier","state_id":4818,"state_code":"CVL","state_name":"Centre-Val de Loire","country_id":75,"country_code":"FR","country_name":"France","latitude":"47.74553000","longitude":"1.81115000","wikiDataId":"Q1458468"},{"id":42628,"Name":"L'Île-Bouchard","state_id":4818,"state_code":"CVL","state_name":"Centre-Val de Loire","country_id":75,"country_code":"FR","country_name":"France","latitude":"47.11667000","longitude":"0.41667000","wikiDataId":"Q22147"},{"id":42638,"Name":"La Bazoche-Gouet","state_id":4818,"state_code":"CVL","state_name":"Centre-Val de Loire","country_id":75,"country_code":"FR","country_name":"France","latitude":"48.13985000","longitude":"0.98163000","wikiDataId":"Q35707368"},{"id":42671,"Name":"La Celle-Saint-Avant","state_id":4818,"state_code":"CVL","state_name":"Centre-Val de Loire","country_id":75,"country_code":"FR","country_name":"France","latitude":"47.02200000","longitude":"0.60488000","wikiDataId":"Q632608"},{"id":42696,"Name":"La Chapelle-du-Noyer","state_id":4818,"state_code":"CVL","state_name":"Centre-Val de Loire","country_id":75,"country_code":"FR","country_name":"France","latitude":"48.03191000","longitude":"1.30953000","wikiDataId":"Q35707797"},{"id":42688,"Name":"La Chapelle-Saint-Mesmin","state_id":4818,"state_code":"CVL","state_name":"Centre-Val de Loire","country_id":75,"country_code":"FR","country_name":"France","latitude":"47.88648000","longitude":"1.83450000","wikiDataId":"Q1157701"},{"id":42689,"Name":"La Chapelle-Saint-Ursin","state_id":4818,"state_code":"CVL","state_name":"Centre-Val de Loire","country_id":75,"country_code":"FR","country_name":"France","latitude":"47.06248000","longitude":"2.32447000","wikiDataId":"Q1157701"},{"id":42701,"Name":"La Chapelle-sur-Loire","state_id":4818,"state_code":"CVL","state_name":"Centre-Val de Loire","country_id":75,"country_code":"FR","country_name":"France","latitude":"47.25063000","longitude":"0.21887000","wikiDataId":"Q35708083"},{"id":42707,"Name":"La Châtre","state_id":4818,"state_code":"CVL","state_name":"Centre-Val de Loire","country_id":75,"country_code":"FR","country_name":"France","latitude":"46.58228000","longitude":"1.98734000","wikiDataId":"Q213313"},{"id":42704,"Name":"La Chaussée-Saint-Victor","state_id":4818,"state_code":"CVL","state_name":"Centre-Val de Loire","country_id":75,"country_code":"FR","country_name":"France","latitude":"47.61621000","longitude":"1.36765000","wikiDataId":"Q35708131"},{"id":42724,"Name":"La Croix-en-Touraine","state_id":4818,"state_code":"CVL","state_name":"Centre-Val de Loire","country_id":75,"country_code":"FR","country_name":"France","latitude":"47.34031000","longitude":"0.99024000","wikiDataId":"Q636893"},{"id":42739,"Name":"La Ferté-Imbault","state_id":4818,"state_code":"CVL","state_name":"Centre-Val de Loire","country_id":75,"country_code":"FR","country_name":"France","latitude":"47.38467000","longitude":"1.95344000","wikiDataId":"Q1161950"},{"id":42742,"Name":"La Ferté-Saint-Aubin","state_id":4818,"state_code":"CVL","state_name":"Centre-Val de Loire","country_id":75,"country_code":"FR","country_name":"France","latitude":"47.71695000","longitude":"1.93904000","wikiDataId":"Q181356"},{"id":42795,"Name":"La Loupe","state_id":4818,"state_code":"CVL","state_name":"Centre-Val de Loire","country_id":75,"country_code":"FR","country_name":"France","latitude":"48.47320000","longitude":"1.01585000","wikiDataId":"Q514185"},{"id":42804,"Name":"La Membrolle-sur-Choisille","state_id":4818,"state_code":"CVL","state_name":"Centre-Val de Loire","country_id":75,"country_code":"FR","country_name":"France","latitude":"47.43719000","longitude":"0.63163000","wikiDataId":"Q35709007"},{"id":42847,"Name":"La Riche","state_id":4818,"state_code":"CVL","state_name":"Centre-Val de Loire","country_id":75,"country_code":"FR","country_name":"France","latitude":"47.38996000","longitude":"0.67072000","wikiDataId":"Q35709393"},{"id":42912,"Name":"La Ville-aux-Clercs","state_id":4818,"state_code":"CVL","state_name":"Centre-Val de Loire","country_id":75,"country_code":"FR","country_name":"France","latitude":"47.91835000","longitude":"1.08521000","wikiDataId":"Q663861"},{"id":42913,"Name":"La Ville-aux-Dames","state_id":4818,"state_code":"CVL","state_name":"Centre-Val de Loire","country_id":75,"country_code":"FR","country_name":"France","latitude":"47.39551000","longitude":"0.76837000","wikiDataId":"Q663861"},{"id":42952,"Name":"Ladon","state_id":4818,"state_code":"CVL","state_name":"Centre-Val de Loire","country_id":75,"country_code":"FR","country_name":"France","latitude":"48.00259000","longitude":"2.53724000","wikiDataId":"Q1161356"},{"id":42969,"Name":"Lailly-en-Val","state_id":4818,"state_code":"CVL","state_name":"Centre-Val de Loire","country_id":75,"country_code":"FR","country_name":"France","latitude":"47.76962000","longitude":"1.68657000","wikiDataId":"Q1391575"},{"id":42992,"Name":"Lamotte-Beuvron","state_id":4818,"state_code":"CVL","state_name":"Centre-Val de Loire","country_id":75,"country_code":"FR","country_name":"France","latitude":"47.60200000","longitude":"2.02837000","wikiDataId":"Q1382948"},{"id":43022,"Name":"Langeais","state_id":4818,"state_code":"CVL","state_name":"Centre-Val de Loire","country_id":75,"country_code":"FR","country_name":"France","latitude":"47.32587000","longitude":"0.40136000","wikiDataId":"Q383360"},{"id":43083,"Name":"Larçay","state_id":4818,"state_code":"CVL","state_name":"Centre-Val de Loire","country_id":75,"country_code":"FR","country_name":"France","latitude":"47.36649000","longitude":"0.78145000","wikiDataId":"Q35712142"},{"id":43130,"Name":"Le Blanc","state_id":4818,"state_code":"CVL","state_name":"Centre-Val de Loire","country_id":75,"country_code":"FR","country_name":"France","latitude":"46.63371000","longitude":"1.06272000","wikiDataId":"Q1010962"},{"id":43168,"Name":"Le Châtelet","state_id":4818,"state_code":"CVL","state_name":"Centre-Val de Loire","country_id":75,"country_code":"FR","country_name":"France","latitude":"46.64247000","longitude":"2.28229000","wikiDataId":"Q1069158"},{"id":43172,"Name":"Le Coudray","state_id":4818,"state_code":"CVL","state_name":"Centre-Val de Loire","country_id":75,"country_code":"FR","country_name":"France","latitude":"48.42115000","longitude":"1.50057000","wikiDataId":"Q35713279"},{"id":43198,"Name":"Le Grand-Pressigny","state_id":4818,"state_code":"CVL","state_name":"Centre-Val de Loire","country_id":75,"country_code":"FR","country_name":"France","latitude":"46.92017000","longitude":"0.80380000","wikiDataId":"Q631435"},{"id":43289,"Name":"Le Pêchereau","state_id":4818,"state_code":"CVL","state_name":"Centre-Val de Loire","country_id":75,"country_code":"FR","country_name":"France","latitude":"46.57677000","longitude":"1.54743000","wikiDataId":"Q669815"},{"id":43271,"Name":"Le Poinçonnet","state_id":4818,"state_code":"CVL","state_name":"Centre-Val de Loire","country_id":75,"country_code":"FR","country_name":"France","latitude":"46.76410000","longitude":"1.71790000","wikiDataId":"Q1061591"},{"id":43691,"Name":"Léré","state_id":4818,"state_code":"CVL","state_name":"Centre-Val de Loire","country_id":75,"country_code":"FR","country_name":"France","latitude":"47.46867000","longitude":"2.86981000","wikiDataId":"Q35721848"},{"id":43358,"Name":"Les Aix-d’Angillon","state_id":4818,"state_code":"CVL","state_name":"Centre-Val de Loire","country_id":75,"country_code":"FR","country_name":"France","latitude":"47.19652000","longitude":"2.56506000","wikiDataId":"Q843636"},{"id":43410,"Name":"Les Montils","state_id":4818,"state_code":"CVL","state_name":"Centre-Val de Loire","country_id":75,"country_code":"FR","country_name":"France","latitude":"47.49499000","longitude":"1.29775000","wikiDataId":"Q1383860"},{"id":43680,"Name":"Lèves","state_id":4818,"state_code":"CVL","state_name":"Centre-Val de Loire","country_id":75,"country_code":"FR","country_name":"France","latitude":"48.47065000","longitude":"1.48194000","wikiDataId":"Q303038"},{"id":43451,"Name":"Levet","state_id":4818,"state_code":"CVL","state_name":"Centre-Val de Loire","country_id":75,"country_code":"FR","country_name":"France","latitude":"46.92605000","longitude":"2.40732000","wikiDataId":"Q271337"},{"id":43453,"Name":"Levroux","state_id":4818,"state_code":"CVL","state_name":"Centre-Val de Loire","country_id":75,"country_code":"FR","country_name":"France","latitude":"46.97860000","longitude":"1.61243000","wikiDataId":"Q628265"},{"id":43476,"Name":"Lignières","state_id":4818,"state_code":"CVL","state_name":"Centre-Val de Loire","country_id":75,"country_code":"FR","country_name":"France","latitude":"46.75152000","longitude":"2.17381000","wikiDataId":"Q35716960"},{"id":43480,"Name":"Ligny-le-Ribault","state_id":4818,"state_code":"CVL","state_name":"Centre-Val de Loire","country_id":75,"country_code":"FR","country_name":"France","latitude":"47.68419000","longitude":"1.78153000","wikiDataId":"Q35716999"},{"id":43482,"Name":"Ligré","state_id":4818,"state_code":"CVL","state_name":"Centre-Val de Loire","country_id":75,"country_code":"FR","country_name":"France","latitude":"47.11185000","longitude":"0.27562000","wikiDataId":"Q632139"},{"id":43483,"Name":"Ligueil","state_id":4818,"state_code":"CVL","state_name":"Centre-Val de Loire","country_id":75,"country_code":"FR","country_name":"France","latitude":"47.04210000","longitude":"0.81893000","wikiDataId":"Q632139"},{"id":43527,"Name":"Loches","state_id":4818,"state_code":"CVL","state_name":"Centre-Val de Loire","country_id":75,"country_code":"FR","country_name":"France","latitude":"47.12858000","longitude":"0.99522000","wikiDataId":"Q213349"},{"id":43542,"Name":"Loiret","state_id":4818,"state_code":"CVL","state_name":"Centre-Val de Loire","country_id":75,"country_code":"FR","country_name":"France","latitude":"47.93598000","longitude":"2.30173000","wikiDataId":"Q12574"},{"id":43595,"Name":"Lorris","state_id":4818,"state_code":"CVL","state_name":"Centre-Val de Loire","country_id":75,"country_code":"FR","country_name":"France","latitude":"47.88950000","longitude":"2.51478000","wikiDataId":"Q1168135"},{"id":43610,"Name":"Loury","state_id":4818,"state_code":"CVL","state_name":"Centre-Val de Loire","country_id":75,"country_code":"FR","country_name":"France","latitude":"47.99944000","longitude":"2.08474000","wikiDataId":"Q169343"},{"id":43627,"Name":"Luant","state_id":4818,"state_code":"CVL","state_name":"Centre-Val de Loire","country_id":75,"country_code":"FR","country_name":"France","latitude":"46.73300000","longitude":"1.55793000","wikiDataId":"Q648628"},{"id":43675,"Name":"Luçay-le-Mâle","state_id":4818,"state_code":"CVL","state_name":"Centre-Val de Loire","country_id":75,"country_code":"FR","country_name":"France","latitude":"47.12996000","longitude":"1.44173000","wikiDataId":"Q1137585"},{"id":43638,"Name":"Lucé","state_id":4818,"state_code":"CVL","state_name":"Centre-Val de Loire","country_id":75,"country_code":"FR","country_name":"France","latitude":"48.43689000","longitude":"1.46359000","wikiDataId":"Q35720739"},{"id":43644,"Name":"Luisant","state_id":4818,"state_code":"CVL","state_name":"Centre-Val de Loire","country_id":75,"country_code":"FR","country_name":"France","latitude":"48.42950000","longitude":"1.47383000","wikiDataId":"Q639596"},{"id":43651,"Name":"Lunay","state_id":4818,"state_code":"CVL","state_name":"Centre-Val de Loire","country_id":75,"country_code":"FR","country_name":"France","latitude":"47.80864000","longitude":"0.91499000","wikiDataId":"Q246410"},{"id":43655,"Name":"Lunery","state_id":4818,"state_code":"CVL","state_name":"Centre-Val de Loire","country_id":75,"country_code":"FR","country_name":"France","latitude":"46.93569000","longitude":"2.26895000","wikiDataId":"Q1173494"},{"id":43657,"Name":"Luray","state_id":4818,"state_code":"CVL","state_name":"Centre-Val de Loire","country_id":75,"country_code":"FR","country_name":"France","latitude":"48.72035000","longitude":"1.39889000","wikiDataId":"Q208794"},{"id":43669,"Name":"Luynes","state_id":4818,"state_code":"CVL","state_name":"Centre-Val de Loire","country_id":75,"country_code":"FR","country_name":"France","latitude":"47.38441000","longitude":"0.55470000","wikiDataId":"Q634124"},{"id":43739,"Name":"Maintenon","state_id":4818,"state_code":"CVL","state_name":"Centre-Val de Loire","country_id":75,"country_code":"FR","country_name":"France","latitude":"48.58704000","longitude":"1.57847000","wikiDataId":"Q653559"},{"id":43740,"Name":"Mainvilliers","state_id":4818,"state_code":"CVL","state_name":"Centre-Val de Loire","country_id":75,"country_code":"FR","country_name":"France","latitude":"48.45003000","longitude":"1.45607000","wikiDataId":"Q653559"},{"id":43756,"Name":"Malesherbes","state_id":4818,"state_code":"CVL","state_name":"Centre-Val de Loire","country_id":75,"country_code":"FR","country_name":"France","latitude":"48.29566000","longitude":"2.40935000","wikiDataId":"Q531296"},{"id":43786,"Name":"Manthelan","state_id":4818,"state_code":"CVL","state_name":"Centre-Val de Loire","country_id":75,"country_code":"FR","country_name":"France","latitude":"47.13632000","longitude":"0.79319000","wikiDataId":"Q760624"},{"id":43794,"Name":"Marboué","state_id":4818,"state_code":"CVL","state_name":"Centre-Val de Loire","country_id":75,"country_code":"FR","country_name":"France","latitude":"48.11377000","longitude":"1.33210000","wikiDataId":"Q243611"},{"id":43805,"Name":"Marcilly-en-Villette","state_id":4818,"state_code":"CVL","state_name":"Centre-Val de Loire","country_id":75,"country_code":"FR","country_name":"France","latitude":"47.76505000","longitude":"2.02266000","wikiDataId":"Q35724417"},{"id":43818,"Name":"Mardié","state_id":4818,"state_code":"CVL","state_name":"Centre-Val de Loire","country_id":75,"country_code":"FR","country_name":"France","latitude":"47.88617000","longitude":"2.05745000","wikiDataId":"Q1224262"},{"id":43819,"Name":"Mareau-aux-Prés","state_id":4818,"state_code":"CVL","state_name":"Centre-Val de Loire","country_id":75,"country_code":"FR","country_name":"France","latitude":"47.86667000","longitude":"1.78333000","wikiDataId":"Q1224262"},{"id":43829,"Name":"Mareuil-sur-Cher","state_id":4818,"state_code":"CVL","state_name":"Centre-Val de Loire","country_id":75,"country_code":"FR","country_name":"France","latitude":"47.29314000","longitude":"1.32897000","wikiDataId":"Q1170517"},{"id":43836,"Name":"Margon","state_id":4818,"state_code":"CVL","state_name":"Centre-Val de Loire","country_id":75,"country_code":"FR","country_name":"France","latitude":"48.33568000","longitude":"0.83454000","wikiDataId":"Q1338762"},{"id":43843,"Name":"Marigny-les-Usages","state_id":4818,"state_code":"CVL","state_name":"Centre-Val de Loire","country_id":75,"country_code":"FR","country_name":"France","latitude":"47.95799000","longitude":"2.01462000","wikiDataId":"Q965662"},{"id":43858,"Name":"Marmagne","state_id":4818,"state_code":"CVL","state_name":"Centre-Val de Loire","country_id":75,"country_code":"FR","country_name":"France","latitude":"47.10000000","longitude":"2.28333000","wikiDataId":"Q656505"},{"id":43920,"Name":"Martizay","state_id":4818,"state_code":"CVL","state_name":"Centre-Val de Loire","country_id":75,"country_code":"FR","country_name":"France","latitude":"46.80767000","longitude":"1.04324000","wikiDataId":"Q1137605"},{"id":43931,"Name":"Massay","state_id":4818,"state_code":"CVL","state_name":"Centre-Val de Loire","country_id":75,"country_code":"FR","country_name":"France","latitude":"47.15324000","longitude":"1.99334000","wikiDataId":"Q751776"},{"id":43976,"Name":"Mazières-de-Touraine","state_id":4818,"state_code":"CVL","state_name":"Centre-Val de Loire","country_id":75,"country_code":"FR","country_name":"France","latitude":"47.38326000","longitude":"0.42548000","wikiDataId":"Q381476"},{"id":43985,"Name":"Mehun-sur-Yèvre","state_id":4818,"state_code":"CVL","state_name":"Centre-Val de Loire","country_id":75,"country_code":"FR","country_name":"France","latitude":"47.13782000","longitude":"2.21105000","wikiDataId":"Q606352"},{"id":44464,"Name":"Ménestreau-en-Villette","state_id":4818,"state_code":"CVL","state_name":"Centre-Val de Loire","country_id":75,"country_code":"FR","country_name":"France","latitude":"47.69962000","longitude":"2.02333000","wikiDataId":"Q1078115"},{"id":44000,"Name":"Menetou-Salon","state_id":4818,"state_code":"CVL","state_name":"Centre-Val de Loire","country_id":75,"country_code":"FR","country_name":"France","latitude":"47.23172000","longitude":"2.48715000","wikiDataId":"Q829724"},{"id":44009,"Name":"Mer","state_id":4818,"state_code":"CVL","state_name":"Centre-Val de Loire","country_id":75,"country_code":"FR","country_name":"France","latitude":"47.70555000","longitude":"1.50621000","wikiDataId":"Q598679"},{"id":44469,"Name":"Méreau","state_id":4818,"state_code":"CVL","state_name":"Centre-Val de Loire","country_id":75,"country_code":"FR","country_name":"France","latitude":"47.16295000","longitude":"2.05086000","wikiDataId":"Q35736543"},{"id":44039,"Name":"Mettray","state_id":4818,"state_code":"CVL","state_name":"Centre-Val de Loire","country_id":75,"country_code":"FR","country_name":"France","latitude":"47.45251000","longitude":"0.64939000","wikiDataId":"Q1172052"},{"id":44047,"Name":"Meung-sur-Loire","state_id":4818,"state_code":"CVL","state_name":"Centre-Val de Loire","country_id":75,"country_code":"FR","country_name":"France","latitude":"47.83124000","longitude":"1.69582000","wikiDataId":"Q658776"},{"id":44488,"Name":"Mézières-en-Brenne","state_id":4818,"state_code":"CVL","state_name":"Centre-Val de Loire","country_id":75,"country_code":"FR","country_name":"France","latitude":"46.81979000","longitude":"1.21123000","wikiDataId":"Q631453"},{"id":44489,"Name":"Mézières-en-Drouais","state_id":4818,"state_code":"CVL","state_name":"Centre-Val de Loire","country_id":75,"country_code":"FR","country_name":"France","latitude":"48.72413000","longitude":"1.42440000","wikiDataId":"Q631453"},{"id":44138,"Name":"Mondoubleau","state_id":4818,"state_code":"CVL","state_name":"Centre-Val de Loire","country_id":75,"country_code":"FR","country_name":"France","latitude":"47.98061000","longitude":"0.89782000","wikiDataId":"Q751785"},{"id":44144,"Name":"Monnaie","state_id":4818,"state_code":"CVL","state_name":"Centre-Val de Loire","country_id":75,"country_code":"FR","country_name":"France","latitude":"47.50162000","longitude":"0.78872000","wikiDataId":"Q1111476"},{"id":44162,"Name":"Mont-près-Chambord","state_id":4818,"state_code":"CVL","state_name":"Centre-Val de Loire","country_id":75,"country_code":"FR","country_name":"France","latitude":"47.56235000","longitude":"1.45712000","wikiDataId":"Q585391"},{"id":44179,"Name":"Montargis","state_id":4818,"state_code":"CVL","state_name":"Centre-Val de Loire","country_id":75,"country_code":"FR","country_name":"France","latitude":"47.99696000","longitude":"2.73261000","wikiDataId":"Q212352"},{"id":44193,"Name":"Montbazon","state_id":4818,"state_code":"CVL","state_name":"Centre-Val de Loire","country_id":75,"country_code":"FR","country_name":"France","latitude":"47.28348000","longitude":"0.69988000","wikiDataId":"Q693996"},{"id":44211,"Name":"Montcresson","state_id":4818,"state_code":"CVL","state_name":"Centre-Val de Loire","country_id":75,"country_code":"FR","country_name":"France","latitude":"47.90561000","longitude":"2.80796000","wikiDataId":"Q1422735"},{"id":44248,"Name":"Montgivray","state_id":4818,"state_code":"CVL","state_name":"Centre-Val de Loire","country_id":75,"country_code":"FR","country_name":"France","latitude":"46.60324000","longitude":"1.98162000","wikiDataId":"Q388452"},{"id":44254,"Name":"Montierchaume","state_id":4818,"state_code":"CVL","state_name":"Centre-Val de Loire","country_id":75,"country_code":"FR","country_name":"France","latitude":"46.86362000","longitude":"1.77181000","wikiDataId":"Q583202"},{"id":44274,"Name":"Montlivault","state_id":4818,"state_code":"CVL","state_name":"Centre-Val de Loire","country_id":75,"country_code":"FR","country_name":"France","latitude":"47.63987000","longitude":"1.44487000","wikiDataId":"Q643033"},{"id":44275,"Name":"Montlouis-sur-Loire","state_id":4818,"state_code":"CVL","state_name":"Centre-Val de Loire","country_id":75,"country_code":"FR","country_name":"France","latitude":"47.38845000","longitude":"0.83208000","wikiDataId":"Q638668"},{"id":44293,"Name":"Montoire-sur-le-Loir","state_id":4818,"state_code":"CVL","state_name":"Centre-Val de Loire","country_id":75,"country_code":"FR","country_name":"France","latitude":"47.75316000","longitude":"0.86525000","wikiDataId":"Q752979"},{"id":44317,"Name":"Montrichard","state_id":4818,"state_code":"CVL","state_name":"Centre-Val de Loire","country_id":75,"country_code":"FR","country_name":"France","latitude":"47.34310000","longitude":"1.18653000","wikiDataId":"Q633743"},{"id":44327,"Name":"Monts","state_id":4818,"state_code":"CVL","state_name":"Centre-Val de Loire","country_id":75,"country_code":"FR","country_name":"France","latitude":"47.27723000","longitude":"0.62473000","wikiDataId":"Q508546"},{"id":44339,"Name":"Morancez","state_id":4818,"state_code":"CVL","state_name":"Centre-Val de Loire","country_id":75,"country_code":"FR","country_name":"France","latitude":"48.40051000","longitude":"1.49388000","wikiDataId":"Q385659"},{"id":44379,"Name":"Morée","state_id":4818,"state_code":"CVL","state_name":"Centre-Val de Loire","country_id":75,"country_code":"FR","country_name":"France","latitude":"47.90397000","longitude":"1.23421000","wikiDataId":"Q35734136"},{"id":44431,"Name":"Muides-sur-Loire","state_id":4818,"state_code":"CVL","state_name":"Centre-Val de Loire","country_id":75,"country_code":"FR","country_name":"France","latitude":"47.66958000","longitude":"1.52694000","wikiDataId":"Q596329"},{"id":44438,"Name":"Mur-de-Sologne","state_id":4818,"state_code":"CVL","state_name":"Centre-Val de Loire","country_id":75,"country_code":"FR","country_name":"France","latitude":"47.41239000","longitude":"1.60832000","wikiDataId":"Q1170042"},{"id":44515,"Name":"Nargis","state_id":4818,"state_code":"CVL","state_name":"Centre-Val de Loire","country_id":75,"country_code":"FR","country_name":"France","latitude":"48.11106000","longitude":"2.75597000","wikiDataId":"Q6555"},{"id":44522,"Name":"Naveil","state_id":4818,"state_code":"CVL","state_name":"Centre-Val de Loire","country_id":75,"country_code":"FR","country_name":"France","latitude":"47.79576000","longitude":"1.03222000","wikiDataId":"Q1170373"},{"id":44526,"Name":"Nazelles-Négron","state_id":4818,"state_code":"CVL","state_name":"Centre-Val de Loire","country_id":75,"country_code":"FR","country_name":"France","latitude":"47.43333000","longitude":"0.95000000","wikiDataId":"Q904006"},{"id":44696,"Name":"Nérondes","state_id":4818,"state_code":"CVL","state_name":"Centre-Val de Loire","country_id":75,"country_code":"FR","country_name":"France","latitude":"46.99758000","longitude":"2.81834000","wikiDataId":"Q467294"},{"id":44554,"Name":"Neuillé-Pont-Pierre","state_id":4818,"state_code":"CVL","state_name":"Centre-Val de Loire","country_id":75,"country_code":"FR","country_name":"France","latitude":"47.54840000","longitude":"0.54962000","wikiDataId":"Q48958"},{"id":44557,"Name":"Neung-sur-Beuvron","state_id":4818,"state_code":"CVL","state_name":"Centre-Val de Loire","country_id":75,"country_code":"FR","country_name":"France","latitude":"47.53486000","longitude":"1.80514000","wikiDataId":"Q1169924"},{"id":44565,"Name":"Neuville-aux-Bois","state_id":4818,"state_code":"CVL","state_name":"Centre-Val de Loire","country_id":75,"country_code":"FR","country_name":"France","latitude":"48.06813000","longitude":"2.05372000","wikiDataId":"Q1063646"},{"id":44578,"Name":"Neuvy-le-Roi","state_id":4818,"state_code":"CVL","state_name":"Centre-Val de Loire","country_id":75,"country_code":"FR","country_name":"France","latitude":"47.60386000","longitude":"0.59472000","wikiDataId":"Q472855"},{"id":44575,"Name":"Neuvy-Pailloux","state_id":4818,"state_code":"CVL","state_name":"Centre-Val de Loire","country_id":75,"country_code":"FR","country_name":"France","latitude":"46.88486000","longitude":"1.86152000","wikiDataId":"Q662596"},{"id":44576,"Name":"Neuvy-Saint-Sépulchre","state_id":4818,"state_code":"CVL","state_name":"Centre-Val de Loire","country_id":75,"country_code":"FR","country_name":"France","latitude":"46.59781000","longitude":"1.80601000","wikiDataId":"Q472855"},{"id":44579,"Name":"Neuvy-sur-Barangeon","state_id":4818,"state_code":"CVL","state_name":"Centre-Val de Loire","country_id":75,"country_code":"FR","country_name":"France","latitude":"47.31495000","longitude":"2.25343000","wikiDataId":"Q472855"},{"id":44584,"Name":"Nevoy","state_id":4818,"state_code":"CVL","state_name":"Centre-Val de Loire","country_id":75,"country_code":"FR","country_name":"France","latitude":"47.71591000","longitude":"2.57791000","wikiDataId":"Q166997"},{"id":44599,"Name":"Niherne","state_id":4818,"state_code":"CVL","state_name":"Centre-Val de Loire","country_id":75,"country_code":"FR","country_name":"France","latitude":"46.82768000","longitude":"1.56384000","wikiDataId":"Q1137259"},{"id":44611,"Name":"Nogent-le-Phaye","state_id":4818,"state_code":"CVL","state_name":"Centre-Val de Loire","country_id":75,"country_code":"FR","country_name":"France","latitude":"48.44528000","longitude":"1.57777000","wikiDataId":"Q1007331"},{"id":44612,"Name":"Nogent-le-Roi","state_id":4818,"state_code":"CVL","state_name":"Centre-Val de Loire","country_id":75,"country_code":"FR","country_name":"France","latitude":"48.64785000","longitude":"1.52933000","wikiDataId":"Q1007331"},{"id":44613,"Name":"Nogent-le-Rotrou","state_id":4818,"state_code":"CVL","state_name":"Centre-Val de Loire","country_id":75,"country_code":"FR","country_name":"France","latitude":"48.32157000","longitude":"0.82177000","wikiDataId":"Q1007331"},{"id":44618,"Name":"Nogent-sur-Vernisson","state_id":4818,"state_code":"CVL","state_name":"Centre-Val de Loire","country_id":75,"country_code":"FR","country_name":"France","latitude":"47.84603000","longitude":"2.74267000","wikiDataId":"Q1391514"},{"id":44632,"Name":"Noizay","state_id":4818,"state_code":"CVL","state_name":"Centre-Val de Loire","country_id":75,"country_code":"FR","country_name":"France","latitude":"47.42188000","longitude":"0.89201000","wikiDataId":"Q600920"},{"id":44658,"Name":"Nouan-le-Fuzelier","state_id":4818,"state_code":"CVL","state_name":"Centre-Val de Loire","country_id":75,"country_code":"FR","country_name":"France","latitude":"47.53600000","longitude":"2.03647000","wikiDataId":"Q1170112"},{"id":44663,"Name":"Nouzilly","state_id":4818,"state_code":"CVL","state_name":"Centre-Val de Loire","country_id":75,"country_code":"FR","country_name":"France","latitude":"47.54499000","longitude":"0.74623000","wikiDataId":"Q788866"},{"id":44679,"Name":"Noyers-sur-Cher","state_id":4818,"state_code":"CVL","state_name":"Centre-Val de Loire","country_id":75,"country_code":"FR","country_name":"France","latitude":"47.27701000","longitude":"1.40320000","wikiDataId":"Q1169994"},{"id":44733,"Name":"Olivet","state_id":4818,"state_code":"CVL","state_name":"Centre-Val de Loire","country_id":75,"country_code":"FR","country_name":"France","latitude":"47.86219000","longitude":"1.89910000","wikiDataId":"Q650588"},{"id":44746,"Name":"Onzain","state_id":4818,"state_code":"CVL","state_name":"Centre-Val de Loire","country_id":75,"country_code":"FR","country_name":"France","latitude":"47.49956000","longitude":"1.17701000","wikiDataId":"Q752907"},{"id":44767,"Name":"Orgères-en-Beauce","state_id":4818,"state_code":"CVL","state_name":"Centre-Val de Loire","country_id":75,"country_code":"FR","country_name":"France","latitude":"48.14636000","longitude":"1.68380000","wikiDataId":"Q269268"},{"id":44774,"Name":"Orléans","state_id":4818,"state_code":"CVL","state_name":"Centre-Val de Loire","country_id":75,"country_code":"FR","country_name":"France","latitude":"47.90289000","longitude":"1.90389000","wikiDataId":"Q6548"},{"id":44776,"Name":"Ormes","state_id":4818,"state_code":"CVL","state_name":"Centre-Val de Loire","country_id":75,"country_code":"FR","country_name":"France","latitude":"47.94152000","longitude":"1.81823000","wikiDataId":"Q6548"},{"id":44787,"Name":"Orval","state_id":4818,"state_code":"CVL","state_name":"Centre-Val de Loire","country_id":75,"country_code":"FR","country_name":"France","latitude":"46.72581000","longitude":"2.47144000","wikiDataId":"Q244248"},{"id":44802,"Name":"Oucques","state_id":4818,"state_code":"CVL","state_name":"Centre-Val de Loire","country_id":75,"country_code":"FR","country_name":"France","latitude":"47.82252000","longitude":"1.29383000","wikiDataId":"Q22434"},{"id":44806,"Name":"Oulins","state_id":4818,"state_code":"CVL","state_name":"Centre-Val de Loire","country_id":75,"country_code":"FR","country_name":"France","latitude":"48.86451000","longitude":"1.47038000","wikiDataId":"Q274825"},{"id":44812,"Name":"Outarville","state_id":4818,"state_code":"CVL","state_name":"Centre-Val de Loire","country_id":75,"country_code":"FR","country_name":"France","latitude":"48.21393000","longitude":"2.02198000","wikiDataId":"Q1378013"},{"id":44815,"Name":"Ouzouer-le-Marché","state_id":4818,"state_code":"CVL","state_name":"Centre-Val de Loire","country_id":75,"country_code":"FR","country_name":"France","latitude":"47.91055000","longitude":"1.52607000","wikiDataId":"Q1170125"},{"id":44816,"Name":"Ouzouer-sur-Loire","state_id":4818,"state_code":"CVL","state_name":"Centre-Val de Loire","country_id":75,"country_code":"FR","country_name":"France","latitude":"47.76638000","longitude":"2.48038000","wikiDataId":"Q1377364"},{"id":44817,"Name":"Ouzouer-sur-Trézée","state_id":4818,"state_code":"CVL","state_name":"Centre-Val de Loire","country_id":75,"country_code":"FR","country_name":"France","latitude":"47.67266000","longitude":"2.80800000","wikiDataId":"Q1470534"},{"id":44844,"Name":"Pannes","state_id":4818,"state_code":"CVL","state_name":"Centre-Val de Loire","country_id":75,"country_code":"FR","country_name":"France","latitude":"48.01937000","longitude":"2.66755000","wikiDataId":"Q735675"},{"id":44860,"Name":"Parçay-Meslay","state_id":4818,"state_code":"CVL","state_name":"Centre-Val de Loire","country_id":75,"country_code":"FR","country_name":"France","latitude":"47.44195000","longitude":"0.74847000","wikiDataId":"Q213315"},{"id":44866,"Name":"Patay","state_id":4818,"state_code":"CVL","state_name":"Centre-Val de Loire","country_id":75,"country_code":"FR","country_name":"France","latitude":"48.04833000","longitude":"1.69500000","wikiDataId":"Q388949"},{"id":44907,"Name":"Perrusson","state_id":4818,"state_code":"CVL","state_name":"Centre-Val de Loire","country_id":75,"country_code":"FR","country_name":"France","latitude":"47.09873000","longitude":"1.01438000","wikiDataId":"Q239943"},{"id":44962,"Name":"Pierres","state_id":4818,"state_code":"CVL","state_name":"Centre-Val de Loire","country_id":75,"country_code":"FR","country_name":"France","latitude":"48.59209000","longitude":"1.56444000","wikiDataId":"Q324027"},{"id":44984,"Name":"Pithiviers","state_id":4818,"state_code":"CVL","state_name":"Centre-Val de Loire","country_id":75,"country_code":"FR","country_name":"France","latitude":"48.17185000","longitude":"2.25185000","wikiDataId":"Q217159"},{"id":44985,"Name":"Pithiviers-le-Vieil","state_id":4818,"state_code":"CVL","state_name":"Centre-Val de Loire","country_id":75,"country_code":"FR","country_name":"France","latitude":"48.16313000","longitude":"2.20922000","wikiDataId":"Q217159"},{"id":44989,"Name":"Plaimpied-Givaudins","state_id":4818,"state_code":"CVL","state_name":"Centre-Val de Loire","country_id":75,"country_code":"FR","country_name":"France","latitude":"46.99800000","longitude":"2.45428000","wikiDataId":"Q1337799"},{"id":45131,"Name":"Pocé-sur-Cisse","state_id":4818,"state_code":"CVL","state_name":"Centre-Val de Loire","country_id":75,"country_code":"FR","country_name":"France","latitude":"47.44330000","longitude":"0.99142000","wikiDataId":"Q1170864"},{"id":45134,"Name":"Poilly-lez-Gien","state_id":4818,"state_code":"CVL","state_name":"Centre-Val de Loire","country_id":75,"country_code":"FR","country_name":"France","latitude":"47.67724000","longitude":"2.59743000","wikiDataId":"Q857961"},{"id":45212,"Name":"Pontlevoy","state_id":4818,"state_code":"CVL","state_name":"Centre-Val de Loire","country_id":75,"country_code":"FR","country_name":"France","latitude":"47.39002000","longitude":"1.25465000","wikiDataId":"Q266148"},{"id":45261,"Name":"Pouligny-Saint-Pierre","state_id":4818,"state_code":"CVL","state_name":"Centre-Val de Loire","country_id":75,"country_code":"FR","country_name":"France","latitude":"46.68095000","longitude":"1.03877000","wikiDataId":"Q616668"},{"id":45284,"Name":"Preuilly-sur-Claise","state_id":4818,"state_code":"CVL","state_name":"Centre-Val de Loire","country_id":75,"country_code":"FR","country_name":"France","latitude":"46.85424000","longitude":"0.92954000","wikiDataId":"Q680407"},{"id":45301,"Name":"Pruniers-en-Sologne","state_id":4818,"state_code":"CVL","state_name":"Centre-Val de Loire","country_id":75,"country_code":"FR","country_name":"France","latitude":"47.31667000","longitude":"1.66667000","wikiDataId":"Q752901"},{"id":45320,"Name":"Puiseaux","state_id":4818,"state_code":"CVL","state_name":"Centre-Val de Loire","country_id":75,"country_code":"FR","country_name":"France","latitude":"48.09234000","longitude":"2.05967000","wikiDataId":"Q1354628"},{"id":45385,"Name":"Quiers-sur-Bézonde","state_id":4818,"state_code":"CVL","state_name":"Centre-Val de Loire","country_id":75,"country_code":"FR","country_name":"France","latitude":"47.99615000","longitude":"2.44141000","wikiDataId":"Q128783"},{"id":45440,"Name":"Rebréchien","state_id":4818,"state_code":"CVL","state_name":"Centre-Val de Loire","country_id":75,"country_code":"FR","country_name":"France","latitude":"47.98727000","longitude":"2.04432000","wikiDataId":"Q840728"},{"id":45447,"Name":"Reignac-sur-Indre","state_id":4818,"state_code":"CVL","state_name":"Centre-Val de Loire","country_id":75,"country_code":"FR","country_name":"France","latitude":"47.22662000","longitude":"0.91587000","wikiDataId":"Q21346"},{"id":45465,"Name":"Restigné","state_id":4818,"state_code":"CVL","state_name":"Centre-Val de Loire","country_id":75,"country_code":"FR","country_name":"France","latitude":"47.28224000","longitude":"0.22788000","wikiDataId":"Q1356546"},{"id":45472,"Name":"Reugny","state_id":4818,"state_code":"CVL","state_name":"Centre-Val de Loire","country_id":75,"country_code":"FR","country_name":"France","latitude":"47.48208000","longitude":"0.88468000","wikiDataId":"Q264270"},{"id":45473,"Name":"Reuilly","state_id":4818,"state_code":"CVL","state_name":"Centre-Val de Loire","country_id":75,"country_code":"FR","country_name":"France","latitude":"47.08476000","longitude":"2.04305000","wikiDataId":"Q264270"},{"id":45487,"Name":"Rians","state_id":4818,"state_code":"CVL","state_name":"Centre-Val de Loire","country_id":75,"country_code":"FR","country_name":"France","latitude":"47.17875000","longitude":"2.61359000","wikiDataId":"Q595371"},{"id":45496,"Name":"Richelieu","state_id":4818,"state_code":"CVL","state_name":"Centre-Val de Loire","country_id":75,"country_code":"FR","country_name":"France","latitude":"47.01389000","longitude":"0.32406000","wikiDataId":"Q471581"},{"id":45543,"Name":"Rochecorbon","state_id":4818,"state_code":"CVL","state_name":"Centre-Val de Loire","country_id":75,"country_code":"FR","country_name":"France","latitude":"47.41658000","longitude":"0.75521000","wikiDataId":"Q693028"},{"id":45582,"Name":"Romorantin-Lanthenay","state_id":4818,"state_code":"CVL","state_name":"Centre-Val de Loire","country_id":75,"country_code":"FR","country_name":"France","latitude":"47.36667000","longitude":"1.75000000","wikiDataId":"Q214600"},{"id":45644,"Name":"Rouziers-de-Touraine","state_id":4818,"state_code":"CVL","state_name":"Centre-Val de Loire","country_id":75,"country_code":"FR","country_name":"France","latitude":"47.51720000","longitude":"0.64848000","wikiDataId":"Q632191"},{"id":45706,"Name":"Saché","state_id":4818,"state_code":"CVL","state_name":"Centre-Val de Loire","country_id":75,"country_code":"FR","country_name":"France","latitude":"47.24707000","longitude":"0.54455000","wikiDataId":"Q828635"},{"id":45732,"Name":"Saint-Aignan","state_id":4818,"state_code":"CVL","state_name":"Centre-Val de Loire","country_id":75,"country_code":"FR","country_name":"France","latitude":"47.26892000","longitude":"1.37614000","wikiDataId":"Q832394"},{"id":45741,"Name":"Saint-Amand-Longpré","state_id":4818,"state_code":"CVL","state_name":"Centre-Val de Loire","country_id":75,"country_code":"FR","country_name":"France","latitude":"47.68333000","longitude":"1.01667000","wikiDataId":"Q783530"},{"id":45742,"Name":"Saint-Amand-Montrond","state_id":4818,"state_code":"CVL","state_name":"Centre-Val de Loire","country_id":75,"country_code":"FR","country_name":"France","latitude":"46.72284000","longitude":"2.50494000","wikiDataId":"Q209109"},{"id":45772,"Name":"Saint-Antoine-du-Rocher","state_id":4818,"state_code":"CVL","state_name":"Centre-Val de Loire","country_id":75,"country_code":"FR","country_name":"France","latitude":"47.49677000","longitude":"0.62997000","wikiDataId":"Q178452"},{"id":45783,"Name":"Saint-Aubin-des-Bois","state_id":4818,"state_code":"CVL","state_name":"Centre-Val de Loire","country_id":75,"country_code":"FR","country_name":"France","latitude":"48.46549000","longitude":"1.35784000","wikiDataId":"Q539449"},{"id":45797,"Name":"Saint-Avertin","state_id":4818,"state_code":"CVL","state_name":"Centre-Val de Loire","country_id":75,"country_code":"FR","country_name":"France","latitude":"47.36357000","longitude":"0.73993000","wikiDataId":"Q932130"},{"id":45800,"Name":"Saint-Ay","state_id":4818,"state_code":"CVL","state_name":"Centre-Val de Loire","country_id":75,"country_code":"FR","country_name":"France","latitude":"47.85890000","longitude":"1.75137000","wikiDataId":"Q128043"},{"id":45812,"Name":"Saint-Benoît-sur-Loire","state_id":4818,"state_code":"CVL","state_name":"Centre-Val de Loire","country_id":75,"country_code":"FR","country_name":"France","latitude":"47.80561000","longitude":"2.31274000","wikiDataId":"Q144884"},{"id":45821,"Name":"Saint-Branchs","state_id":4818,"state_code":"CVL","state_name":"Centre-Val de Loire","country_id":75,"country_code":"FR","country_name":"France","latitude":"47.22655000","longitude":"0.77306000","wikiDataId":"Q1020792"},{"id":45832,"Name":"Saint-Brisson-sur-Loire","state_id":4818,"state_code":"CVL","state_name":"Centre-Val de Loire","country_id":75,"country_code":"FR","country_name":"France","latitude":"47.64686000","longitude":"2.68229000","wikiDataId":"Q1385151"},{"id":45859,"Name":"Saint-Christophe-sur-le-Nais","state_id":4818,"state_code":"CVL","state_name":"Centre-Val de Loire","country_id":75,"country_code":"FR","country_name":"France","latitude":"47.61720000","longitude":"0.47801000","wikiDataId":"Q1170846"},{"id":45867,"Name":"Saint-Claude-de-Diray","state_id":4818,"state_code":"CVL","state_name":"Centre-Val de Loire","country_id":75,"country_code":"FR","country_name":"France","latitude":"47.61651000","longitude":"1.41798000","wikiDataId":"Q540209"},{"id":45884,"Name":"Saint-Cyr-en-Val","state_id":4818,"state_code":"CVL","state_name":"Centre-Val de Loire","country_id":75,"country_code":"FR","country_name":"France","latitude":"47.83182000","longitude":"1.96672000","wikiDataId":"Q1423781"},{"id":45887,"Name":"Saint-Cyr-sur-Loire","state_id":4818,"state_code":"CVL","state_name":"Centre-Val de Loire","country_id":75,"country_code":"FR","country_name":"France","latitude":"47.40000000","longitude":"0.66667000","wikiDataId":"Q1068000"},{"id":45900,"Name":"Saint-Denis-en-Val","state_id":4818,"state_code":"CVL","state_name":"Centre-Val de Loire","country_id":75,"country_code":"FR","country_name":"France","latitude":"47.87321000","longitude":"1.96601000","wikiDataId":"Q853458"},{"id":45902,"Name":"Saint-Denis-les-Ponts","state_id":4818,"state_code":"CVL","state_name":"Centre-Val de Loire","country_id":75,"country_code":"FR","country_name":"France","latitude":"48.06692000","longitude":"1.29764000","wikiDataId":"Q853458"},{"id":45917,"Name":"Saint-Doulchard","state_id":4818,"state_code":"CVL","state_name":"Centre-Val de Loire","country_id":75,"country_code":"FR","country_name":"France","latitude":"47.10371000","longitude":"2.35200000","wikiDataId":"Q34427"},{"id":45919,"Name":"Saint-Dyé-sur-Loire","state_id":4818,"state_code":"CVL","state_name":"Centre-Val de Loire","country_id":75,"country_code":"FR","country_name":"France","latitude":"47.65595000","longitude":"1.48847000","wikiDataId":"Q829633"},{"id":46637,"Name":"Saint-Éloy-de-Gy","state_id":4818,"state_code":"CVL","state_name":"Centre-Val de Loire","country_id":75,"country_code":"FR","country_name":"France","latitude":"47.15552000","longitude":"2.34267000","wikiDataId":"Q207823"},{"id":46640,"Name":"Saint-Épain","state_id":4818,"state_code":"CVL","state_name":"Centre-Val de Loire","country_id":75,"country_code":"FR","country_name":"France","latitude":"47.14482000","longitude":"0.53668000","wikiDataId":"Q751795"},{"id":46644,"Name":"Saint-Étienne-de-Chigny","state_id":4818,"state_code":"CVL","state_name":"Centre-Val de Loire","country_id":75,"country_code":"FR","country_name":"France","latitude":"47.38333000","longitude":"0.53333000","wikiDataId":"Q279252"},{"id":45936,"Name":"Saint-Florent-sur-Cher","state_id":4818,"state_code":"CVL","state_name":"Centre-Val de Loire","country_id":75,"country_code":"FR","country_name":"France","latitude":"46.99552000","longitude":"2.25076000","wikiDataId":"Q1172299"},{"id":45952,"Name":"Saint-Gaultier","state_id":4818,"state_code":"CVL","state_name":"Centre-Val de Loire","country_id":75,"country_code":"FR","country_name":"France","latitude":"46.63518000","longitude":"1.41289000","wikiDataId":"Q627194"},{"id":45989,"Name":"Saint-Georges-sur-Cher","state_id":4818,"state_code":"CVL","state_name":"Centre-Val de Loire","country_id":75,"country_code":"FR","country_name":"France","latitude":"47.32996000","longitude":"1.13261000","wikiDataId":"Q1170542"},{"id":45990,"Name":"Saint-Georges-sur-Eure","state_id":4818,"state_code":"CVL","state_name":"Centre-Val de Loire","country_id":75,"country_code":"FR","country_name":"France","latitude":"48.41869000","longitude":"1.35460000","wikiDataId":"Q1170542"},{"id":46008,"Name":"Saint-Germain-des-Prés","state_id":4818,"state_code":"CVL","state_name":"Centre-Val de Loire","country_id":75,"country_code":"FR","country_name":"France","latitude":"47.95384000","longitude":"2.84846000","wikiDataId":"Q1366381"},{"id":46013,"Name":"Saint-Germain-du-Puy","state_id":4818,"state_code":"CVL","state_name":"Centre-Val de Loire","country_id":75,"country_code":"FR","country_name":"France","latitude":"47.10000000","longitude":"2.48333000","wikiDataId":"Q924210"},{"id":46028,"Name":"Saint-Gervais-la-Forêt","state_id":4818,"state_code":"CVL","state_name":"Centre-Val de Loire","country_id":75,"country_code":"FR","country_name":"France","latitude":"47.56705000","longitude":"1.35493000","wikiDataId":"Q900294"},{"id":46053,"Name":"Saint-Hilaire-Saint-Mesmin","state_id":4818,"state_code":"CVL","state_name":"Centre-Val de Loire","country_id":75,"country_code":"FR","country_name":"France","latitude":"47.86614000","longitude":"1.83351000","wikiDataId":"Q670702"},{"id":46089,"Name":"Saint-Jean-de-Braye","state_id":4818,"state_code":"CVL","state_name":"Centre-Val de Loire","country_id":75,"country_code":"FR","country_name":"France","latitude":"47.91303000","longitude":"1.97705000","wikiDataId":"Q787817"},{"id":46105,"Name":"Saint-Jean-de-la-Ruelle","state_id":4818,"state_code":"CVL","state_name":"Centre-Val de Loire","country_id":75,"country_code":"FR","country_name":"France","latitude":"47.91127000","longitude":"1.86483000","wikiDataId":"Q1423260"},{"id":46116,"Name":"Saint-Jean-le-Blanc","state_id":4818,"state_code":"CVL","state_name":"Centre-Val de Loire","country_id":75,"country_code":"FR","country_name":"France","latitude":"47.89327000","longitude":"1.91540000","wikiDataId":"Q128853"},{"id":46174,"Name":"Saint-Laurent-Nouan","state_id":4818,"state_code":"CVL","state_name":"Centre-Val de Loire","country_id":75,"country_code":"FR","country_name":"France","latitude":"47.71667000","longitude":"1.60000000","wikiDataId":"Q839446"},{"id":46202,"Name":"Saint-Lubin-des-Joncherets","state_id":4818,"state_code":"CVL","state_name":"Centre-Val de Loire","country_id":75,"country_code":"FR","country_name":"France","latitude":"48.76667000","longitude":"1.21667000","wikiDataId":"Q1138805"},{"id":46244,"Name":"Saint-Marcel","state_id":4818,"state_code":"CVL","state_name":"Centre-Val de Loire","country_id":75,"country_code":"FR","country_name":"France","latitude":"46.60193000","longitude":"1.51324000","wikiDataId":"Q903247"},{"id":46294,"Name":"Saint-Martin-d’Auxigny","state_id":4818,"state_code":"CVL","state_name":"Centre-Val de Loire","country_id":75,"country_code":"FR","country_name":"France","latitude":"47.20371000","longitude":"2.41553000","wikiDataId":"Q275313"},{"id":46275,"Name":"Saint-Martin-de-Nigelles","state_id":4818,"state_code":"CVL","state_name":"Centre-Val de Loire","country_id":75,"country_code":"FR","country_name":"France","latitude":"48.61234000","longitude":"1.60920000","wikiDataId":"Q898272"},{"id":46300,"Name":"Saint-Martin-le-Beau","state_id":4818,"state_code":"CVL","state_name":"Centre-Val de Loire","country_id":75,"country_code":"FR","country_name":"France","latitude":"47.35566000","longitude":"0.90953000","wikiDataId":"Q1105989"},{"id":46303,"Name":"Saint-Martin-sur-Ocre","state_id":4818,"state_code":"CVL","state_name":"Centre-Val de Loire","country_id":75,"country_code":"FR","country_name":"France","latitude":"47.65942000","longitude":"2.65810000","wikiDataId":"Q1105989"},{"id":46309,"Name":"Saint-Maur","state_id":4818,"state_code":"CVL","state_name":"Centre-Val de Loire","country_id":75,"country_code":"FR","country_name":"France","latitude":"46.80657000","longitude":"1.63904000","wikiDataId":"Q1136748"},{"id":46320,"Name":"Saint-Maurice-sur-Fessard","state_id":4818,"state_code":"CVL","state_name":"Centre-Val de Loire","country_id":75,"country_code":"FR","country_name":"France","latitude":"47.99231000","longitude":"2.62157000","wikiDataId":"Q1081575"},{"id":46363,"Name":"Saint-Nicolas-de-Bourgueil","state_id":4818,"state_code":"CVL","state_name":"Centre-Val de Loire","country_id":75,"country_code":"FR","country_name":"France","latitude":"47.28493000","longitude":"0.12727000","wikiDataId":"Q152027"},{"id":46377,"Name":"Saint-Ouen","state_id":4818,"state_code":"CVL","state_name":"Centre-Val de Loire","country_id":75,"country_code":"FR","country_name":"France","latitude":"47.81404000","longitude":"1.08067000","wikiDataId":"Q208889"},{"id":46399,"Name":"Saint-Paterne-Racan","state_id":4818,"state_code":"CVL","state_name":"Centre-Val de Loire","country_id":75,"country_code":"FR","country_name":"France","latitude":"47.60213000","longitude":"0.48478000","wikiDataId":"Q28087916"},{"id":46479,"Name":"Saint-Père-sur-Loire","state_id":4818,"state_code":"CVL","state_name":"Centre-Val de Loire","country_id":75,"country_code":"FR","country_name":"France","latitude":"47.76667000","longitude":"2.36667000","wikiDataId":"Q1065269"},{"id":46427,"Name":"Saint-Piat","state_id":4818,"state_code":"CVL","state_name":"Centre-Val de Loire","country_id":75,"country_code":"FR","country_name":"France","latitude":"48.54668000","longitude":"1.58363000","wikiDataId":"Q1113925"},{"id":46435,"Name":"Saint-Pierre-des-Corps","state_id":4818,"state_code":"CVL","state_name":"Centre-Val de Loire","country_id":75,"country_code":"FR","country_name":"France","latitude":"47.38623000","longitude":"0.74849000","wikiDataId":"Q1166085"},{"id":46463,"Name":"Saint-Prest","state_id":4818,"state_code":"CVL","state_name":"Centre-Val de Loire","country_id":75,"country_code":"FR","country_name":"France","latitude":"48.49107000","longitude":"1.53034000","wikiDataId":"Q750510"},{"id":46475,"Name":"Saint-Pryvé-Saint-Mesmin","state_id":4818,"state_code":"CVL","state_name":"Centre-Val de Loire","country_id":75,"country_code":"FR","country_name":"France","latitude":"47.88177000","longitude":"1.86950000","wikiDataId":"Q631952"},{"id":46515,"Name":"Saint-Rémy-sur-Avre","state_id":4818,"state_code":"CVL","state_name":"Centre-Val de Loire","country_id":75,"country_code":"FR","country_name":"France","latitude":"48.76143000","longitude":"1.24532000","wikiDataId":"Q794124"},{"id":46506,"Name":"Saint-Romain-sur-Cher","state_id":4818,"state_code":"CVL","state_name":"Centre-Val de Loire","country_id":75,"country_code":"FR","country_name":"France","latitude":"47.31877000","longitude":"1.39956000","wikiDataId":"Q1170212"},{"id":46518,"Name":"Saint-Satur","state_id":4818,"state_code":"CVL","state_name":"Centre-Val de Loire","country_id":75,"country_code":"FR","country_name":"France","latitude":"47.33914000","longitude":"2.83734000","wikiDataId":"Q1221447"},{"id":46562,"Name":"Saint-Sulpice-de-Pommeray","state_id":4818,"state_code":"CVL","state_name":"Centre-Val de Loire","country_id":75,"country_code":"FR","country_name":"France","latitude":"47.60000000","longitude":"1.26667000","wikiDataId":"Q1157245"},{"id":46622,"Name":"Saint-Viâtre","state_id":4818,"state_code":"CVL","state_name":"Centre-Val de Loire","country_id":75,"country_code":"FR","country_name":"France","latitude":"47.52438000","longitude":"1.93276000","wikiDataId":"Q1169940"},{"id":46692,"Name":"Sainte-Geneviève-des-Bois","state_id":4818,"state_code":"CVL","state_name":"Centre-Val de Loire","country_id":75,"country_code":"FR","country_name":"France","latitude":"47.81777000","longitude":"2.81652000","wikiDataId":"Q1385394"},{"id":46702,"Name":"Sainte-Lizaigne","state_id":4818,"state_code":"CVL","state_name":"Centre-Val de Loire","country_id":75,"country_code":"FR","country_name":"France","latitude":"47.00695000","longitude":"2.02266000","wikiDataId":"Q1136652"},{"id":46717,"Name":"Sainte-Maure-de-Touraine","state_id":4818,"state_code":"CVL","state_name":"Centre-Val de Loire","country_id":75,"country_code":"FR","country_name":"France","latitude":"47.11130000","longitude":"0.62236000","wikiDataId":"Q910030"},{"id":46727,"Name":"Sainte-Solange","state_id":4818,"state_code":"CVL","state_name":"Centre-Val de Loire","country_id":75,"country_code":"FR","country_name":"France","latitude":"47.13628000","longitude":"2.55019000","wikiDataId":"Q264579"},{"id":46743,"Name":"Salbris","state_id":4818,"state_code":"CVL","state_name":"Centre-Val de Loire","country_id":75,"country_code":"FR","country_name":"France","latitude":"47.42420000","longitude":"2.05124000","wikiDataId":"Q579654"},{"id":46781,"Name":"Sancerre","state_id":4818,"state_code":"CVL","state_name":"Centre-Val de Loire","country_id":75,"country_code":"FR","country_name":"France","latitude":"47.32889000","longitude":"2.83447000","wikiDataId":"Q459683"},{"id":46783,"Name":"Sancoins","state_id":4818,"state_code":"CVL","state_name":"Centre-Val de Loire","country_id":75,"country_code":"FR","country_name":"France","latitude":"46.83314000","longitude":"2.92238000","wikiDataId":"Q753096"},{"id":46786,"Name":"Sandillon","state_id":4818,"state_code":"CVL","state_name":"Centre-Val de Loire","country_id":75,"country_code":"FR","country_name":"France","latitude":"47.84510000","longitude":"2.03155000","wikiDataId":"Q1108198"},{"id":46801,"Name":"Saran","state_id":4818,"state_code":"CVL","state_name":"Centre-Val de Loire","country_id":75,"country_code":"FR","country_name":"France","latitude":"47.95013000","longitude":"1.87601000","wikiDataId":"Q665107"},{"id":46806,"Name":"Sargé-sur-Braye","state_id":4818,"state_code":"CVL","state_name":"Centre-Val de Loire","country_id":75,"country_code":"FR","country_name":"France","latitude":"47.92352000","longitude":"0.85340000","wikiDataId":"Q818047"},{"id":46855,"Name":"Saussay","state_id":4818,"state_code":"CVL","state_name":"Centre-Val de Loire","country_id":75,"country_code":"FR","country_name":"France","latitude":"48.85571000","longitude":"1.40889000","wikiDataId":"Q980365"},{"id":46885,"Name":"Savigné-sur-Lathan","state_id":4818,"state_code":"CVL","state_name":"Centre-Val de Loire","country_id":75,"country_code":"FR","country_name":"France","latitude":"47.44483000","longitude":"0.32093000","wikiDataId":"Q607158"},{"id":46878,"Name":"Savigny-en-Sancerre","state_id":4818,"state_code":"CVL","state_name":"Centre-Val de Loire","country_id":75,"country_code":"FR","country_name":"France","latitude":"47.44142000","longitude":"2.80953000","wikiDataId":"Q22741"},{"id":46879,"Name":"Savigny-en-Véron","state_id":4818,"state_code":"CVL","state_name":"Centre-Val de Loire","country_id":75,"country_code":"FR","country_name":"France","latitude":"47.20071000","longitude":"0.14457000","wikiDataId":"Q22741"},{"id":46882,"Name":"Savigny-sur-Braye","state_id":4818,"state_code":"CVL","state_name":"Centre-Val de Loire","country_id":75,"country_code":"FR","country_name":"France","latitude":"47.87923000","longitude":"0.80981000","wikiDataId":"Q1383584"},{"id":46887,"Name":"Savonnières","state_id":4818,"state_code":"CVL","state_name":"Centre-Val de Loire","country_id":75,"country_code":"FR","country_name":"France","latitude":"47.34769000","longitude":"0.54961000","wikiDataId":"Q748742"},{"id":46920,"Name":"Seigy","state_id":4818,"state_code":"CVL","state_name":"Centre-Val de Loire","country_id":75,"country_code":"FR","country_name":"France","latitude":"47.25688000","longitude":"1.39964000","wikiDataId":"Q1170052"},{"id":46930,"Name":"Selles-Saint-Denis","state_id":4818,"state_code":"CVL","state_name":"Centre-Val de Loire","country_id":75,"country_code":"FR","country_name":"France","latitude":"47.38695000","longitude":"1.92295000","wikiDataId":"Q12753"},{"id":46931,"Name":"Selles-sur-Cher","state_id":4818,"state_code":"CVL","state_name":"Centre-Val de Loire","country_id":75,"country_code":"FR","country_name":"France","latitude":"47.27904000","longitude":"1.55387000","wikiDataId":"Q832386"},{"id":46936,"Name":"Semblançay","state_id":4818,"state_code":"CVL","state_name":"Centre-Val de Loire","country_id":75,"country_code":"FR","country_name":"France","latitude":"47.50000000","longitude":"0.58333000","wikiDataId":"Q1876051"},