[{"id":89886,"Name":"Adânca","state_id":4745,"state_code":"DB","state_name":"Dâmbovița County","country_id":181,"country_code":"RO","country_name":"Romania","latitude":"44.92250000","longitude":"25.61005000","wikiDataId":"Q12076797"},{"id":89966,"Name":"Aninoasa","state_id":4745,"state_code":"DB","state_name":"Dâmbovița County","country_id":181,"country_code":"RO","country_name":"Romania","latitude":"44.96667000","longitude":"25.43333000","wikiDataId":"Q12078782"},{"id":90481,"Name":"Bădeni","state_id":4745,"state_code":"DB","state_name":"Dâmbovița County","country_id":181,"country_code":"RO","country_name":"Romania","latitude":"45.15272000","longitude":"25.40263000","wikiDataId":"Q12081460"},{"id":90440,"Name":"Bâldana","state_id":4745,"state_code":"DB","state_name":"Dâmbovița County","country_id":181,"country_code":"RO","country_name":"Romania","latitude":"44.60300000","longitude":"25.77836000","wikiDataId":"Q12082578"},{"id":90509,"Name":"Băleni Sârbi","state_id":4745,"state_code":"DB","state_name":"Dâmbovița County","country_id":181,"country_code":"RO","country_name":"Romania","latitude":"44.81667000","longitude":"25.63333000","wikiDataId":"Q12081742"},{"id":90516,"Name":"Bălteni","state_id":4745,"state_code":"DB","state_name":"Dâmbovița County","country_id":181,"country_code":"RO","country_name":"Romania","latitude":"44.66488000","longitude":"25.69339000","wikiDataId":"Q12081784"},{"id":90538,"Name":"Bărbuleţu","state_id":4745,"state_code":"DB","state_name":"Dâmbovița County","country_id":181,"country_code":"RO","country_name":"Romania","latitude":"45.13333000","longitude":"25.30000000","wikiDataId":"Q12081963"},{"id":90122,"Name":"Bezdead","state_id":4745,"state_code":"DB","state_name":"Dâmbovița County","country_id":181,"country_code":"RO","country_name":"Romania","latitude":"45.15000000","longitude":"25.51667000","wikiDataId":"Q12081529"},{"id":90136,"Name":"Bilciureşti","state_id":4745,"state_code":"DB","state_name":"Dâmbovița County","country_id":181,"country_code":"RO","country_name":"Romania","latitude":"44.73333000","longitude":"25.80000000","wikiDataId":"Q12086846"},{"id":90335,"Name":"Brăneşti","state_id":4745,"state_code":"DB","state_name":"Dâmbovița County","country_id":181,"country_code":"RO","country_name":"Romania","latitude":"45.03333000","longitude":"25.41667000","wikiDataId":"Q12084777"},{"id":90269,"Name":"Braniştea","state_id":4745,"state_code":"DB","state_name":"Dâmbovița County","country_id":181,"country_code":"RO","country_name":"Romania","latitude":"44.68333000","longitude":"25.58333000","wikiDataId":"Q12084583"},{"id":90301,"Name":"Brezoaele","state_id":4745,"state_code":"DB","state_name":"Dâmbovița County","country_id":181,"country_code":"RO","country_name":"Romania","latitude":"44.58333000","longitude":"25.73333000","wikiDataId":"Q5069916"},{"id":90302,"Name":"Brezoaia","state_id":4745,"state_code":"DB","state_name":"Dâmbovița County","country_id":181,"country_code":"RO","country_name":"Romania","latitude":"44.55683000","longitude":"25.78527000","wikiDataId":"Q12084756"},{"id":90312,"Name":"Broșteni","state_id":4745,"state_code":"DB","state_name":"Dâmbovița County","country_id":181,"country_code":"RO","country_name":"Romania","latitude":"44.72053000","longitude":"25.50935000","wikiDataId":"Q12085023"},{"id":90354,"Name":"Buciumeni","state_id":4745,"state_code":"DB","state_name":"Dâmbovița County","country_id":181,"country_code":"RO","country_name":"Romania","latitude":"45.15000000","longitude":"25.45000000","wikiDataId":"Q12086085"},{"id":90366,"Name":"Bucşani","state_id":4745,"state_code":"DB","state_name":"Dâmbovița County","country_id":181,"country_code":"RO","country_name":"Romania","latitude":"44.86667000","longitude":"25.65000000","wikiDataId":"Q12085543"},{"id":90412,"Name":"Bungetu","state_id":4745,"state_code":"DB","state_name":"Dâmbovița County","country_id":181,"country_code":"RO","country_name":"Romania","latitude":"44.84323000","longitude":"25.53816000","wikiDataId":"Q12085641"},{"id":90427,"Name":"Butimanu","state_id":4745,"state_code":"DB","state_name":"Dâmbovița County","country_id":181,"country_code":"RO","country_name":"Romania","latitude":"44.68333000","longitude":"25.90000000","wikiDataId":"Q12085977"},{"id":93808,"Name":"Cândeşti Vale","state_id":4745,"state_code":"DB","state_name":"Dâmbovița County","country_id":181,"country_code":"RO","country_name":"Romania","latitude":"45.08333000","longitude":"25.21667000","wikiDataId":"Q12109861"},{"id":93860,"Name":"Căprioru","state_id":4745,"state_code":"DB","state_name":"Dâmbovița County","country_id":181,"country_code":"RO","country_name":"Romania","latitude":"44.98236000","longitude":"25.28116000","wikiDataId":"Q12109601"},{"id":90593,"Name":"Cazaci","state_id":4745,"state_code":"DB","state_name":"Dâmbovița County","country_id":181,"country_code":"RO","country_name":"Romania","latitude":"44.80152000","longitude":"25.55405000","wikiDataId":"Q12107646"},{"id":90713,"Name":"Ciocănari","state_id":4745,"state_code":"DB","state_name":"Dâmbovița County","country_id":181,"country_code":"RO","country_name":"Romania","latitude":"44.69770000","longitude":"25.97717000","wikiDataId":"Q12170407"},{"id":90715,"Name":"Ciocăneşti","state_id":4745,"state_code":"DB","state_name":"Dâmbovița County","country_id":181,"country_code":"RO","country_name":"Romania","latitude":"44.60000000","longitude":"25.85000000","wikiDataId":"Q12170411"},{"id":90789,"Name":"Cojasca","state_id":4745,"state_code":"DB","state_name":"Dâmbovița County","country_id":181,"country_code":"RO","country_name":"Romania","latitude":"44.71667000","longitude":"25.85000000","wikiDataId":"Q2621219"},{"id":90791,"Name":"Colacu","state_id":4745,"state_code":"DB","state_name":"Dâmbovița County","country_id":181,"country_code":"RO","country_name":"Romania","latitude":"44.66895000","longitude":"25.75881000","wikiDataId":"Q267692"},{"id":90813,"Name":"Comişani","state_id":4745,"state_code":"DB","state_name":"Dâmbovița County","country_id":181,"country_code":"RO","country_name":"Romania","latitude":"44.88333000","longitude":"25.58333000","wikiDataId":"Q3726347"},{"id":90874,"Name":"Comuna Aninoasa","state_id":4745,"state_code":"DB","state_name":"Dâmbovița County","country_id":181,"country_code":"RO","country_name":"Romania","latitude":"44.96863000","longitude":"25.43802000","wikiDataId":"Q2621232"},{"id":91214,"Name":"Comuna Băleni Sârbi","state_id":4745,"state_code":"DB","state_name":"Dâmbovița County","country_id":181,"country_code":"RO","country_name":"Romania","latitude":"44.82017000","longitude":"25.64756000","wikiDataId":"Q1021953"},{"id":91237,"Name":"Comuna Bărbuleţu","state_id":4745,"state_code":"DB","state_name":"Dâmbovița County","country_id":181,"country_code":"RO","country_name":"Romania","latitude":"45.14196000","longitude":"25.29771000","wikiDataId":"Q1866531"},{"id":90980,"Name":"Comuna Bezdead","state_id":4745,"state_code":"DB","state_name":"Dâmbovița County","country_id":181,"country_code":"RO","country_name":"Romania","latitude":"45.13705000","longitude":"25.49476000","wikiDataId":"Q2246098"},{"id":90989,"Name":"Comuna Bilciureşti","state_id":4745,"state_code":"DB","state_name":"Dâmbovița County","country_id":181,"country_code":"RO","country_name":"Romania","latitude":"44.74770000","longitude":"25.80621000","wikiDataId":"Q2621160"},{"id":91122,"Name":"Comuna Brăneşti","state_id":4745,"state_code":"DB","state_name":"Dâmbovița County","country_id":181,"country_code":"RO","country_name":"Romania","latitude":"45.03430000","longitude":"25.42253000","wikiDataId":"Q2294906"},{"id":91079,"Name":"Comuna Braniştea","state_id":4745,"state_code":"DB","state_name":"Dâmbovița County","country_id":181,"country_code":"RO","country_name":"Romania","latitude":"44.68134000","longitude":"25.58387000","wikiDataId":"Q1810502"},{"id":91099,"Name":"Comuna Brezoaele","state_id":4745,"state_code":"DB","state_name":"Dâmbovița County","country_id":181,"country_code":"RO","country_name":"Romania","latitude":"44.56647000","longitude":"25.76664000","wikiDataId":"Q2717032"},{"id":91130,"Name":"Comuna Buciumeni","state_id":4745,"state_code":"DB","state_name":"Dâmbovița County","country_id":181,"country_code":"RO","country_name":"Romania","latitude":"45.15902000","longitude":"25.46392000","wikiDataId":"Q2044959"},{"id":91140,"Name":"Comuna Bucşani","state_id":4745,"state_code":"DB","state_name":"Dâmbovița County","country_id":181,"country_code":"RO","country_name":"Romania","latitude":"44.85270000","longitude":"25.64561000","wikiDataId":"Q2307890"},{"id":91175,"Name":"Comuna Butimanu","state_id":4745,"state_code":"DB","state_name":"Dâmbovița County","country_id":181,"country_code":"RO","country_name":"Romania","latitude":"44.68680000","longitude":"25.90535000","wikiDataId":"Q728812"},{"id":91548,"Name":"Comuna Cândeşti Vale","state_id":4745,"state_code":"DB","state_name":"Dâmbovița County","country_id":181,"country_code":"RO","country_name":"Romania","latitude":"45.06660000","longitude":"25.20455000","wikiDataId":"Q608081"},{"id":91346,"Name":"Comuna Ciocăneşti","state_id":4745,"state_code":"DB","state_name":"Dâmbovița County","country_id":181,"country_code":"RO","country_name":"Romania","latitude":"44.62136000","longitude":"25.84490000","wikiDataId":"Q2717170"},{"id":91385,"Name":"Comuna Cobia de Sus","state_id":4745,"state_code":"DB","state_name":"Dâmbovița County","country_id":181,"country_code":"RO","country_name":"Romania","latitude":"44.81197000","longitude":"25.33463000","wikiDataId":"Q2717200"},{"id":91394,"Name":"Comuna Cojasca","state_id":4745,"state_code":"DB","state_name":"Dâmbovița County","country_id":181,"country_code":"RO","country_name":"Romania","latitude":"44.71855000","longitude":"25.85566000","wikiDataId":"Q16426357"},{"id":91408,"Name":"Comuna Comişani","state_id":4745,"state_code":"DB","state_name":"Dâmbovița County","country_id":181,"country_code":"RO","country_name":"Romania","latitude":"44.87528000","longitude":"25.57009000","wikiDataId":"Q766631"},{"id":91414,"Name":"Comuna Conţeşti","state_id":4745,"state_code":"DB","state_name":"Dâmbovița County","country_id":181,"country_code":"RO","country_name":"Romania","latitude":"44.67875000","longitude":"25.67330000","wikiDataId":"Q16426360"},{"id":91426,"Name":"Comuna Corbii Mari","state_id":4745,"state_code":"DB","state_name":"Dâmbovița County","country_id":181,"country_code":"RO","country_name":"Romania","latitude":"44.55671000","longitude":"25.48060000","wikiDataId":"Q921656"},{"id":91444,"Name":"Comuna Cornăţelu","state_id":4745,"state_code":"DB","state_name":"Dâmbovița County","country_id":181,"country_code":"RO","country_name":"Romania","latitude":"44.73080000","longitude":"25.68640000","wikiDataId":"Q2621208"},{"id":91439,"Name":"Comuna Corneşti","state_id":4745,"state_code":"DB","state_name":"Dâmbovița County","country_id":181,"country_code":"RO","country_name":"Romania","latitude":"44.77121000","longitude":"25.88722000","wikiDataId":"Q2326320"},{"id":91458,"Name":"Comuna Costeştii din Vale","state_id":4745,"state_code":"DB","state_name":"Dâmbovița County","country_id":181,"country_code":"RO","country_name":"Romania","latitude":"44.64096000","longitude":"25.50153000","wikiDataId":"Q949064"},{"id":91515,"Name":"Comuna Crângurile","state_id":4745,"state_code":"DB","state_name":"Dâmbovița County","country_id":181,"country_code":"RO","country_name":"Romania","latitude":"44.74277000","longitude":"25.24062000","wikiDataId":"Q2043137"},{"id":91489,"Name":"Comuna Crevedia","state_id":4745,"state_code":"DB","state_name":"Dâmbovița County","country_id":181,"country_code":"RO","country_name":"Romania","latitude":"44.59787000","longitude":"25.92260000","wikiDataId":"Q5069985"},{"id":91745,"Name":"Comuna Dărmăneşti","state_id":4745,"state_code":"DB","state_name":"Dâmbovița County","country_id":181,"country_code":"RO","country_name":"Romania","latitude":"44.92476000","longitude":"25.76145000","wikiDataId":"Q2263971"},{"id":91632,"Name":"Comuna Dobra","state_id":4745,"state_code":"DB","state_name":"Dâmbovița County","country_id":181,"country_code":"RO","country_name":"Romania","latitude":"44.79586000","longitude":"25.71297000","wikiDataId":"Q2342848"},{"id":91653,"Name":"Comuna Doiceşti","state_id":4745,"state_code":"DB","state_name":"Dâmbovița County","country_id":181,"country_code":"RO","country_name":"Romania","latitude":"44.99144000","longitude":"25.40073000","wikiDataId":"Q2621726"},{"id":91671,"Name":"Comuna Dragodana","state_id":4745,"state_code":"DB","state_name":"Dâmbovița County","country_id":181,"country_code":"RO","country_name":"Romania","latitude":"44.75892000","longitude":"25.38433000","wikiDataId":"Q2760038"},{"id":91673,"Name":"Comuna Dragomireşti","state_id":4745,"state_code":"DB","state_name":"Dâmbovița County","country_id":181,"country_code":"RO","country_name":"Romania","latitude":"44.89354000","longitude":"25.36611000","wikiDataId":"Q2156383"},{"id":91767,"Name":"Comuna Finta","state_id":4745,"state_code":"DB","state_name":"Dâmbovița County","country_id":181,"country_code":"RO","country_name":"Romania","latitude":"44.79370000","longitude":"25.79926000","wikiDataId":"Q1418421"},{"id":91883,"Name":"Comuna Glodeni","state_id":4745,"state_code":"DB","state_name":"Dâmbovița County","country_id":181,"country_code":"RO","country_name":"Romania","latitude":"45.01930000","longitude":"25.45913000","wikiDataId":"Q2325907"},{"id":91947,"Name":"Comuna Gura Foii","state_id":4745,"state_code":"DB","state_name":"Dâmbovița County","country_id":181,"country_code":"RO","country_name":"Romania","latitude":"44.75712000","longitude":"25.29852000","wikiDataId":"Q2621936"},{"id":91949,"Name":"Comuna Gura Ocniţei","state_id":4745,"state_code":"DB","state_name":"Dâmbovița County","country_id":181,"country_code":"RO","country_name":"Romania","latitude":"44.93449000","longitude":"25.57419000","wikiDataId":"Q1869468"},{"id":91956,"Name":"Comuna Gura Şuţii","state_id":4745,"state_code":"DB","state_name":"Dâmbovița County","country_id":181,"country_code":"RO","country_name":"Romania","latitude":"44.76161000","longitude":"25.47575000","wikiDataId":"Q2556810"},{"id":92027,"Name":"Comuna Hulubeşti","state_id":4745,"state_code":"DB","state_name":"Dâmbovița County","country_id":181,"country_code":"RO","country_name":"Romania","latitude":"44.84204000","longitude":"25.26253000","wikiDataId":"Q12168008"},{"id":92047,"Name":"Comuna I. L. Caragiale","state_id":4745,"state_code":"DB","state_name":"Dâmbovița County","country_id":181,"country_code":"RO","country_name":"Romania","latitude":"44.92189000","longitude":"25.68409000","wikiDataId":"Q2005478"},{"id":92063,"Name":"Comuna Iedera","state_id":4745,"state_code":"DB","state_name":"Dâmbovița County","country_id":181,"country_code":"RO","country_name":"Romania","latitude":"45.03333000","longitude":"25.63333000","wikiDataId":"Q2473449"},{"id":92188,"Name":"Comuna Lucieni","state_id":4745,"state_code":"DB","state_name":"Dâmbovița County","country_id":181,"country_code":"RO","country_name":"Romania","latitude":"44.84766000","longitude":"25.41990000","wikiDataId":"Q2540310"},{"id":92190,"Name":"Comuna Ludeşti","state_id":4745,"state_code":"DB","state_name":"Dâmbovița County","country_id":181,"country_code":"RO","country_name":"Romania","latitude":"44.90396000","longitude":"25.22557000","wikiDataId":"Q948622"},{"id":92213,"Name":"Comuna Lunguleţu","state_id":4745,"state_code":"DB","state_name":"Dâmbovița County","country_id":181,"country_code":"RO","country_name":"Romania","latitude":"44.61601000","longitude":"25.64340000","wikiDataId":"Q2314919"},{"id":92237,"Name":"Comuna Malu cu Flori","state_id":4745,"state_code":"DB","state_name":"Dâmbovița County","country_id":181,"country_code":"RO","country_name":"Romania","latitude":"45.15617000","longitude":"25.22589000","wikiDataId":"Q5070075"},{"id":92403,"Name":"Comuna Măneşti","state_id":4745,"state_code":"DB","state_name":"Dâmbovița County","country_id":181,"country_code":"RO","country_name":"Romania","latitude":"44.95033000","longitude":"25.30034000","wikiDataId":"Q2868630"},{"id":92420,"Name":"Comuna Mătăsaru","state_id":4745,"state_code":"DB","state_name":"Dâmbovița County","country_id":181,"country_code":"RO","country_name":"Romania","latitude":"44.67584000","longitude":"25.44365000","wikiDataId":"Q2607304"},{"id":92318,"Name":"Comuna Mogoşani","state_id":4745,"state_code":"DB","state_name":"Dâmbovița County","country_id":181,"country_code":"RO","country_name":"Romania","latitude":"44.68319000","longitude":"25.38774000","wikiDataId":"Q2384649"},{"id":92332,"Name":"Comuna Moroeni","state_id":4745,"state_code":"DB","state_name":"Dâmbovița County","country_id":181,"country_code":"RO","country_name":"Romania","latitude":"45.23406000","longitude":"25.44468000","wikiDataId":"Q2606852"},{"id":92333,"Name":"Comuna Morteni","state_id":4745,"state_code":"DB","state_name":"Dâmbovița County","country_id":181,"country_code":"RO","country_name":"Romania","latitude":"44.66221000","longitude":"25.25208000","wikiDataId":"Q11141348"},{"id":92352,"Name":"Comuna Moţãieni","state_id":4745,"state_code":"DB","state_name":"Dâmbovița County","country_id":181,"country_code":"RO","country_name":"Romania","latitude":"45.10631000","longitude":"25.41045000","wikiDataId":"Q371693"},{"id":92445,"Name":"Comuna Niculeşti","state_id":4745,"state_code":"DB","state_name":"Dâmbovița County","country_id":181,"country_code":"RO","country_name":"Romania","latitude":"44.68664000","longitude":"25.96350000","wikiDataId":"Q2467603"},{"id":92454,"Name":"Comuna Nucet","state_id":4745,"state_code":"DB","state_name":"Dâmbovița County","country_id":181,"country_code":"RO","country_name":"Romania","latitude":"44.80328000","longitude":"25.55434000","wikiDataId":"Q10292752"},{"id":92479,"Name":"Comuna Ocniţa","state_id":4745,"state_code":"DB","state_name":"Dâmbovița County","country_id":181,"country_code":"RO","country_name":"Romania","latitude":"44.99011000","longitude":"25.55591000","wikiDataId":"Q16426376"},{"id":92481,"Name":"Comuna Odobeşti","state_id":4745,"state_code":"DB","state_name":"Dâmbovița County","country_id":181,"country_code":"RO","country_name":"Romania","latitude":"44.59883000","longitude":"25.54082000","wikiDataId":"Q2509956"},{"id":92557,"Name":"Comuna Perşinari","state_id":4745,"state_code":"DB","state_name":"Dâmbovița County","country_id":181,"country_code":"RO","country_name":"Romania","latitude":"44.80185000","longitude":"25.49880000","wikiDataId":"Q2538229"},{"id":92563,"Name":"Comuna Petreşti","state_id":4745,"state_code":"DB","state_name":"Dâmbovița County","country_id":181,"country_code":"RO","country_name":"Romania","latitude":"44.66761000","longitude":"25.31458000","wikiDataId":"Q1912804"},{"id":92576,"Name":"Comuna Pietrari","state_id":4745,"state_code":"DB","state_name":"Dâmbovița County","country_id":181,"country_code":"RO","country_name":"Romania","latitude":"45.10034000","longitude":"25.29356000","wikiDataId":"Q2288693"},{"id":92583,"Name":"Comuna Pietroşiţa","state_id":4745,"state_code":"DB","state_name":"Dâmbovița County","country_id":181,"country_code":"RO","country_name":"Romania","latitude":"45.18773000","longitude":"25.42828000","wikiDataId":"Q5071076"},{"id":92623,"Name":"Comuna Poiana","state_id":4745,"state_code":"DB","state_name":"Dâmbovița County","country_id":181,"country_code":"RO","country_name":"Romania","latitude":"44.57429000","longitude":"25.67684000","wikiDataId":"Q1483885"},{"id":92665,"Name":"Comuna Potlogi","state_id":4745,"state_code":"DB","state_name":"Dâmbovița County","country_id":181,"country_code":"RO","country_name":"Romania","latitude":"44.57362000","longitude":"25.60164000","wikiDataId":"Q968375"},{"id":92681,"Name":"Comuna Produleşti","state_id":4745,"state_code":"DB","state_name":"Dâmbovița County","country_id":181,"country_code":"RO","country_name":"Romania","latitude":"44.70336000","longitude":"25.50466000","wikiDataId":"Q2335080"},{"id":92690,"Name":"Comuna Pucheni","state_id":4745,"state_code":"DB","state_name":"Dâmbovița County","country_id":181,"country_code":"RO","country_name":"Romania","latitude":"45.18211000","longitude":"25.26926000","wikiDataId":"Q1971487"},{"id":92732,"Name":"Comuna Raciu","state_id":4745,"state_code":"DB","state_name":"Dâmbovița County","country_id":181,"country_code":"RO","country_name":"Romania","latitude":"44.81644000","longitude":"25.43460000","wikiDataId":"Q2288716"},{"id":92847,"Name":"Comuna Răscăeţi","state_id":4745,"state_code":"DB","state_name":"Dâmbovița County","country_id":181,"country_code":"RO","country_name":"Romania","latitude":"44.59760000","longitude":"25.25621000","wikiDataId":"Q2539218"},{"id":92825,"Name":"Comuna Râu Alb","state_id":4745,"state_code":"DB","state_name":"Dâmbovița County","country_id":181,"country_code":"RO","country_name":"Romania","latitude":"45.14850000","longitude":"25.33714000","wikiDataId":"Q2538282"},{"id":92833,"Name":"Comuna Rãzvad","state_id":4745,"state_code":"DB","state_name":"Dâmbovița County","country_id":181,"country_code":"RO","country_name":"Romania","latitude":"44.93588000","longitude":"25.52914000","wikiDataId":"Q2606057"},{"id":92811,"Name":"Comuna Runcu","state_id":4745,"state_code":"DB","state_name":"Dâmbovița County","country_id":181,"country_code":"RO","country_name":"Romania","latitude":"45.17702000","longitude":"25.38533000","wikiDataId":"Q2443642"},{"id":93094,"Name":"Comuna Sălcioara","state_id":4745,"state_code":"DB","state_name":"Dâmbovița County","country_id":181,"country_code":"RO","country_name":"Romania","latitude":"44.73645000","longitude":"25.57411000","wikiDataId":"Q1929392"},{"id":93504,"Name":"Comuna Şelaru","state_id":4745,"state_code":"DB","state_name":"Dâmbovița County","country_id":181,"country_code":"RO","country_name":"Romania","latitude":"44.48705000","longitude":"25.31294000","wikiDataId":"Q5069631"},{"id":92957,"Name":"Comuna Slobozia Moara","state_id":4745,"state_code":"DB","state_name":"Dâmbovița County","country_id":181,"country_code":"RO","country_name":"Romania","latitude":"44.59865000","longitude":"25.73126000","wikiDataId":"Q16426386"},{"id":93544,"Name":"Comuna Şotânga","state_id":4745,"state_code":"DB","state_name":"Dâmbovița County","country_id":181,"country_code":"RO","country_name":"Romania","latitude":"44.98544000","longitude":"25.38254000","wikiDataId":"Q2717089"},{"id":93241,"Name":"Comuna Tărtăşeşti","state_id":4745,"state_code":"DB","state_name":"Dâmbovița County","country_id":181,"country_code":"RO","country_name":"Romania","latitude":"44.57674000","longitude":"25.82134000","wikiDataId":"Q2310564"},{"id":93244,"Name":"Comuna Tătărani","state_id":4745,"state_code":"DB","state_name":"Dâmbovița County","country_id":181,"country_code":"RO","country_name":"Romania","latitude":"45.00067000","longitude":"25.27998000","wikiDataId":"Q675216"},{"id":93258,"Name":"Comuna Ulieşti","state_id":4745,"state_code":"DB","state_name":"Dâmbovița County","country_id":181,"country_code":"RO","country_name":"Romania","latitude":"44.60160000","longitude":"25.40770000","wikiDataId":"Q2113921"},{"id":93262,"Name":"Comuna Ulmi","state_id":4745,"state_code":"DB","state_name":"Dâmbovița County","country_id":181,"country_code":"RO","country_name":"Romania","latitude":"44.89030000","longitude":"25.44376000","wikiDataId":"Q2606085"},{"id":93452,"Name":"Comuna Văcăreşti","state_id":4745,"state_code":"DB","state_name":"Dâmbovița County","country_id":181,"country_code":"RO","country_name":"Romania","latitude":"44.84041000","longitude":"25.51989000","wikiDataId":"Q2491180"},{"id":93309,"Name":"Comuna Valea Lungă","state_id":4745,"state_code":"DB","state_name":"Dâmbovița County","country_id":181,"country_code":"RO","country_name":"Romania","latitude":"45.06978000","longitude":"25.56993000","wikiDataId":"Q2180258"},{"id":93313,"Name":"Comuna Valea Mare","state_id":4745,"state_code":"DB","state_name":"Dâmbovița County","country_id":181,"country_code":"RO","country_name":"Romania","latitude":"44.79383000","longitude":"25.23292000","wikiDataId":"Q2026917"},{"id":93460,"Name":"Comuna Văleni-Dâmboviţa","state_id":4745,"state_code":"DB","state_name":"Dâmbovița County","country_id":181,"country_code":"RO","country_name":"Romania","latitude":"45.17593000","longitude":"25.17678000","wikiDataId":"Q2717204"},{"id":93440,"Name":"Comuna Vârfuri","state_id":4745,"state_code":"DB","state_name":"Dâmbovița County","country_id":181,"country_code":"RO","country_name":"Romania","latitude":"45.09555000","longitude":"25.50712000","wikiDataId":"Q736046"},{"id":93376,"Name":"Comuna Vişina","state_id":4745,"state_code":"DB","state_name":"Dâmbovița County","country_id":181,"country_code":"RO","country_name":"Romania","latitude":"44.60194000","longitude":"25.35218000","wikiDataId":"Q2697087"},{"id":93379,"Name":"Comuna Vişineşti","state_id":4745,"state_code":"DB","state_name":"Dâmbovița County","country_id":181,"country_code":"RO","country_name":"Romania","latitude":"45.11256000","longitude":"25.56815000","wikiDataId":"Q648618"},{"id":93387,"Name":"Comuna Vlădeni","state_id":4745,"state_code":"DB","state_name":"Dâmbovița County","country_id":181,"country_code":"RO","country_name":"Romania","latitude":"44.87550000","longitude":"25.77318000","wikiDataId":"Q1159701"},{"id":93398,"Name":"Comuna Voineşti","state_id":4745,"state_code":"DB","state_name":"Dâmbovița County","country_id":181,"country_code":"RO","country_name":"Romania","latitude":"45.06986000","longitude":"25.26072000","wikiDataId":"Q606235"},{"id":93413,"Name":"Comuna Vulcana Băi","state_id":4745,"state_code":"DB","state_name":"Dâmbovița County","country_id":181,"country_code":"RO","country_name":"Romania","latitude":"45.07910000","longitude":"25.38219000","wikiDataId":"Q2012352"},{"id":93414,"Name":"Comuna Vulcana-Pandele","state_id":4745,"state_code":"DB","state_name":"Dâmbovița County","country_id":181,"country_code":"RO","country_name":"Romania","latitude":"45.02165000","longitude":"25.39888000","wikiDataId":"Q2539387"},{"id":93597,"Name":"Conțești","state_id":4745,"state_code":"DB","state_name":"Dâmbovița County","country_id":181,"country_code":"RO","country_name":"Romania","latitude":"44.68518000","longitude":"25.63879000","wikiDataId":"Q1984334"},{"id":93615,"Name":"Corbii Mari","state_id":4745,"state_code":"DB","state_name":"Dâmbovița County","country_id":181,"country_code":"RO","country_name":"Romania","latitude":"44.55000000","longitude":"25.50000000","wikiDataId":"Q12112769"},{"id":93643,"Name":"Cornăţelu","state_id":4745,"state_code":"DB","state_name":"Dâmbovița County","country_id":181,"country_code":"RO","country_name":"Romania","latitude":"44.75000000","longitude":"25.66667000","wikiDataId":"Q12112997"},{"id":93635,"Name":"Corneşti","state_id":4745,"state_code":"DB","state_name":"Dâmbovița County","country_id":181,"country_code":"RO","country_name":"Romania","latitude":"44.78333000","longitude":"25.86667000","wikiDataId":"Q3732642"},{"id":93666,"Name":"Costeștii din Deal","state_id":4745,"state_code":"DB","state_name":"Dâmbovița County","country_id":181,"country_code":"RO","country_name":"Romania","latitude":"44.68132000","longitude":"25.48938000","wikiDataId":"Q12113572"},{"id":93662,"Name":"Costeştii din Vale","state_id":4745,"state_code":"DB","state_name":"Dâmbovița County","country_id":181,"country_code":"RO","country_name":"Romania","latitude":"44.65000000","longitude":"25.48333000","wikiDataId":"Q3726324"},{"id":93749,"Name":"Crângurile de Sus","state_id":4745,"state_code":"DB","state_name":"Dâmbovița County","country_id":181,"country_code":"RO","country_name":"Romania","latitude":"44.76667000","longitude":"25.23333000","wikiDataId":"Q12114844"},{"id":93710,"Name":"Crevedia","state_id":4745,"state_code":"DB","state_name":"Dâmbovița County","country_id":181,"country_code":"RO","country_name":"Romania","latitude":"44.60000000","longitude":"25.93333000","wikiDataId":"Q2621153"},{"id":93738,"Name":"Croitori","state_id":4745,"state_code":"DB","state_name":"Dâmbovița County","country_id":181,"country_code":"RO","country_name":"Romania","latitude":"44.57512000","longitude":"25.41356000","wikiDataId":"Q12114951"},{"id":93739,"Name":"Crovu","state_id":4745,"state_code":"DB","state_name":"Dâmbovița County","country_id":181,"country_code":"RO","country_name":"Romania","latitude":"44.58947000","longitude":"25.53684000","wikiDataId":"Q12114949"},{"id":94104,"Name":"Dâmbovicioara","state_id":4745,"state_code":"DB","state_name":"Dâmbovița County","country_id":181,"country_code":"RO","country_name":"Romania","latitude":"44.67569000","longitude":"25.55374000","wikiDataId":"Q12101078"},{"id":94132,"Name":"Dărmăneşti","state_id":4745,"state_code":"DB","state_name":"Dâmbovița County","country_id":181,"country_code":"RO","country_name":"Romania","latitude":"44.91667000","longitude":"25.78333000","wikiDataId":"Q12100549"},{"id":94113,"Name":"Dârza","state_id":4745,"state_code":"DB","state_name":"Dâmbovița County","country_id":181,"country_code":"RO","country_name":"Romania","latitude":"44.60175000","longitude":"25.94956000","wikiDataId":"Q12101166"},{"id":93903,"Name":"Dealu Frumos","state_id":4745,"state_code":"DB","state_name":"Dâmbovița County","country_id":181,"country_code":"RO","country_name":"Romania","latitude":"45.18575000","longitude":"25.41329000","wikiDataId":"Q12103096"},{"id":93904,"Name":"Dealu Mare","state_id":4745,"state_code":"DB","state_name":"Dâmbovița County","country_id":181,"country_code":"RO","country_name":"Romania","latitude":"45.16072000","longitude":"25.44871000","wikiDataId":"Q12103079"},{"id":93907,"Name":"Decindeni","state_id":4745,"state_code":"DB","state_name":"Dâmbovița County","country_id":181,"country_code":"RO","country_name":"Romania","latitude":"44.91234000","longitude":"25.32607000","wikiDataId":"Q12100648"},{"id":93948,"Name":"Dobra","state_id":4745,"state_code":"DB","state_name":"Dâmbovița County","country_id":181,"country_code":"RO","country_name":"Romania","latitude":"44.78333000","longitude":"25.71667000","wikiDataId":"Q12101460"},{"id":93981,"Name":"Doiceşti","state_id":4745,"state_code":"DB","state_name":"Dâmbovița County","country_id":181,"country_code":"RO","country_name":"Romania","latitude":"44.98333000","longitude":"25.40000000","wikiDataId":"Q4686768"},{"id":94055,"Name":"Drăgăești Ungureni","state_id":4745,"state_code":"DB","state_name":"Dâmbovița County","country_id":181,"country_code":"RO","country_name":"Romania","latitude":"44.94557000","longitude":"25.31048000","wikiDataId":"Q12102372"},{"id":94012,"Name":"Dragodana","state_id":4745,"state_code":"DB","state_name":"Dâmbovița County","country_id":181,"country_code":"RO","country_name":"Romania","latitude":"44.73333000","longitude":"25.35000000","wikiDataId":"Q2621634"},{"id":94013,"Name":"Dragodănești","state_id":4745,"state_code":"DB","state_name":"Dâmbovița County","country_id":181,"country_code":"RO","country_name":"Romania","latitude":"45.05552000","longitude":"25.23631000","wikiDataId":"Q12102276"},{"id":94018,"Name":"Dragomireşti","state_id":4745,"state_code":"DB","state_name":"Dâmbovița County","country_id":181,"country_code":"RO","country_name":"Romania","latitude":"44.91667000","longitude":"25.33333000","wikiDataId":"Q12102287"},{"id":94243,"Name":"Fântânele","state_id":4745,"state_code":"DB","state_name":"Dâmbovița County","country_id":181,"country_code":"RO","country_name":"Romania","latitude":"44.71667000","longitude":"25.86667000","wikiDataId":"Q12165736"},{"id":94164,"Name":"Fieni","state_id":4745,"state_code":"DB","state_name":"Dâmbovița County","country_id":181,"country_code":"RO","country_name":"Romania","latitude":"45.13333000","longitude":"25.41667000","wikiDataId":"Q16898237"},{"id":94166,"Name":"Fierbinți","state_id":4745,"state_code":"DB","state_name":"Dâmbovița County","country_id":181,"country_code":"RO","country_name":"Romania","latitude":"44.50747000","longitude":"25.28760000","wikiDataId":"Q12165081"},{"id":94179,"Name":"Finta Mare","state_id":4745,"state_code":"DB","state_name":"Dâmbovița County","country_id":181,"country_code":"RO","country_name":"Romania","latitude":"44.80000000","longitude":"25.80000000","wikiDataId":"Q12166688"},{"id":94496,"Name":"Găeşti","state_id":4745,"state_code":"DB","state_name":"Dâmbovița County","country_id":181,"country_code":"RO","country_name":"Romania","latitude":"44.71667000","longitude":"25.31667000","wikiDataId":"Q16898239"},{"id":94288,"Name":"Gemenea Brătulești","state_id":4745,"state_code":"DB","state_name":"Dâmbovița County","country_id":181,"country_code":"RO","country_name":"Romania","latitude":"45.10839000","longitude":"25.23155000","wikiDataId":"Q12100725"},{"id":94296,"Name":"Gheboaia","state_id":4745,"state_code":"DB","state_name":"Dâmbovița County","country_id":181,"country_code":"RO","country_name":"Romania","latitude":"44.80203000","longitude":"25.74875000","wikiDataId":"Q12094507"},{"id":94297,"Name":"Gheboieni","state_id":4745,"state_code":"DB","state_name":"Dâmbovița County","country_id":181,"country_code":"RO","country_name":"Romania","latitude":"44.98701000","longitude":"25.30670000","wikiDataId":"Q12094508"},{"id":94330,"Name":"Ghinești","state_id":4745,"state_code":"DB","state_name":"Dâmbovița County","country_id":181,"country_code":"RO","country_name":"Romania","latitude":"44.74774000","longitude":"25.55300000","wikiDataId":"Q12098996"},{"id":94336,"Name":"Ghirdoveni","state_id":4745,"state_code":"DB","state_name":"Dâmbovița County","country_id":181,"country_code":"RO","country_name":"Romania","latitude":"44.94059000","longitude":"25.67368000","wikiDataId":"Q12099068"},{"id":94359,"Name":"Glod","state_id":4745,"state_code":"DB","state_name":"Dâmbovița County","country_id":181,"country_code":"RO","country_name":"Romania","latitude":"45.24163000","longitude":"25.44994000","wikiDataId":"Q627385"},{"id":94362,"Name":"Glodeni","state_id":4745,"state_code":"DB","state_name":"Dâmbovița County","country_id":181,"country_code":"RO","country_name":"Romania","latitude":"45.01667000","longitude":"25.46667000","wikiDataId":"Q3732858"},{"id":94386,"Name":"Gorgota","state_id":4745,"state_code":"DB","state_name":"Dâmbovița County","country_id":181,"country_code":"RO","country_name":"Romania","latitude":"44.97626000","longitude":"25.50837000","wikiDataId":"Q12096913"},{"id":94407,"Name":"Greci","state_id":4745,"state_code":"DB","state_name":"Dâmbovița County","country_id":181,"country_code":"RO","country_name":"Romania","latitude":"44.66132000","longitude":"25.34346000","wikiDataId":"Q12097626"},{"id":94424,"Name":"Grozăvești","state_id":4745,"state_code":"DB","state_name":"Dâmbovița County","country_id":181,"country_code":"RO","country_name":"Romania","latitude":"44.56882000","longitude":"25.45360000","wikiDataId":"Q12097898"},{"id":94449,"Name":"Gulia","state_id":4745,"state_code":"DB","state_name":"Dâmbovița County","country_id":181,"country_code":"RO","country_name":"Romania","latitude":"44.54687000","longitude":"25.87304000","wikiDataId":"Q12098385"},{"id":94453,"Name":"Gura Foii","state_id":4745,"state_code":"DB","state_name":"Dâmbovița County","country_id":181,"country_code":"RO","country_name":"Romania","latitude":"44.75000000","longitude":"25.28333000","wikiDataId":"Q12098495"},{"id":94456,"Name":"Gura Ocniței","state_id":4745,"state_code":"DB","state_name":"Dâmbovița County","country_id":181,"country_code":"RO","country_name":"Romania","latitude":"44.94166000","longitude":"25.56846000","wikiDataId":"Q4684614"},{"id":94467,"Name":"Gura Şuţii","state_id":4745,"state_code":"DB","state_name":"Dâmbovița County","country_id":181,"country_code":"RO","country_name":"Romania","latitude":"44.75000000","longitude":"25.51667000","wikiDataId":"Q3734001"},{"id":94464,"Name":"Gura Vulcanei","state_id":4745,"state_code":"DB","state_name":"Dâmbovița County","country_id":181,"country_code":"RO","country_name":"Romania","latitude":"45.02442000","longitude":"25.39596000","wikiDataId":"Q12098465"},{"id":94595,"Name":"Hăbeni","state_id":4745,"state_code":"DB","state_name":"Dâmbovița County","country_id":181,"country_code":"RO","country_name":"Romania","latitude":"44.85629000","longitude":"25.62873000","wikiDataId":"Q12167127"},{"id":94573,"Name":"Hulubeşti","state_id":4745,"state_code":"DB","state_name":"Dâmbovița County","country_id":181,"country_code":"RO","country_name":"Romania","latitude":"44.83333000","longitude":"25.23333000","wikiDataId":"Q937219"},{"id":94612,"Name":"I. L. Caragiale","state_id":4745,"state_code":"DB","state_name":"Dâmbovița County","country_id":181,"country_code":"RO","country_name":"Romania","latitude":"44.90963000","longitude":"25.70251000","wikiDataId":"Q3726467"},{"id":94626,"Name":"Iazu","state_id":4745,"state_code":"DB","state_name":"Dâmbovița County","country_id":181,"country_code":"RO","country_name":"Romania","latitude":"44.71764000","longitude":"25.83119000","wikiDataId":"Q12173410"},{"id":94631,"Name":"Ibrianu","state_id":4745,"state_code":"DB","state_name":"Dâmbovița County","country_id":181,"country_code":"RO","country_name":"Romania","latitude":"44.77509000","longitude":"25.84375000","wikiDataId":"Q12073547"},{"id":94641,"Name":"Iedera de Jos","state_id":4745,"state_code":"DB","state_name":"Dâmbovița County","country_id":181,"country_code":"RO","country_name":"Romania","latitude":"45.03333000","longitude":"25.63333000","wikiDataId":"Q12073218"},{"id":94642,"Name":"Iedera de Sus","state_id":4745,"state_code":"DB","state_name":"Dâmbovița County","country_id":181,"country_code":"RO","country_name":"Romania","latitude":"45.04174000","longitude":"25.63084000","wikiDataId":"Q12073217"},{"id":94679,"Name":"Ionești","state_id":4745,"state_code":"DB","state_name":"Dâmbovița County","country_id":181,"country_code":"RO","country_name":"Romania","latitude":"44.69374000","longitude":"25.27780000","wikiDataId":"Q12074919"},{"id":94705,"Name":"Izvoarele","state_id":4745,"state_code":"DB","state_name":"Dâmbovița County","country_id":181,"country_code":"RO","country_name":"Romania","latitude":"45.03333000","longitude":"25.26667000","wikiDataId":"Q12074016"},{"id":94889,"Name":"Lăculețe","state_id":4745,"state_code":"DB","state_name":"Dâmbovița County","country_id":181,"country_code":"RO","country_name":"Romania","latitude":"45.01837000","longitude":"25.43108000","wikiDataId":"Q12117542"},{"id":94765,"Name":"Lazuri","state_id":4745,"state_code":"DB","state_name":"Dâmbovița County","country_id":181,"country_code":"RO","country_name":"Romania","latitude":"44.87859000","longitude":"25.54964000","wikiDataId":"Q12116974"},{"id":94837,"Name":"Lucieni","state_id":4745,"state_code":"DB","state_name":"Dâmbovița County","country_id":181,"country_code":"RO","country_name":"Romania","latitude":"44.85000000","longitude":"25.43333000","wikiDataId":"Q3726412"},{"id":94842,"Name":"Ludeşti","state_id":4745,"state_code":"DB","state_name":"Dâmbovița County","country_id":181,"country_code":"RO","country_name":"Romania","latitude":"44.86667000","longitude":"25.23333000","wikiDataId":"Q3726377"},{"id":94856,"Name":"Lunca","state_id":4745,"state_code":"DB","state_name":"Dâmbovița County","country_id":181,"country_code":"RO","country_name":"Romania","latitude":"45.20022000","longitude":"25.44351000","wikiDataId":"Q12118837"},{"id":94882,"Name":"Lunguleţu","state_id":4745,"state_code":"DB","state_name":"Dâmbovița County","country_id":181,"country_code":"RO","country_name":"Romania","latitude":"44.61667000","longitude":"25.65000000","wikiDataId":"Q12118784"},{"id":94919,"Name":"Malu cu Flori","state_id":4745,"state_code":"DB","state_name":"Dâmbovița County","country_id":181,"country_code":"RO","country_name":"Romania","latitude":"45.15000000","longitude":"25.20000000","wikiDataId":"Q2606390"},{"id":95259,"Name":"Măneşti","state_id":4745,"state_code":"DB","state_name":"Dâmbovița County","country_id":181,"country_code":"RO","country_name":"Romania","latitude":"44.96667000","longitude":"25.28333000","wikiDataId":"Q2717522"},{"id":95266,"Name":"Mărcești","state_id":4745,"state_code":"DB","state_name":"Dâmbovița County","country_id":181,"country_code":"RO","country_name":"Romania","latitude":"44.80537000","longitude":"25.70951000","wikiDataId":"Q12122782"},{"id":95273,"Name":"Mărginenii de Sus","state_id":4745,"state_code":"DB","state_name":"Dâmbovița County","country_id":181,"country_code":"RO","country_name":"Romania","latitude":"44.93172000","longitude":"25.75228000","wikiDataId":"Q12122681"},{"id":95291,"Name":"Mătăsaru","state_id":4745,"state_code":"DB","state_name":"Dâmbovița County","country_id":181,"country_code":"RO","country_name":"Romania","latitude":"44.71667000","longitude":"25.41667000","wikiDataId":"Q12122922"},{"id":94938,"Name":"Mavrodin","state_id":4745,"state_code":"DB","state_name":"Dâmbovița County","country_id":181,"country_code":"RO","country_name":"Romania","latitude":"44.64919000","longitude":"25.71731000","wikiDataId":"Q2720611"},{"id":94998,"Name":"Mija","state_id":4745,"state_code":"DB","state_name":"Dâmbovița County","country_id":181,"country_code":"RO","country_name":"Romania","latitude":"44.91356000","longitude":"25.67585000","wikiDataId":"Q12131007"},{"id":95052,"Name":"Mogoşani","state_id":4745,"state_code":"DB","state_name":"Dâmbovița County","country_id":181,"country_code":"RO","country_name":"Romania","latitude":"44.68333000","longitude":"25.40000000","wikiDataId":"Q3726355"},{"id":95071,"Name":"Moreni","state_id":4745,"state_code":"DB","state_name":"Dâmbovița County","country_id":181,"country_code":"RO","country_name":"Romania","latitude":"44.98301000","longitude":"25.64415000","wikiDataId":"Q16898235"},{"id":95072,"Name":"Moroeni","state_id":4745,"state_code":"DB","state_name":"Dâmbovița County","country_id":181,"country_code":"RO","country_name":"Romania","latitude":"45.21667000","longitude":"25.43333000","wikiDataId":"Q5070009"},{"id":95073,"Name":"Morteni","state_id":4745,"state_code":"DB","state_name":"Dâmbovița County","country_id":181,"country_code":"RO","country_name":"Romania","latitude":"44.66667000","longitude":"25.23333000","wikiDataId":"Q2606999"},{"id":95097,"Name":"Moțăieni","state_id":4745,"state_code":"DB","state_name":"Dâmbovița County","country_id":181,"country_code":"RO","country_name":"Romania","latitude":"45.10000000","longitude":"25.41667000","wikiDataId":"Q3726402"},{"id":95158,"Name":"Municipiul Moreni","state_id":4745,"state_code":"DB","state_name":"Dâmbovița County","country_id":181,"country_code":"RO","country_name":"Romania","latitude":"44.98010000","longitude":"25.64381000","wikiDataId":"Q685811"},{"id":95191,"Name":"Municipiul Târgovişte","state_id":4745,"state_code":"DB","state_name":"Dâmbovița County","country_id":181,"country_code":"RO","country_name":"Romania","latitude":"44.92616000","longitude":"25.45498000","wikiDataId":"Q188673"},{"id":95342,"Name":"Niculești","state_id":4745,"state_code":"DB","state_name":"Dâmbovița County","country_id":181,"country_code":"RO","country_name":"Romania","latitude":"44.68266000","longitude":"25.94221000","wikiDataId":"Q5065881"},{"id":95359,"Name":"Nucet","state_id":4745,"state_code":"DB","state_name":"Dâmbovița County","country_id":181,"country_code":"RO","country_name":"Romania","latitude":"44.78333000","longitude":"25.55000000","wikiDataId":"Q2606980"},{"id":95400,"Name":"Ocniţa","state_id":4745,"state_code":"DB","state_name":"Dâmbovița County","country_id":181,"country_code":"RO","country_name":"Romania","latitude":"44.98333000","longitude":"25.55000000","wikiDataId":"Q2717154"},{"id":95405,"Name":"Odaia Turcului","state_id":4745,"state_code":"DB","state_name":"Dâmbovița County","country_id":181,"country_code":"RO","country_name":"Romania","latitude":"44.69777000","longitude":"25.45082000","wikiDataId":"Q12135194"},{"id":95406,"Name":"Odobeşti","state_id":4745,"state_code":"DB","state_name":"Dâmbovița County","country_id":181,"country_code":"RO","country_name":"Romania","latitude":"44.61667000","longitude":"25.56667000","wikiDataId":"Q3726367"},{"id":95515,"Name":"Oraş Fieni","state_id":4745,"state_code":"DB","state_name":"Dâmbovița County","country_id":181,"country_code":"RO","country_name":"Romania","latitude":"45.13054000","longitude":"25.41094000","wikiDataId":"Q678884"},{"id":95526,"Name":"Oraş Gãeşti","state_id":4745,"state_code":"DB","state_name":"Dâmbovița County","country_id":181,"country_code":"RO","country_name":"Romania","latitude":"44.72003000","longitude":"25.32040000","wikiDataId":"Q125604"},{"id":95574,"Name":"Oraş Pucioasa","state_id":4745,"state_code":"DB","state_name":"Dâmbovița County","country_id":181,"country_code":"RO","country_name":"Romania","latitude":"45.07570000","longitude":"25.43335000","wikiDataId":"Q589880"},{"id":95582,"Name":"Oraş Rãcari","state_id":4745,"state_code":"DB","state_name":"Dâmbovița County","country_id":181,"country_code":"RO","country_name":"Romania","latitude":"44.66037000","longitude":"25.74703000","wikiDataId":"Q275990"},{"id":95604,"Name":"Oraş Titu","state_id":4745,"state_code":"DB","state_name":"Dâmbovița County","country_id":181,"country_code":"RO","country_name":"Romania","latitude":"44.65747000","longitude":"25.55549000","wikiDataId":"Q280364"},{"id":95741,"Name":"Perșinari","state_id":4745,"state_code":"DB","state_name":"Dâmbovița County","country_id":181,"country_code":"RO","country_name":"Romania","latitude":"44.80185000","longitude":"25.49880000","wikiDataId":"Q12737800"},{"id":95746,"Name":"Petreşti","state_id":4745,"state_code":"DB","state_name":"Dâmbovița County","country_id":181,"country_code":"RO","country_name":"Romania","latitude":"44.65000000","longitude":"25.33333000","wikiDataId":"Q3726389"},{"id":95774,"Name":"Picior de Munte","state_id":4745,"state_code":"DB","state_name":"Dâmbovița County","country_id":181,"country_code":"RO","country_name":"Romania","latitude":"44.78247000","longitude":"25.39047000","wikiDataId":"Q12146423"},{"id":95776,"Name":"Pietrari","state_id":4745,"state_code":"DB","state_name":"Dâmbovița County","country_id":181,"country_code":"RO","country_name":"Romania","latitude":"45.09377000","longitude":"25.29289000","wikiDataId":"Q3725402"},{"id":95790,"Name":"Pietroşiţa","state_id":4745,"state_code":"DB","state_name":"Dâmbovița County","country_id":181,"country_code":"RO","country_name":"Romania","latitude":"45.18333000","longitude":"25.43333000","wikiDataId":"Q2606462"},{"id":95801,"Name":"Pitaru","state_id":4745,"state_code":"DB","state_name":"Dâmbovița County","country_id":181,"country_code":"RO","country_name":"Romania","latitude":"44.59061000","longitude":"25.58407000","wikiDataId":"Q12146375"},{"id":95865,"Name":"Poiana","state_id":4745,"state_code":"DB","state_name":"Dâmbovița County","country_id":181,"country_code":"RO","country_name":"Romania","latitude":"44.56667000","longitude":"25.68333000","wikiDataId":"Q12143127"},{"id":95933,"Name":"Potlogi","state_id":4745,"state_code":"DB","state_name":"Dâmbovița County","country_id":181,"country_code":"RO","country_name":"Romania","latitude":"44.55000000","longitude":"25.58333000","wikiDataId":"Q3726296"},{"id":95949,"Name":"Priboiu","state_id":4745,"state_code":"DB","state_name":"Dâmbovița County","country_id":181,"country_code":"RO","country_name":"Romania","latitude":"45.03006000","longitude":"25.25790000","wikiDataId":"Q12145358"},{"id":95959,"Name":"Produleşti","state_id":4745,"state_code":"DB","state_name":"Dâmbovița County","country_id":181,"country_code":"RO","country_name":"Romania","latitude":"44.70000000","longitude":"25.50000000","wikiDataId":"Q3732803"},{"id":95972,"Name":"Pucheni","state_id":4745,"state_code":"DB","state_name":"Dâmbovița County","country_id":181,"country_code":"RO","country_name":"Romania","latitude":"45.18333000","longitude":"25.28333000","wikiDataId":"Q3732678"},{"id":95975,"Name":"Pucioasa","state_id":4745,"state_code":"DB","state_name":"Dâmbovița County","country_id":181,"country_code":"RO","country_name":"Romania","latitude":"45.07807000","longitude":"25.43232000","wikiDataId":"Q12145539"},{"id":96182,"Name":"Răcari","state_id":4745,"state_code":"DB","state_name":"Dâmbovița County","country_id":181,"country_code":"RO","country_name":"Romania","latitude":"44.63333000","longitude":"25.73333000","wikiDataId":"Q1195205"},{"id":96039,"Name":"Raciu","state_id":4745,"state_code":"DB","state_name":"Dâmbovița County","country_id":181,"country_code":"RO","country_name":"Romania","latitude":"44.81791000","longitude":"25.44106000","wikiDataId":"Q3726585"},{"id":96047,"Name":"Racovița","state_id":4745,"state_code":"DB","state_name":"Dâmbovița County","country_id":181,"country_code":"RO","country_name":"Romania","latitude":"44.83927000","longitude":"25.62082000","wikiDataId":"Q12146914"},{"id":96172,"Name":"Râncăciov","state_id":4745,"state_code":"DB","state_name":"Dâmbovița County","country_id":181,"country_code":"RO","country_name":"Romania","latitude":"44.88872000","longitude":"25.35778000","wikiDataId":"Q12147998"},{"id":96206,"Name":"Răscăeți","state_id":4745,"state_code":"DB","state_name":"Dâmbovița County","country_id":181,"country_code":"RO","country_name":"Romania","latitude":"44.59221000","longitude":"25.26990000","wikiDataId":"Q12147646"},{"id":96174,"Name":"Râu Alb de Jos","state_id":4745,"state_code":"DB","state_name":"Dâmbovița County","country_id":181,"country_code":"RO","country_name":"Romania","latitude":"45.13653000","longitude":"25.34745000","wikiDataId":"Q12148041"},{"id":96216,"Name":"Răzvad","state_id":4745,"state_code":"DB","state_name":"Dâmbovița County","country_id":181,"country_code":"RO","country_name":"Romania","latitude":"44.93333000","longitude":"25.53333000","wikiDataId":"Q12147393"},{"id":96111,"Name":"Românești","state_id":4745,"state_code":"DB","state_name":"Dâmbovița County","country_id":181,"country_code":"RO","country_name":"Romania","latitude":"44.56667000","longitude":"25.61667000","wikiDataId":"Q12148770"},{"id":96153,"Name":"Runcu","state_id":4745,"state_code":"DB","state_name":"Dâmbovița County","country_id":181,"country_code":"RO","country_name":"Romania","latitude":"45.18333000","longitude":"25.38333000","wikiDataId":"Q12149307"},{"id":105996,"Name":"Săcueni","state_id":4745,"state_code":"DB","state_name":"Dâmbovița County","country_id":181,"country_code":"RO","country_name":"Romania","latitude":"44.91077000","longitude":"25.57223000","wikiDataId":"Q12151750"},{"id":106011,"Name":"Sălcioara","state_id":4745,"state_code":"DB","state_name":"Dâmbovița County","country_id":181,"country_code":"RO","country_name":"Romania","latitude":"44.71667000","longitude":"25.58333000","wikiDataId":"Q3726450"},{"id":106016,"Name":"Sălcuța","state_id":4745,"state_code":"DB","state_name":"Dâmbovița County","country_id":181,"country_code":"RO","country_name":"Romania","latitude":"44.64374000","longitude":"25.58103000","wikiDataId":"Q12151821"},{"id":106040,"Name":"Săteni","state_id":4745,"state_code":"DB","state_name":"Dâmbovița County","country_id":181,"country_code":"RO","country_name":"Romania","latitude":"44.97129000","longitude":"25.41683000","wikiDataId":"Q12152474"},{"id":96266,"Name":"Scheiu de Jos","state_id":4745,"state_code":"DB","state_name":"Dâmbovița County","country_id":181,"country_code":"RO","country_name":"Romania","latitude":"44.93460000","longitude":"25.19986000","wikiDataId":"Q12153212"},{"id":96267,"Name":"Scheiu de Sus","state_id":4745,"state_code":"DB","state_name":"Dâmbovița County","country_id":181,"country_code":"RO","country_name":"Romania","latitude":"44.95602000","longitude":"25.19317000","wikiDataId":"Q12153214"},{"id":97035,"Name":"Şelaru","state_id":4745,"state_code":"DB","state_name":"Dâmbovița County","country_id":181,"country_code":"RO","country_name":"Romania","latitude":"44.47667000","longitude":"25.29997000","wikiDataId":"Q2717174"},{"id":96326,"Name":"Serdanu","state_id":4745,"state_code":"DB","state_name":"Dâmbovița County","country_id":181,"country_code":"RO","country_name":"Romania","latitude":"44.62732000","longitude":"25.63124000","wikiDataId":"Q12152274"},{"id":96376,"Name":"Slobozia Moara","state_id":4745,"state_code":"DB","state_name":"Dâmbovița County","country_id":181,"country_code":"RO","country_name":"Romania","latitude":"44.60000000","longitude":"25.71667000","wikiDataId":"Q975184"},{"id":97074,"Name":"Şotânga","state_id":4745,"state_code":"DB","state_name":"Dâmbovița County","country_id":181,"country_code":"RO","country_name":"Romania","latitude":"44.98333000","longitude":"25.36667000","wikiDataId":"Q12172253"},{"id":96414,"Name":"Speriețeni","state_id":4745,"state_code":"DB","state_name":"Dâmbovița County","country_id":181,"country_code":"RO","country_name":"Romania","latitude":"44.76611000","longitude":"25.45223000","wikiDataId":"Q12155007"},{"id":96512,"Name":"Suseni Socetu","state_id":4745,"state_code":"DB","state_name":"Dâmbovița County","country_id":181,"country_code":"RO","country_name":"Romania","latitude":"44.75618000","longitude":"25.79829000","wikiDataId":"Q12158830"},{"id":96580,"Name":"Târgovişte","state_id":4745,"state_code":"DB","state_name":"Dâmbovița County","country_id":181,"country_code":"RO","country_name":"Romania","latitude":"44.92543000","longitude":"25.45670000","wikiDataId":"Q16898233"},{"id":96613,"Name":"Tărtăşeşti","state_id":4745,"state_code":"DB","state_name":"Dâmbovița County","country_id":181,"country_code":"RO","country_name":"Romania","latitude":"44.57722000","longitude":"25.81278000","wikiDataId":"Q12160928"},{"id":96617,"Name":"Tătărani","state_id":4745,"state_code":"DB","state_name":"Dâmbovița County","country_id":181,"country_code":"RO","country_name":"Romania","latitude":"45.00000000","longitude":"25.26667000","wikiDataId":"Q12160972"},{"id":106074,"Name":"Teiș","state_id":4745,"state_code":"DB","state_name":"Dâmbovița County","country_id":181,"country_code":"RO","country_name":"Romania","latitude":"44.96285000","longitude":"25.40280000","wikiDataId":"Q12160316"},{"id":106091,"Name":"Tețcoiu","state_id":4745,"state_code":"DB","state_name":"Dâmbovița County","country_id":181,"country_code":"RO","country_name":"Romania","latitude":"44.68188000","longitude":"25.43846000","wikiDataId":"Q12161117"},{"id":106110,"Name":"Titu","state_id":4745,"state_code":"DB","state_name":"Dâmbovița County","country_id":181,"country_code":"RO","country_name":"Romania","latitude":"44.65000000","longitude":"25.53333000","wikiDataId":"Q12163256"},{"id":96643,"Name":"Ulieşti","state_id":4745,"state_code":"DB","state_name":"Dâmbovița County","country_id":181,"country_code":"RO","country_name":"Romania","latitude":"44.58333000","longitude":"25.41667000","wikiDataId":"Q12164508"},{"id":96649,"Name":"Ulmi","state_id":4745,"state_code":"DB","state_name":"Dâmbovița County","country_id":181,"country_code":"RO","country_name":"Romania","latitude":"44.90000000","longitude":"25.50000000","wikiDataId":"Q12164462"},{"id":96658,"Name":"Ungureni","state_id":4745,"state_code":"DB","state_name":"Dâmbovița County","country_id":181,"country_code":"RO","country_name":"Romania","latitude":"44.57804000","longitude":"25.50006000","wikiDataId":"Q12164593"},{"id":96686,"Name":"Urziceanca","state_id":4745,"state_code":"DB","state_name":"Dâmbovița County","country_id":181,"country_code":"RO","country_name":"Romania","latitude":"44.63052000","longitude":"25.84240000","wikiDataId":"Q12164747"},{"id":96952,"Name":"Văcăreşti","state_id":4745,"state_code":"DB","state_name":"Dâmbovița County","country_id":181,"country_code":"RO","country_name":"Romania","latitude":"44.85000000","longitude":"25.48333000","wikiDataId":"Q12088182"},{"id":96728,"Name":"Valea Leurzii","state_id":4745,"state_code":"DB","state_name":"Dâmbovița County","country_id":181,"country_code":"RO","country_name":"Romania","latitude":"45.16186000","longitude":"25.48533000","wikiDataId":"Q12087479"},{"id":96730,"Name":"Valea Lungă Ogrea","state_id":4745,"state_code":"DB","state_name":"Dâmbovița County","country_id":181,"country_code":"RO","country_name":"Romania","latitude":"45.05978000","longitude":"25.59024000","wikiDataId":"Q12087484"},{"id":96731,"Name":"Valea Lungă-Cricov","state_id":4745,"state_code":"DB","state_name":"Dâmbovița County","country_id":181,"country_code":"RO","country_name":"Romania","latitude":"45.06528000","longitude":"25.58793000","wikiDataId":"Q12087483"},{"id":96734,"Name":"Valea Mare","state_id":4745,"state_code":"DB","state_name":"Dâmbovița County","country_id":181,"country_code":"RO","country_name":"Romania","latitude":"44.78333000","longitude":"25.23333000","wikiDataId":"Q12128509"},{"id":96765,"Name":"Valea Voievozilor","state_id":4745,"state_code":"DB","state_name":"Dâmbovița County","country_id":181,"country_code":"RO","country_name":"Romania","latitude":"44.93805000","longitude":"25.48518000","wikiDataId":"Q12087432"},{"id":96963,"Name":"Văleni-Dâmbovița","state_id":4745,"state_code":"DB","state_name":"Dâmbovița County","country_id":181,"country_code":"RO","country_name":"Romania","latitude":"45.16667000","longitude":"25.18333000","wikiDataId":"Q12088201"},{"id":96939,"Name":"Vârfuri","state_id":4745,"state_code":"DB","state_name":"Dâmbovița County","country_id":181,"country_code":"RO","country_name":"Romania","latitude":"45.10000000","longitude":"25.51667000","wikiDataId":"Q12089542"},{"id":96813,"Name":"Viforâta","state_id":4745,"state_code":"DB","state_name":"Dâmbovița County","country_id":181,"country_code":"RO","country_name":"Romania","latitude":"44.96011000","longitude":"25.45796000","wikiDataId":"Q12093588"},{"id":96826,"Name":"Viișoara","state_id":4745,"state_code":"DB","state_name":"Dâmbovița County","country_id":181,"country_code":"RO","country_name":"Romania","latitude":"44.88116000","longitude":"25.42730000","wikiDataId":"Q12093632"},{"id":96849,"Name":"Vişina","state_id":4745,"state_code":"DB","state_name":"Dâmbovița County","country_id":181,"country_code":"RO","country_name":"Romania","latitude":"44.58333000","longitude":"25.33333000","wikiDataId":"Q12093607"},{"id":96851,"Name":"Vişineşti","state_id":4745,"state_code":"DB","state_name":"Dâmbovița County","country_id":181,"country_code":"RO","country_name":"Romania","latitude":"45.10000000","longitude":"25.55000000","wikiDataId":"Q12093610"},{"id":96845,"Name":"Vizurești","state_id":4745,"state_code":"DB","state_name":"Dâmbovița County","country_id":181,"country_code":"RO","country_name":"Romania","latitude":"44.64040000","longitude":"25.80740000","wikiDataId":"Q12093078"},{"id":96861,"Name":"Vlădeni","state_id":4745,"state_code":"DB","state_name":"Dâmbovița County","country_id":181,"country_code":"RO","country_name":"Romania","latitude":"44.87550000","longitude":"25.77318000","wikiDataId":"Q3725389"},{"id":96871,"Name":"Vlăsceni","state_id":4745,"state_code":"DB","state_name":"Dâmbovița County","country_id":181,"country_code":"RO","country_name":"Romania","latitude":"44.58522000","longitude":"25.59931000","wikiDataId":"Q12128588"},{"id":96879,"Name":"Voineşti","state_id":4745,"state_code":"DB","state_name":"Dâmbovița County","country_id":181,"country_code":"RO","country_name":"Romania","latitude":"45.06667000","longitude":"25.25000000","wikiDataId":"Q12090218"},{"id":96902,"Name":"Vulcana Băi","state_id":4745,"state_code":"DB","state_name":"Dâmbovița County","country_id":181,"country_code":"RO","country_name":"Romania","latitude":"45.07982000","longitude":"25.38219000","wikiDataId":"Q12092770"},{"id":96903,"Name":"Vulcana de Sus","state_id":4745,"state_code":"DB","state_name":"Dâmbovița County","country_id":181,"country_code":"RO","country_name":"Romania","latitude":"45.10125000","longitude":"25.35826000","wikiDataId":"Q12092771"},{"id":96904,"Name":"Vulcana-Pandele","state_id":4745,"state_code":"DB","state_name":"Dâmbovița County","country_id":181,"country_code":"RO","country_name":"Romania","latitude":"45.01558000","longitude":"25.39319000","wikiDataId":"Q12092772"},{"id":97023,"Name":"Zăvoiu","state_id":4745,"state_code":"DB","state_name":"Dâmbovița County","country_id":181,"country_code":"RO","country_name":"Romania","latitude":"44.66038000","longitude":"25.40350000","wikiDataId":"Q12106480"},{"id":96992,"Name":"Zidurile","state_id":4745,"state_code":"DB","state_name":"Dâmbovița County","country_id":181,"country_code":"RO","country_name":"Romania","latitude":"44.58176000","longitude":"25.55458000","wikiDataId":"Q12107264"}]