[{"id":111974,"Name":"Bear","state_id":1399,"state_code":"DE","state_name":"Delaware","country_id":233,"country_code":"US","country_name":"United States","latitude":"39.62928000","longitude":"-75.65826000","wikiDataId":"Q755632"},{"id":112098,"Name":"Bellefonte","state_id":1399,"state_code":"DE","state_name":"Delaware","country_id":233,"country_code":"US","country_name":"United States","latitude":"39.76622000","longitude":"-75.50936000","wikiDataId":"Q755668"},{"id":112277,"Name":"Bethany Beach","state_id":1399,"state_code":"DE","state_name":"Delaware","country_id":233,"country_code":"US","country_name":"United States","latitude":"38.53956000","longitude":"-75.05518000","wikiDataId":"Q755608"},{"id":112401,"Name":"Blades","state_id":1399,"state_code":"DE","state_name":"Delaware","country_id":233,"country_code":"US","country_name":"United States","latitude":"38.63567000","longitude":"-75.60993000","wikiDataId":"Q284303"},{"id":112772,"Name":"Bridgeville","state_id":1399,"state_code":"DE","state_name":"Delaware","country_id":233,"country_code":"US","country_name":"United States","latitude":"38.74261000","longitude":"-75.60437000","wikiDataId":"Q754373"},{"id":112887,"Name":"Brookside","state_id":1399,"state_code":"DE","state_name":"Delaware","country_id":233,"country_code":"US","country_name":"United States","latitude":"39.66706000","longitude":"-75.72688000","wikiDataId":"Q754431"},{"id":113261,"Name":"Camden","state_id":1399,"state_code":"DE","state_name":"Delaware","country_id":233,"country_code":"US","country_name":"United States","latitude":"39.11345000","longitude":"-75.54187000","wikiDataId":"Q754342"},{"id":113914,"Name":"Cheswold","state_id":1399,"state_code":"DE","state_name":"Delaware","country_id":233,"country_code":"US","country_name":"United States","latitude":"39.21928000","longitude":"-75.58576000","wikiDataId":"Q127378"},{"id":114192,"Name":"Claymont","state_id":1399,"state_code":"DE","state_name":"Delaware","country_id":233,"country_code":"US","country_name":"United States","latitude":"39.80067000","longitude":"-75.45964000","wikiDataId":"Q755958"},{"id":114197,"Name":"Clayton","state_id":1399,"state_code":"DE","state_name":"Delaware","country_id":233,"country_code":"US","country_name":"United States","latitude":"39.29067000","longitude":"-75.63437000","wikiDataId":"Q755717"},{"id":115203,"Name":"Delaware City","state_id":1399,"state_code":"DE","state_name":"Delaware","country_id":233,"country_code":"US","country_name":"United States","latitude":"39.57789000","longitude":"-75.58881000","wikiDataId":"Q755936"},{"id":115217,"Name":"Delmar","state_id":1399,"state_code":"DE","state_name":"Delaware","country_id":233,"country_code":"US","country_name":"United States","latitude":"38.45651000","longitude":"-75.57715000","wikiDataId":"Q753759"},{"id":115445,"Name":"Dover","state_id":1399,"state_code":"DE","state_name":"Delaware","country_id":233,"country_code":"US","country_name":"United States","latitude":"39.15817000","longitude":"-75.52437000","wikiDataId":"Q33518"},{"id":115453,"Name":"Dover Base Housing","state_id":1399,"state_code":"DE","state_name":"Delaware","country_id":233,"country_code":"US","country_name":"United States","latitude":"39.11763000","longitude":"-75.48393000","wikiDataId":"Q1252918"},{"id":115847,"Name":"Edgemoor","state_id":1399,"state_code":"DE","state_name":"Delaware","country_id":233,"country_code":"US","country_name":"United States","latitude":"39.75011000","longitude":"-75.49964000","wikiDataId":"Q586805"},{"id":116070,"Name":"Elsmere","state_id":1399,"state_code":"DE","state_name":"Delaware","country_id":233,"country_code":"US","country_name":"United States","latitude":"39.73928000","longitude":"-75.59798000","wikiDataId":"Q755400"},{"id":116470,"Name":"Felton","state_id":1399,"state_code":"DE","state_name":"Delaware","country_id":233,"country_code":"US","country_name":"United States","latitude":"39.00845000","longitude":"-75.57798000","wikiDataId":"Q754240"},{"id":117155,"Name":"Georgetown","state_id":1399,"state_code":"DE","state_name":"Delaware","country_id":233,"country_code":"US","country_name":"United States","latitude":"38.69011000","longitude":"-75.38547000","wikiDataId":"Q755587"},{"id":117245,"Name":"Glasgow","state_id":1399,"state_code":"DE","state_name":"Delaware","country_id":233,"country_code":"US","country_name":"United States","latitude":"39.60483000","longitude":"-75.74521000","wikiDataId":"Q755788"},{"id":117681,"Name":"Greenville","state_id":1399,"state_code":"DE","state_name":"Delaware","country_id":233,"country_code":"US","country_name":"United States","latitude":"39.77900000","longitude":"-75.59826000","wikiDataId":"Q755754"},{"id":117700,"Name":"Greenwood","state_id":1399,"state_code":"DE","state_name":"Delaware","country_id":233,"country_code":"US","country_name":"United States","latitude":"38.80706000","longitude":"-75.59132000","wikiDataId":"Q756094"},{"id":118041,"Name":"Harrington","state_id":1399,"state_code":"DE","state_name":"Delaware","country_id":233,"country_code":"US","country_name":"United States","latitude":"38.92372000","longitude":"-75.57770000","wikiDataId":"Q755773"},{"id":118401,"Name":"Highland Acres","state_id":1399,"state_code":"DE","state_name":"Delaware","country_id":233,"country_code":"US","country_name":"United States","latitude":"39.12095000","longitude":"-75.52187000","wikiDataId":"Q540723"},{"id":118503,"Name":"Hockessin","state_id":1399,"state_code":"DE","state_name":"Delaware","country_id":233,"country_code":"US","country_name":"United States","latitude":"39.78761000","longitude":"-75.69660000","wikiDataId":"Q254769"},{"id":119488,"Name":"Kent Acres","state_id":1399,"state_code":"DE","state_name":"Delaware","country_id":233,"country_code":"US","country_name":"United States","latitude":"39.13178000","longitude":"-75.52492000","wikiDataId":"Q756293"},{"id":119490,"Name":"Kent County","state_id":1399,"state_code":"DE","state_name":"Delaware","country_id":233,"country_code":"US","country_name":"United States","latitude":"39.09595000","longitude":"-75.50461000","wikiDataId":"Q128137"},{"id":120187,"Name":"Laurel","state_id":1399,"state_code":"DE","state_name":"Delaware","country_id":233,"country_code":"US","country_name":"United States","latitude":"38.55650000","longitude":"-75.57131000","wikiDataId":"Q755128"},{"id":120410,"Name":"Lewes","state_id":1399,"state_code":"DE","state_name":"Delaware","country_id":233,"country_code":"US","country_name":"United States","latitude":"38.77456000","longitude":"-75.13935000","wikiDataId":"Q756103"},{"id":120748,"Name":"Long Neck","state_id":1399,"state_code":"DE","state_name":"Delaware","country_id":233,"country_code":"US","country_name":"United States","latitude":"38.62011000","longitude":"-75.15074000","wikiDataId":"Q754459"},{"id":121785,"Name":"Middletown","state_id":1399,"state_code":"DE","state_name":"Delaware","country_id":233,"country_code":"US","country_name":"United States","latitude":"39.44956000","longitude":"-75.71632000","wikiDataId":"Q756141"},{"id":121846,"Name":"Milford","state_id":1399,"state_code":"DE","state_name":"Delaware","country_id":233,"country_code":"US","country_name":"United States","latitude":"38.91261000","longitude":"-75.42797000","wikiDataId":"Q755600"},{"id":121900,"Name":"Millsboro","state_id":1399,"state_code":"DE","state_name":"Delaware","country_id":233,"country_code":"US","country_name":"United States","latitude":"38.59150000","longitude":"-75.29130000","wikiDataId":"Q753693"},{"id":121911,"Name":"Milton","state_id":1399,"state_code":"DE","state_name":"Delaware","country_id":233,"country_code":"US","country_name":"United States","latitude":"38.77761000","longitude":"-75.30991000","wikiDataId":"Q756111"},{"id":122683,"Name":"New Castle","state_id":1399,"state_code":"DE","state_name":"Delaware","country_id":233,"country_code":"US","country_name":"United States","latitude":"39.66206000","longitude":"-75.56631000","wikiDataId":"Q755393"},{"id":122690,"Name":"New Castle County","state_id":1399,"state_code":"DE","state_name":"Delaware","country_id":233,"country_code":"US","country_name":"United States","latitude":"39.57833000","longitude":"-75.63898000","wikiDataId":"Q156156"},{"id":122799,"Name":"Newark","state_id":1399,"state_code":"DE","state_name":"Delaware","country_id":233,"country_code":"US","country_name":"United States","latitude":"39.68372000","longitude":"-75.74966000","wikiDataId":"Q506586"},{"id":122838,"Name":"Newport","state_id":1399,"state_code":"DE","state_name":"Delaware","country_id":233,"country_code":"US","country_name":"United States","latitude":"39.71372000","longitude":"-75.60937000","wikiDataId":"Q755805"},{"id":123112,"Name":"North Star","state_id":1399,"state_code":"DE","state_name":"Delaware","country_id":233,"country_code":"US","country_name":"United States","latitude":"39.76122000","longitude":"-75.71910000","wikiDataId":"Q754427"},{"id":123338,"Name":"Ocean View","state_id":1399,"state_code":"DE","state_name":"Delaware","country_id":233,"country_code":"US","country_name":"United States","latitude":"38.54511000","longitude":"-75.08907000","wikiDataId":"Q755661"},{"id":124194,"Name":"Pike Creek","state_id":1399,"state_code":"DE","state_name":"Delaware","country_id":233,"country_code":"US","country_name":"United States","latitude":"39.73095000","longitude":"-75.70410000","wikiDataId":"Q754376"},{"id":124195,"Name":"Pike Creek Valley","state_id":1399,"state_code":"DE","state_name":"Delaware","country_id":233,"country_code":"US","country_name":"United States","latitude":"39.73622000","longitude":"-75.69827000","wikiDataId":"Q2058200"},{"id":125005,"Name":"Rehoboth Beach","state_id":1399,"state_code":"DE","state_name":"Delaware","country_id":233,"country_code":"US","country_name":"United States","latitude":"38.72095000","longitude":"-75.07601000","wikiDataId":"Q755106"},{"id":125171,"Name":"Rising Sun-Lebanon","state_id":1399,"state_code":"DE","state_name":"Delaware","country_id":233,"country_code":"US","country_name":"United States","latitude":"39.09977000","longitude":"-75.50488000","wikiDataId":"Q755281"},{"id":125217,"Name":"Riverview","state_id":1399,"state_code":"DE","state_name":"Delaware","country_id":233,"country_code":"US","country_name":"United States","latitude":"39.02650000","longitude":"-75.51076000","wikiDataId":"Q755894"},{"id":125342,"Name":"Rodney Village","state_id":1399,"state_code":"DE","state_name":"Delaware","country_id":233,"country_code":"US","country_name":"United States","latitude":"39.13206000","longitude":"-75.53242000","wikiDataId":"Q662075"},{"id":126085,"Name":"Seaford","state_id":1399,"state_code":"DE","state_name":"Delaware","country_id":233,"country_code":"US","country_name":"United States","latitude":"38.64123000","longitude":"-75.61104000","wikiDataId":"Q755663"},{"id":126132,"Name":"Selbyville","state_id":1399,"state_code":"DE","state_name":"Delaware","country_id":233,"country_code":"US","country_name":"United States","latitude":"38.46039000","longitude":"-75.22074000","wikiDataId":"Q755625"},{"id":126534,"Name":"Smyrna","state_id":1399,"state_code":"DE","state_name":"Delaware","country_id":233,"country_code":"US","country_name":"United States","latitude":"39.29983000","longitude":"-75.60465000","wikiDataId":"Q755736"},{"id":127303,"Name":"Sussex County","state_id":1399,"state_code":"DE","state_name":"Delaware","country_id":233,"country_code":"US","country_name":"United States","latitude":"38.68330000","longitude":"-75.33954000","wikiDataId":"Q156213"},{"id":127764,"Name":"Townsend","state_id":1399,"state_code":"DE","state_name":"Delaware","country_id":233,"country_code":"US","country_name":"United States","latitude":"39.39511000","longitude":"-75.69160000","wikiDataId":"Q755689"},{"id":129321,"Name":"Wilmington","state_id":1399,"state_code":"DE","state_name":"Delaware","country_id":233,"country_code":"US","country_name":"United States","latitude":"39.74595000","longitude":"-75.54659000","wikiDataId":"Q174224"},{"id":129326,"Name":"Wilmington Manor","state_id":1399,"state_code":"DE","state_name":"Delaware","country_id":233,"country_code":"US","country_name":"United States","latitude":"39.68678000","longitude":"-75.58437000","wikiDataId":"Q754345"},{"id":129557,"Name":"Woodside East","state_id":1399,"state_code":"DE","state_name":"Delaware","country_id":233,"country_code":"US","country_name":"United States","latitude":"39.06756000","longitude":"-75.53748000","wikiDataId":"Q755263"},{"id":129634,"Name":"Wyoming","state_id":1399,"state_code":"DE","state_name":"Delaware","country_id":233,"country_code":"US","country_name":"United States","latitude":"39.11817000","longitude":"-75.55881000","wikiDataId":"Q371041"}]