[{"id":76750,"Name":"Adani","state_id":289,"state_code":"EN","state_name":"Enugu","country_id":161,"country_code":"NG","country_name":"Nigeria","latitude":"6.73971000","longitude":"7.01117000","wikiDataId":"Q3787"},{"id":76762,"Name":"Ake-Eze","state_id":289,"state_code":"EN","state_name":"Enugu","country_id":161,"country_code":"NG","country_name":"Nigeria","latitude":"5.91677000","longitude":"7.67615000","wikiDataId":"Q3509527"},{"id":76764,"Name":"Aku","state_id":289,"state_code":"EN","state_name":"Enugu","country_id":161,"country_code":"NG","country_name":"Nigeria","latitude":"6.70902000","longitude":"7.31826000","wikiDataId":"Q3509527"},{"id":76768,"Name":"Amagunze","state_id":289,"state_code":"EN","state_name":"Enugu","country_id":161,"country_code":"NG","country_name":"Nigeria","latitude":"6.33063000","longitude":"7.65247000","wikiDataId":"Q423831"},{"id":76784,"Name":"Awgu","state_id":289,"state_code":"EN","state_name":"Enugu","country_id":161,"country_code":"NG","country_name":"Nigeria","latitude":"6.07278000","longitude":"7.47739000","wikiDataId":"Q3509036"},{"id":76855,"Name":"Eha Amufu","state_id":289,"state_code":"EN","state_name":"Enugu","country_id":161,"country_code":"NG","country_name":"Nigeria","latitude":"6.65915000","longitude":"7.75961000","wikiDataId":"Q1296439"},{"id":76861,"Name":"Enugu","state_id":289,"state_code":"EN","state_name":"Enugu","country_id":161,"country_code":"NG","country_name":"Nigeria","latitude":"6.44132000","longitude":"7.49883000","wikiDataId":"Q465022"},{"id":76862,"Name":"Enugu-Ezike","state_id":289,"state_code":"EN","state_name":"Enugu","country_id":161,"country_code":"NG","country_name":"Nigeria","latitude":"6.98270000","longitude":"7.45534000","wikiDataId":"Q465022"},{"id":76866,"Name":"Ete","state_id":289,"state_code":"EN","state_name":"Enugu","country_id":161,"country_code":"NG","country_name":"Nigeria","latitude":"7.08956000","longitude":"7.45341000","wikiDataId":"Q1023707"},{"id":76933,"Name":"Ikem","state_id":289,"state_code":"EN","state_name":"Enugu","country_id":161,"country_code":"NG","country_name":"Nigeria","latitude":"6.77993000","longitude":"7.71484000","wikiDataId":"Q5995177"},{"id":77028,"Name":"Mberubu","state_id":289,"state_code":"EN","state_name":"Enugu","country_id":161,"country_code":"NG","country_name":"Nigeria","latitude":"6.17310000","longitude":"7.63017000","wikiDataId":"Q994096"},{"id":77045,"Name":"Nsukka","state_id":289,"state_code":"EN","state_name":"Enugu","country_id":161,"country_code":"NG","country_name":"Nigeria","latitude":"6.85783000","longitude":"7.39577000","wikiDataId":"Q2750772"},{"id":77048,"Name":"Obolo-Eke (1)","state_id":289,"state_code":"EN","state_name":"Enugu","country_id":161,"country_code":"NG","country_name":"Nigeria","latitude":"6.88333000","longitude":"7.63333000","wikiDataId":"Q7074926"},{"id":77069,"Name":"Opi","state_id":289,"state_code":"EN","state_name":"Enugu","country_id":161,"country_code":"NG","country_name":"Nigeria","latitude":"6.78223000","longitude":"7.43319000","wikiDataId":"Q852238"},{"id":77119,"Name":"Udi","state_id":289,"state_code":"EN","state_name":"Enugu","country_id":161,"country_code":"NG","country_name":"Nigeria","latitude":"6.31592000","longitude":"7.42086000","wikiDataId":"Q7859479"}]