[{"id":53846,"Name":"Alauca","state_id":4043,"state_code":"EP","state_name":"El Paraíso Department","country_id":97,"country_code":"HN","country_name":"Honduras","latitude":"13.84020000","longitude":"-86.69526000","wikiDataId":"Q762654"},{"id":53854,"Name":"Araulí","state_id":4043,"state_code":"EP","state_name":"El Paraíso Department","country_id":97,"country_code":"HN","country_name":"Honduras","latitude":"13.95000000","longitude":"-86.55000000","wikiDataId":"Q2001506"},{"id":53930,"Name":"Cuyalí","state_id":4043,"state_code":"EP","state_name":"El Paraíso Department","country_id":97,"country_code":"HN","country_name":"Honduras","latitude":"13.88333000","longitude":"-86.55000000","wikiDataId":"Q593881"},{"id":53932,"Name":"Danlí","state_id":4043,"state_code":"EP","state_name":"El Paraíso Department","country_id":97,"country_code":"HN","country_name":"Honduras","latitude":"14.03333000","longitude":"-86.58333000","wikiDataId":"Q1958679"},{"id":53942,"Name":"El Benque","state_id":4043,"state_code":"EP","state_name":"El Paraíso Department","country_id":97,"country_code":"HN","country_name":"Honduras","latitude":"14.03333000","longitude":"-86.46667000","wikiDataId":"Q2090091"},{"id":53944,"Name":"El Chichicaste","state_id":4043,"state_code":"EP","state_name":"El Paraíso Department","country_id":97,"country_code":"HN","country_name":"Honduras","latitude":"14.06667000","longitude":"-86.30000000","wikiDataId":"Q2090091"},{"id":53966,"Name":"El Obraje","state_id":4043,"state_code":"EP","state_name":"El Paraíso Department","country_id":97,"country_code":"HN","country_name":"Honduras","latitude":"14.00000000","longitude":"-86.43333000","wikiDataId":"Q2302837"},{"id":53970,"Name":"El Paraíso","state_id":4043,"state_code":"EP","state_name":"El Paraíso Department","country_id":97,"country_code":"HN","country_name":"Honduras","latitude":"13.85381000","longitude":"-86.53094000","wikiDataId":"Q2302837"},{"id":54024,"Name":"Güinope","state_id":4043,"state_code":"EP","state_name":"El Paraíso Department","country_id":97,"country_code":"HN","country_name":"Honduras","latitude":"13.88333000","longitude":"-86.93333000","wikiDataId":"Q732437"},{"id":54030,"Name":"Jacaleapa","state_id":4043,"state_code":"EP","state_name":"El Paraíso Department","country_id":97,"country_code":"HN","country_name":"Honduras","latitude":"14.01667000","longitude":"-86.66667000","wikiDataId":"Q2209633"},{"id":54040,"Name":"Jutiapa","state_id":4043,"state_code":"EP","state_name":"El Paraíso Department","country_id":97,"country_code":"HN","country_name":"Honduras","latitude":"13.98333000","longitude":"-86.40000000","wikiDataId":"Q2308179"},{"id":54098,"Name":"Las Ánimas","state_id":4043,"state_code":"EP","state_name":"El Paraíso Department","country_id":97,"country_code":"HN","country_name":"Honduras","latitude":"14.25000000","longitude":"-86.56667000","wikiDataId":"Q2604935"},{"id":54094,"Name":"Las Trojes","state_id":4043,"state_code":"EP","state_name":"El Paraíso Department","country_id":97,"country_code":"HN","country_name":"Honduras","latitude":"14.06667000","longitude":"-85.98333000","wikiDataId":"Q2395542"},{"id":54104,"Name":"Liure","state_id":4043,"state_code":"EP","state_name":"El Paraíso Department","country_id":97,"country_code":"HN","country_name":"Honduras","latitude":"13.53583000","longitude":"-87.09194000","wikiDataId":"Q1948279"},{"id":54134,"Name":"Morocelí","state_id":4043,"state_code":"EP","state_name":"El Paraíso Department","country_id":97,"country_code":"HN","country_name":"Honduras","latitude":"14.11667000","longitude":"-86.86667000","wikiDataId":"Q633411"},{"id":54138,"Name":"Municipio de Texiguat","state_id":4043,"state_code":"EP","state_name":"El Paraíso Department","country_id":97,"country_code":"HN","country_name":"Honduras","latitude":"13.66372000","longitude":"-87.03479000","wikiDataId":"Q633411"},{"id":54154,"Name":"Ojo de Agua","state_id":4043,"state_code":"EP","state_name":"El Paraíso Department","country_id":97,"country_code":"HN","country_name":"Honduras","latitude":"14.01667000","longitude":"-86.35000000","wikiDataId":"Q3307235"},{"id":54163,"Name":"Oropolí","state_id":4043,"state_code":"EP","state_name":"El Paraíso Department","country_id":97,"country_code":"HN","country_name":"Honduras","latitude":"13.81667000","longitude":"-86.81667000","wikiDataId":"Q2481144"},{"id":54177,"Name":"Potrerillos","state_id":4043,"state_code":"EP","state_name":"El Paraíso Department","country_id":97,"country_code":"HN","country_name":"Honduras","latitude":"14.04478000","longitude":"-86.76201000","wikiDataId":"Q2394913"},{"id":54190,"Name":"Quebrada Larga","state_id":4043,"state_code":"EP","state_name":"El Paraíso Department","country_id":97,"country_code":"HN","country_name":"Honduras","latitude":"14.10000000","longitude":"-86.36667000","wikiDataId":"Q2075665"},{"id":54217,"Name":"San Antonio de Flores","state_id":4043,"state_code":"EP","state_name":"El Paraíso Department","country_id":97,"country_code":"HN","country_name":"Honduras","latitude":"13.71089000","longitude":"-86.84226000","wikiDataId":"Q967937"},{"id":54223,"Name":"San Diego","state_id":4043,"state_code":"EP","state_name":"El Paraíso Department","country_id":97,"country_code":"HN","country_name":"Honduras","latitude":"14.05000000","longitude":"-86.46667000","wikiDataId":"Q967937"},{"id":54264,"Name":"San Lucas","state_id":4043,"state_code":"EP","state_name":"El Paraíso Department","country_id":97,"country_code":"HN","country_name":"Honduras","latitude":"13.74586000","longitude":"-86.95163000","wikiDataId":"Q2657178"},{"id":54275,"Name":"San Matías","state_id":4043,"state_code":"EP","state_name":"El Paraíso Department","country_id":97,"country_code":"HN","country_name":"Honduras","latitude":"13.95966000","longitude":"-86.64032000","wikiDataId":"Q2605007"},{"id":54296,"Name":"Santa Cruz","state_id":4043,"state_code":"EP","state_name":"El Paraíso Department","country_id":97,"country_code":"HN","country_name":"Honduras","latitude":"13.86667000","longitude":"-86.63333000","wikiDataId":"Q62795613"},{"id":54320,"Name":"Soledad","state_id":4043,"state_code":"EP","state_name":"El Paraíso Department","country_id":97,"country_code":"HN","country_name":"Honduras","latitude":"13.58333000","longitude":"-87.11667000","wikiDataId":"Q2394150"},{"id":54337,"Name":"Teupasenti","state_id":4043,"state_code":"EP","state_name":"El Paraíso Department","country_id":97,"country_code":"HN","country_name":"Honduras","latitude":"14.21667000","longitude":"-86.70000000","wikiDataId":"Q2392411"},{"id":54338,"Name":"Texíguat","state_id":4043,"state_code":"EP","state_name":"El Paraíso Department","country_id":97,"country_code":"HN","country_name":"Honduras","latitude":"13.64972000","longitude":"-87.02250000","wikiDataId":"Q2392411"},{"id":54348,"Name":"Trojes","state_id":4043,"state_code":"EP","state_name":"El Paraíso Department","country_id":97,"country_code":"HN","country_name":"Honduras","latitude":"14.05966000","longitude":"-86.00166000","wikiDataId":"Q666523"},{"id":54352,"Name":"Vado Ancho","state_id":4043,"state_code":"EP","state_name":"El Paraíso Department","country_id":97,"country_code":"HN","country_name":"Honduras","latitude":"13.64355000","longitude":"-86.95546000","wikiDataId":"Q992173"},{"id":54372,"Name":"Yauyupe","state_id":4043,"state_code":"EP","state_name":"El Paraíso Department","country_id":97,"country_code":"HN","country_name":"Honduras","latitude":"13.74867000","longitude":"-87.07610000","wikiDataId":"Q2542686"},{"id":54376,"Name":"Yuscarán","state_id":4043,"state_code":"EP","state_name":"El Paraíso Department","country_id":97,"country_code":"HN","country_name":"Honduras","latitude":"13.95708000","longitude":"-86.83170000","wikiDataId":"Q2561180"}]