[{"id":10087,"Name":"Afonso Cláudio","state_id":2018,"state_code":"ES","state_name":"Espírito Santo","country_id":31,"country_code":"BR","country_name":"Brazil","latitude":"-20.10512000","longitude":"-41.12422000","wikiDataId":"Q1793672"},{"id":15658,"Name":"Água Doce do Norte","state_id":2018,"state_code":"ES","state_name":"Espírito Santo","country_id":31,"country_code":"BR","country_name":"Brazil","latitude":"-18.50646000","longitude":"-40.99190000","wikiDataId":"Q1796727"},{"id":15676,"Name":"Águia Branca","state_id":2018,"state_code":"ES","state_name":"Espírito Santo","country_id":31,"country_code":"BR","country_name":"Brazil","latitude":"-18.98306000","longitude":"-40.74028000","wikiDataId":"Q1982827"},{"id":10123,"Name":"Alegre","state_id":2018,"state_code":"ES","state_name":"Espírito Santo","country_id":31,"country_code":"BR","country_name":"Brazil","latitude":"-20.70897000","longitude":"-41.51937000","wikiDataId":"Q1807909"},{"id":10131,"Name":"Alfredo Chaves","state_id":2018,"state_code":"ES","state_name":"Espírito Santo","country_id":31,"country_code":"BR","country_name":"Brazil","latitude":"-20.54245000","longitude":"-40.82368000","wikiDataId":"Q596538"},{"id":10182,"Name":"Alto Rio Novo","state_id":2018,"state_code":"ES","state_name":"Espírito Santo","country_id":31,"country_code":"BR","country_name":"Brazil","latitude":"-19.03248000","longitude":"-40.99144000","wikiDataId":"Q1804740"},{"id":10240,"Name":"Anchieta","state_id":2018,"state_code":"ES","state_name":"Espírito Santo","country_id":31,"country_code":"BR","country_name":"Brazil","latitude":"-20.73420000","longitude":"-40.70056000","wikiDataId":"Q2019024"},{"id":10292,"Name":"Apiacá","state_id":2018,"state_code":"ES","state_name":"Espírito Santo","country_id":31,"country_code":"BR","country_name":"Brazil","latitude":"-21.08025000","longitude":"-41.56100000","wikiDataId":"Q22067429"},{"id":10314,"Name":"Aracruz","state_id":2018,"state_code":"ES","state_name":"Espírito Santo","country_id":31,"country_code":"BR","country_name":"Brazil","latitude":"-19.81952000","longitude":"-40.19097000","wikiDataId":"Q1794219"},{"id":10441,"Name":"Atílio Vivacqua","state_id":2018,"state_code":"ES","state_name":"Espírito Santo","country_id":31,"country_code":"BR","country_name":"Brazil","latitude":"-20.95472000","longitude":"-41.19096000","wikiDataId":"Q22074324"},{"id":10479,"Name":"Baixo Guandu","state_id":2018,"state_code":"ES","state_name":"Espírito Santo","country_id":31,"country_code":"BR","country_name":"Brazil","latitude":"-19.51889000","longitude":"-41.01583000","wikiDataId":"Q804041"},{"id":10528,"Name":"Barra de São Francisco","state_id":2018,"state_code":"ES","state_name":"Espírito Santo","country_id":31,"country_code":"BR","country_name":"Brazil","latitude":"-18.75500000","longitude":"-40.89083000","wikiDataId":"Q1794183"},{"id":10657,"Name":"Boa Esperança","state_id":2018,"state_code":"ES","state_name":"Espírito Santo","country_id":31,"country_code":"BR","country_name":"Brazil","latitude":"-18.54000000","longitude":"-40.29583000","wikiDataId":"Q2089691"},{"id":10712,"Name":"Bom Jesus do Norte","state_id":2018,"state_code":"ES","state_name":"Espírito Santo","country_id":31,"country_code":"BR","country_name":"Brazil","latitude":"-21.08831000","longitude":"-41.63939000","wikiDataId":"Q1807022"},{"id":10784,"Name":"Brejetuba","state_id":2018,"state_code":"ES","state_name":"Espírito Santo","country_id":31,"country_code":"BR","country_name":"Brazil","latitude":"-20.15621000","longitude":"-41.30650000","wikiDataId":"Q903373"},{"id":10879,"Name":"Cachoeiro de Itapemirim","state_id":2018,"state_code":"ES","state_name":"Espírito Santo","country_id":31,"country_code":"BR","country_name":"Brazil","latitude":"-20.84889000","longitude":"-41.11278000","wikiDataId":"Q1439193"},{"id":11127,"Name":"Cariacica","state_id":2018,"state_code":"ES","state_name":"Espírito Santo","country_id":31,"country_code":"BR","country_name":"Brazil","latitude":"-20.30050000","longitude":"-40.46919000","wikiDataId":"Q1807045"},{"id":11187,"Name":"Castelo","state_id":2018,"state_code":"ES","state_name":"Espírito Santo","country_id":31,"country_code":"BR","country_name":"Brazil","latitude":"-20.60361000","longitude":"-41.18472000","wikiDataId":"Q1794952"},{"id":11320,"Name":"Colatina","state_id":2018,"state_code":"ES","state_name":"Espírito Santo","country_id":31,"country_code":"BR","country_name":"Brazil","latitude":"-19.53944000","longitude":"-40.63056000","wikiDataId":"Q933380"},{"id":11346,"Name":"Conceição da Barra","state_id":2018,"state_code":"ES","state_name":"Espírito Santo","country_id":31,"country_code":"BR","country_name":"Brazil","latitude":"-18.58540000","longitude":"-39.73618000","wikiDataId":"Q1998957"},{"id":11356,"Name":"Conceição do Castelo","state_id":2018,"state_code":"ES","state_name":"Espírito Santo","country_id":31,"country_code":"BR","country_name":"Brazil","latitude":"-20.36226000","longitude":"-41.26622000","wikiDataId":"Q1795227"},{"id":11602,"Name":"Divino de São Lourenço","state_id":2018,"state_code":"ES","state_name":"Espírito Santo","country_id":31,"country_code":"BR","country_name":"Brazil","latitude":"-20.59751000","longitude":"-41.72185000","wikiDataId":"Q1791982"},{"id":11637,"Name":"Domingos Martins","state_id":2018,"state_code":"ES","state_name":"Espírito Santo","country_id":31,"country_code":"BR","country_name":"Brazil","latitude":"-20.36333000","longitude":"-40.65917000","wikiDataId":"Q616475"},{"id":11646,"Name":"Dores do Rio Preto","state_id":2018,"state_code":"ES","state_name":"Espírito Santo","country_id":31,"country_code":"BR","country_name":"Brazil","latitude":"-20.63511000","longitude":"-41.81208000","wikiDataId":"Q1757114"},{"id":11673,"Name":"Ecoporanga","state_id":2018,"state_code":"ES","state_name":"Espírito Santo","country_id":31,"country_code":"BR","country_name":"Brazil","latitude":"-18.37333000","longitude":"-40.83056000","wikiDataId":"Q1794439"},{"id":11904,"Name":"Fundão","state_id":2018,"state_code":"ES","state_name":"Espírito Santo","country_id":31,"country_code":"BR","country_name":"Brazil","latitude":"-19.98985000","longitude":"-40.31579000","wikiDataId":"Q593133"},{"id":11985,"Name":"Governador Lindenberg","state_id":2018,"state_code":"ES","state_name":"Espírito Santo","country_id":31,"country_code":"BR","country_name":"Brazil","latitude":"-19.20034000","longitude":"-40.49510000","wikiDataId":"Q1985082"},{"id":12075,"Name":"Guaçuí","state_id":2018,"state_code":"ES","state_name":"Espírito Santo","country_id":31,"country_code":"BR","country_name":"Brazil","latitude":"-20.76804000","longitude":"-41.71116000","wikiDataId":"Q1807792"},{"id":12051,"Name":"Guarapari","state_id":2018,"state_code":"ES","state_name":"Espírito Santo","country_id":31,"country_code":"BR","country_name":"Brazil","latitude":"-20.67182000","longitude":"-40.50196000","wikiDataId":"Q267439"},{"id":12124,"Name":"Ibatiba","state_id":2018,"state_code":"ES","state_name":"Espírito Santo","country_id":31,"country_code":"BR","country_name":"Brazil","latitude":"-20.23389000","longitude":"-41.51056000","wikiDataId":"Q1795195"},{"id":12154,"Name":"Ibiraçu","state_id":2018,"state_code":"ES","state_name":"Espírito Santo","country_id":31,"country_code":"BR","country_name":"Brazil","latitude":"-19.83194000","longitude":"-40.36972000","wikiDataId":"Q1807804"},{"id":12160,"Name":"Ibitirama","state_id":2018,"state_code":"ES","state_name":"Espírito Santo","country_id":31,"country_code":"BR","country_name":"Brazil","latitude":"-20.51148000","longitude":"-41.66962000","wikiDataId":"Q1807726"},{"id":12172,"Name":"Iconha","state_id":2018,"state_code":"ES","state_name":"Espírito Santo","country_id":31,"country_code":"BR","country_name":"Brazil","latitude":"-20.74759000","longitude":"-40.86570000","wikiDataId":"Q595222"},{"id":12321,"Name":"Irupi","state_id":2018,"state_code":"ES","state_name":"Espírito Santo","country_id":31,"country_code":"BR","country_name":"Brazil","latitude":"-20.34528000","longitude":"-41.64111000","wikiDataId":"Q1807920"},{"id":12355,"Name":"Itaguaçu","state_id":2018,"state_code":"ES","state_name":"Espírito Santo","country_id":31,"country_code":"BR","country_name":"Brazil","latitude":"-19.80194000","longitude":"-40.85556000","wikiDataId":"Q1793795"},{"id":12409,"Name":"Itapemirim","state_id":2018,"state_code":"ES","state_name":"Espírito Santo","country_id":31,"country_code":"BR","country_name":"Brazil","latitude":"-21.01111000","longitude":"-40.83389000","wikiDataId":"Q1806710"},{"id":12447,"Name":"Itarana","state_id":2018,"state_code":"ES","state_name":"Espírito Santo","country_id":31,"country_code":"BR","country_name":"Brazil","latitude":"-19.87389000","longitude":"-40.87528000","wikiDataId":"Q1806714"},{"id":12507,"Name":"Iúna","state_id":2018,"state_code":"ES","state_name":"Espírito Santo","country_id":31,"country_code":"BR","country_name":"Brazil","latitude":"-20.34583000","longitude":"-41.53583000","wikiDataId":"Q1793709"},{"id":12550,"Name":"Jaguaré","state_id":2018,"state_code":"ES","state_name":"Espírito Santo","country_id":31,"country_code":"BR","country_name":"Brazil","latitude":"-18.99187000","longitude":"-39.97521000","wikiDataId":"Q942201"},{"id":12624,"Name":"Jerônimo Monteiro","state_id":2018,"state_code":"ES","state_name":"Espírito Santo","country_id":31,"country_code":"BR","country_name":"Brazil","latitude":"-20.81243000","longitude":"-41.39536000","wikiDataId":"Q1806739"},{"id":12628,"Name":"Jetibá","state_id":2018,"state_code":"ES","state_name":"Espírito Santo","country_id":31,"country_code":"BR","country_name":"Brazil","latitude":"-20.02069000","longitude":"-40.68145000","wikiDataId":"Q22039895"},{"id":12664,"Name":"João Neiva","state_id":2018,"state_code":"ES","state_name":"Espírito Santo","country_id":31,"country_code":"BR","country_name":"Brazil","latitude":"-19.75750000","longitude":"-40.38556000","wikiDataId":"Q1982819"},{"id":12794,"Name":"Laranja da Terra","state_id":2018,"state_code":"ES","state_name":"Espírito Santo","country_id":31,"country_code":"BR","country_name":"Brazil","latitude":"-19.89889000","longitude":"-41.05667000","wikiDataId":"Q616506"},{"id":12840,"Name":"Linhares","state_id":2018,"state_code":"ES","state_name":"Espírito Santo","country_id":31,"country_code":"BR","country_name":"Brazil","latitude":"-19.39111000","longitude":"-40.07222000","wikiDataId":"Q1755402"},{"id":12959,"Name":"Mantenópolis","state_id":2018,"state_code":"ES","state_name":"Espírito Santo","country_id":31,"country_code":"BR","country_name":"Brazil","latitude":"-18.86250000","longitude":"-41.12278000","wikiDataId":"Q1806721"},{"id":12981,"Name":"Marataizes","state_id":2018,"state_code":"ES","state_name":"Espírito Santo","country_id":31,"country_code":"BR","country_name":"Brazil","latitude":"-21.04333000","longitude":"-40.82444000","wikiDataId":"Q22040763"},{"id":13000,"Name":"Marechal Floriano","state_id":2018,"state_code":"ES","state_name":"Espírito Santo","country_id":31,"country_code":"BR","country_name":"Brazil","latitude":"-20.41278000","longitude":"-40.68306000","wikiDataId":"Q1806664"},{"id":13016,"Name":"Marilândia","state_id":2018,"state_code":"ES","state_name":"Espírito Santo","country_id":31,"country_code":"BR","country_name":"Brazil","latitude":"-19.42199000","longitude":"-40.52021000","wikiDataId":"Q1806633"},{"id":13120,"Name":"Mimoso do Sul","state_id":2018,"state_code":"ES","state_name":"Espírito Santo","country_id":31,"country_code":"BR","country_name":"Brazil","latitude":"-21.10474000","longitude":"-41.37566000","wikiDataId":"Q1795062"},{"id":13183,"Name":"Montanha","state_id":2018,"state_code":"ES","state_name":"Espírito Santo","country_id":31,"country_code":"BR","country_name":"Brazil","latitude":"-18.12694000","longitude":"-40.36333000","wikiDataId":"Q2013818"},{"id":13263,"Name":"Mucurici","state_id":2018,"state_code":"ES","state_name":"Espírito Santo","country_id":31,"country_code":"BR","country_name":"Brazil","latitude":"-18.09333000","longitude":"-40.51583000","wikiDataId":"Q339532"},{"id":13275,"Name":"Muniz Freire","state_id":2018,"state_code":"ES","state_name":"Espírito Santo","country_id":31,"country_code":"BR","country_name":"Brazil","latitude":"-20.46417000","longitude":"-41.41306000","wikiDataId":"Q1797483"},{"id":13276,"Name":"Muqui","state_id":2018,"state_code":"ES","state_name":"Espírito Santo","country_id":31,"country_code":"BR","country_name":"Brazil","latitude":"-20.91522000","longitude":"-41.30089000","wikiDataId":"Q1797483"},{"id":13446,"Name":"Nova Venécia","state_id":2018,"state_code":"ES","state_name":"Espírito Santo","country_id":31,"country_code":"BR","country_name":"Brazil","latitude":"-18.71056000","longitude":"-40.40056000","wikiDataId":"Q734635"},{"id":13614,"Name":"Pancas","state_id":2018,"state_code":"ES","state_name":"Espírito Santo","country_id":31,"country_code":"BR","country_name":"Brazil","latitude":"-19.22500000","longitude":"-40.85139000","wikiDataId":"Q505326"},{"id":13775,"Name":"Pedro Canário","state_id":2018,"state_code":"ES","state_name":"Espírito Santo","country_id":31,"country_code":"BR","country_name":"Brazil","latitude":"-18.20359000","longitude":"-40.03155000","wikiDataId":"Q1957216"},{"id":13872,"Name":"Pinheiros","state_id":2018,"state_code":"ES","state_name":"Espírito Santo","country_id":31,"country_code":"BR","country_name":"Brazil","latitude":"-18.34486000","longitude":"-40.20984000","wikiDataId":"Q2018987"},{"id":13931,"Name":"Piúma","state_id":2018,"state_code":"ES","state_name":"Espírito Santo","country_id":31,"country_code":"BR","country_name":"Brazil","latitude":"-20.83106000","longitude":"-40.72932000","wikiDataId":"Q1806645"},{"id":13975,"Name":"Ponto Belo","state_id":2018,"state_code":"ES","state_name":"Espírito Santo","country_id":31,"country_code":"BR","country_name":"Brazil","latitude":"-18.25222000","longitude":"-40.49863000","wikiDataId":"Q2011952"},{"id":14087,"Name":"Presidente Kennedy","state_id":2018,"state_code":"ES","state_name":"Espírito Santo","country_id":31,"country_code":"BR","country_name":"Brazil","latitude":"-21.14995000","longitude":"-41.07293000","wikiDataId":"Q948550"},{"id":14259,"Name":"Rio Bananal","state_id":2018,"state_code":"ES","state_name":"Espírito Santo","country_id":31,"country_code":"BR","country_name":"Brazil","latitude":"-19.26500000","longitude":"-40.33333000","wikiDataId":"Q1806671"},{"id":14286,"Name":"Rio Novo do Sul","state_id":2018,"state_code":"ES","state_name":"Espírito Santo","country_id":31,"country_code":"BR","country_name":"Brazil","latitude":"-20.78326000","longitude":"-40.93976000","wikiDataId":"Q1994852"},{"id":14487,"Name":"Santa Leopoldina","state_id":2018,"state_code":"ES","state_name":"Espírito Santo","country_id":31,"country_code":"BR","country_name":"Brazil","latitude":"-20.10056000","longitude":"-40.52972000","wikiDataId":"Q678885"},{"id":14510,"Name":"Santa Maria de Jetibá","state_id":2018,"state_code":"ES","state_name":"Espírito Santo","country_id":31,"country_code":"BR","country_name":"Brazil","latitude":"-20.02745000","longitude":"-40.74336000","wikiDataId":"Q616486"},{"id":14551,"Name":"Santa Teresa","state_id":2018,"state_code":"ES","state_name":"Espírito Santo","country_id":31,"country_code":"BR","country_name":"Brazil","latitude":"-19.93556000","longitude":"-40.60028000","wikiDataId":"Q2039418"},{"id":14872,"Name":"São Domingos do Norte","state_id":2018,"state_code":"ES","state_name":"Espírito Santo","country_id":31,"country_code":"BR","country_name":"Brazil","latitude":"-19.12970000","longitude":"-40.55454000","wikiDataId":"Q1806625"},{"id":14910,"Name":"São Gabriel da Palha","state_id":2018,"state_code":"ES","state_name":"Espírito Santo","country_id":31,"country_code":"BR","country_name":"Brazil","latitude":"-18.97356000","longitude":"-40.52522000","wikiDataId":"Q1798735"},{"id":14964,"Name":"São José do Calçado","state_id":2018,"state_code":"ES","state_name":"Espírito Santo","country_id":31,"country_code":"BR","country_name":"Brazil","latitude":"-20.98599000","longitude":"-41.66419000","wikiDataId":"Q1806727"},{"id":15075,"Name":"São Mateus","state_id":2018,"state_code":"ES","state_name":"Espírito Santo","country_id":31,"country_code":"BR","country_name":"Brazil","latitude":"-18.72011000","longitude":"-39.85891000","wikiDataId":"Q1763574"},{"id":15133,"Name":"São Roque do Canaã","state_id":2018,"state_code":"ES","state_name":"Espírito Santo","country_id":31,"country_code":"BR","country_name":"Brazil","latitude":"-19.73027000","longitude":"-40.67143000","wikiDataId":"Q1755169"},{"id":14721,"Name":"Serra","state_id":2018,"state_code":"ES","state_name":"Espírito Santo","country_id":31,"country_code":"BR","country_name":"Brazil","latitude":"-20.10822000","longitude":"-40.30186000","wikiDataId":"Q927537"},{"id":14810,"Name":"Sooretama","state_id":2018,"state_code":"ES","state_name":"Espírito Santo","country_id":31,"country_code":"BR","country_name":"Brazil","latitude":"-19.08218000","longitude":"-40.14134000","wikiDataId":"Q1784827"},{"id":15509,"Name":"Vargem Alta","state_id":2018,"state_code":"ES","state_name":"Espírito Santo","country_id":31,"country_code":"BR","country_name":"Brazil","latitude":"-20.64727000","longitude":"-41.00855000","wikiDataId":"Q762224"},{"id":15526,"Name":"Venda Nova do Imigrante","state_id":2018,"state_code":"ES","state_name":"Espírito Santo","country_id":31,"country_code":"BR","country_name":"Brazil","latitude":"-20.38487000","longitude":"-41.13539000","wikiDataId":"Q1754786"},{"id":15553,"Name":"Viana","state_id":2018,"state_code":"ES","state_name":"Espírito Santo","country_id":31,"country_code":"BR","country_name":"Brazil","latitude":"-20.36757000","longitude":"-40.51413000","wikiDataId":"Q2020315"},{"id":15574,"Name":"Vila Pavão","state_id":2018,"state_code":"ES","state_name":"Espírito Santo","country_id":31,"country_code":"BR","country_name":"Brazil","latitude":"-18.61186000","longitude":"-40.65163000","wikiDataId":"Q2065169"},{"id":15577,"Name":"Vila Valério","state_id":2018,"state_code":"ES","state_name":"Espírito Santo","country_id":31,"country_code":"BR","country_name":"Brazil","latitude":"-18.97995000","longitude":"-40.36633000","wikiDataId":"Q22067275"},{"id":15578,"Name":"Vila Velha","state_id":2018,"state_code":"ES","state_name":"Espírito Santo","country_id":31,"country_code":"BR","country_name":"Brazil","latitude":"-20.32972000","longitude":"-40.29250000","wikiDataId":"Q334197"},{"id":15597,"Name":"Vitória","state_id":2018,"state_code":"ES","state_name":"Espírito Santo","country_id":31,"country_code":"BR","country_name":"Brazil","latitude":"-20.31944000","longitude":"-40.33778000","wikiDataId":"Q168376"}]