[{"id":31900,"Name":"Abadía","state_id":1190,"state_code":"EX","state_name":"Extremadura","country_id":207,"country_code":"ES","country_name":"Spain","latitude":"40.25922000","longitude":"-5.97828000","wikiDataId":"Q1607619"},{"id":31910,"Name":"Abertura","state_id":1190,"state_code":"EX","state_name":"Extremadura","country_id":207,"country_code":"ES","country_name":"Spain","latitude":"39.24352000","longitude":"-5.81394000","wikiDataId":"Q1626839"},{"id":31923,"Name":"Acebo","state_id":1190,"state_code":"EX","state_name":"Extremadura","country_id":207,"country_code":"ES","country_name":"Spain","latitude":"40.20105000","longitude":"-6.71689000","wikiDataId":"Q26440"},{"id":31924,"Name":"Acedera","state_id":1190,"state_code":"EX","state_name":"Extremadura","country_id":207,"country_code":"ES","country_name":"Spain","latitude":"39.07678000","longitude":"-5.57384000","wikiDataId":"Q26440"},{"id":31925,"Name":"Aceituna","state_id":1190,"state_code":"EX","state_name":"Extremadura","country_id":207,"country_code":"ES","country_name":"Spain","latitude":"40.15008000","longitude":"-6.33292000","wikiDataId":"Q26440"},{"id":31926,"Name":"Aceuchal","state_id":1190,"state_code":"EX","state_name":"Extremadura","country_id":207,"country_code":"ES","country_name":"Spain","latitude":"38.64627000","longitude":"-6.48636000","wikiDataId":"Q26440"},{"id":31974,"Name":"Ahigal","state_id":1190,"state_code":"EX","state_name":"Extremadura","country_id":207,"country_code":"ES","country_name":"Spain","latitude":"40.18954000","longitude":"-6.18815000","wikiDataId":"Q930686"},{"id":31977,"Name":"Ahillones","state_id":1190,"state_code":"EX","state_name":"Extremadura","country_id":207,"country_code":"ES","country_name":"Spain","latitude":"38.26667000","longitude":"-5.85000000","wikiDataId":"Q1628726"},{"id":31999,"Name":"Alange","state_id":1190,"state_code":"EX","state_name":"Extremadura","country_id":207,"country_code":"ES","country_name":"Spain","latitude":"38.78495000","longitude":"-6.24574000","wikiDataId":"Q996175"},{"id":32027,"Name":"Albalá","state_id":1190,"state_code":"EX","state_name":"Extremadura","country_id":207,"country_code":"ES","country_name":"Spain","latitude":"39.25592000","longitude":"-6.18528000","wikiDataId":"Q1646370"},{"id":32059,"Name":"Alburquerque","state_id":1190,"state_code":"EX","state_name":"Extremadura","country_id":207,"country_code":"ES","country_name":"Spain","latitude":"39.22076000","longitude":"-7.00234000","wikiDataId":"Q1771153"},{"id":32135,"Name":"Alcántara","state_id":1190,"state_code":"EX","state_name":"Extremadura","country_id":207,"country_code":"ES","country_name":"Spain","latitude":"39.71895000","longitude":"-6.88375000","wikiDataId":"Q389205"},{"id":32111,"Name":"Alcollarín","state_id":1190,"state_code":"EX","state_name":"Extremadura","country_id":207,"country_code":"ES","country_name":"Spain","latitude":"39.24470000","longitude":"-5.73924000","wikiDataId":"Q958637"},{"id":32115,"Name":"Alconchel","state_id":1190,"state_code":"EX","state_name":"Extremadura","country_id":207,"country_code":"ES","country_name":"Spain","latitude":"38.51648000","longitude":"-7.07161000","wikiDataId":"Q1074211"},{"id":32118,"Name":"Alconera","state_id":1190,"state_code":"EX","state_name":"Extremadura","country_id":207,"country_code":"ES","country_name":"Spain","latitude":"38.40000000","longitude":"-6.46667000","wikiDataId":"Q1368859"},{"id":32132,"Name":"Alcuéscar","state_id":1190,"state_code":"EX","state_name":"Extremadura","country_id":207,"country_code":"ES","country_name":"Spain","latitude":"39.18091000","longitude":"-6.22917000","wikiDataId":"Q1630122"},{"id":32143,"Name":"Aldea del Cano","state_id":1190,"state_code":"EX","state_name":"Extremadura","country_id":207,"country_code":"ES","country_name":"Spain","latitude":"39.28874000","longitude":"-6.31806000","wikiDataId":"Q1643848"},{"id":32147,"Name":"Aldeacentenera","state_id":1190,"state_code":"EX","state_name":"Extremadura","country_id":207,"country_code":"ES","country_name":"Spain","latitude":"39.52725000","longitude":"-5.62936000","wikiDataId":"Q1637525"},{"id":32164,"Name":"Aldeanueva de la Vera","state_id":1190,"state_code":"EX","state_name":"Extremadura","country_id":207,"country_code":"ES","country_name":"Spain","latitude":"40.12710000","longitude":"-5.70150000","wikiDataId":"Q1630535"},{"id":32165,"Name":"Aldeanueva del Camino","state_id":1190,"state_code":"EX","state_name":"Extremadura","country_id":207,"country_code":"ES","country_name":"Spain","latitude":"40.25980000","longitude":"-5.92886000","wikiDataId":"Q1645047"},{"id":32347,"Name":"Alía","state_id":1190,"state_code":"EX","state_name":"Extremadura","country_id":207,"country_code":"ES","country_name":"Spain","latitude":"39.44803000","longitude":"-5.21754000","wikiDataId":"Q1632489"},{"id":32248,"Name":"Aliseda","state_id":1190,"state_code":"EX","state_name":"Extremadura","country_id":207,"country_code":"ES","country_name":"Spain","latitude":"39.42329000","longitude":"-6.69228000","wikiDataId":"Q1183828"},{"id":32252,"Name":"Aljucén","state_id":1190,"state_code":"EX","state_name":"Extremadura","country_id":207,"country_code":"ES","country_name":"Spain","latitude":"39.04425000","longitude":"-6.33109000","wikiDataId":"Q941641"},{"id":32268,"Name":"Almaraz","state_id":1190,"state_code":"EX","state_name":"Extremadura","country_id":207,"country_code":"ES","country_name":"Spain","latitude":"39.81416000","longitude":"-5.67698000","wikiDataId":"Q1632524"},{"id":32286,"Name":"Almendral","state_id":1190,"state_code":"EX","state_name":"Extremadura","country_id":207,"country_code":"ES","country_name":"Spain","latitude":"38.61418000","longitude":"-6.82097000","wikiDataId":"Q580391"},{"id":32288,"Name":"Almendralejo","state_id":1190,"state_code":"EX","state_name":"Extremadura","country_id":207,"country_code":"ES","country_name":"Spain","latitude":"38.68316000","longitude":"-6.40747000","wikiDataId":"Q490638"},{"id":32299,"Name":"Almoharín","state_id":1190,"state_code":"EX","state_name":"Extremadura","country_id":207,"country_code":"ES","country_name":"Spain","latitude":"39.17685000","longitude":"-6.04283000","wikiDataId":"Q1642000"},{"id":32510,"Name":"Arroyo de la Luz","state_id":1190,"state_code":"EX","state_name":"Extremadura","country_id":207,"country_code":"ES","country_name":"Spain","latitude":"39.48511000","longitude":"-6.58401000","wikiDataId":"Q1630474"},{"id":32508,"Name":"Arroyo de San Serván","state_id":1190,"state_code":"EX","state_name":"Extremadura","country_id":207,"country_code":"ES","country_name":"Spain","latitude":"38.85443000","longitude":"-6.45402000","wikiDataId":"Q1113385"},{"id":32515,"Name":"Arroyomolinos de la Vera","state_id":1190,"state_code":"EX","state_name":"Extremadura","country_id":207,"country_code":"ES","country_name":"Spain","latitude":"40.05277000","longitude":"-5.85111000","wikiDataId":"Q1638607"},{"id":32544,"Name":"Atalaya","state_id":1190,"state_code":"EX","state_name":"Extremadura","country_id":207,"country_code":"ES","country_name":"Spain","latitude":"38.33333000","longitude":"-6.46667000","wikiDataId":"Q1620361"},{"id":32588,"Name":"Azuaga","state_id":1190,"state_code":"EX","state_name":"Extremadura","country_id":207,"country_code":"ES","country_name":"Spain","latitude":"38.26667000","longitude":"-5.68333000","wikiDataId":"Q180611"},{"id":32601,"Name":"Badajoz","state_id":1190,"state_code":"EX","state_name":"Extremadura","country_id":207,"country_code":"ES","country_name":"Spain","latitude":"38.87789000","longitude":"-6.97061000","wikiDataId":"Q15679"},{"id":32704,"Name":"Baños de Montemayor","state_id":1190,"state_code":"EX","state_name":"Extremadura","country_id":207,"country_code":"ES","country_name":"Spain","latitude":"40.31671000","longitude":"-5.86009000","wikiDataId":"Q1646296"},{"id":32652,"Name":"Barcarrota","state_id":1190,"state_code":"EX","state_name":"Extremadura","country_id":207,"country_code":"ES","country_name":"Spain","latitude":"38.51473000","longitude":"-6.84923000","wikiDataId":"Q534483"},{"id":32670,"Name":"Barrado","state_id":1190,"state_code":"EX","state_name":"Extremadura","country_id":207,"country_code":"ES","country_name":"Spain","latitude":"40.08477000","longitude":"-5.88068000","wikiDataId":"Q808812"},{"id":32694,"Name":"Baterno","state_id":1190,"state_code":"EX","state_name":"Extremadura","country_id":207,"country_code":"ES","country_name":"Spain","latitude":"38.95578000","longitude":"-4.91039000","wikiDataId":"Q1372568"},{"id":32826,"Name":"Benquerencia","state_id":1190,"state_code":"EX","state_name":"Extremadura","country_id":207,"country_code":"ES","country_name":"Spain","latitude":"39.30994000","longitude":"-6.08465000","wikiDataId":"Q1769733"},{"id":32854,"Name":"Berlanga","state_id":1190,"state_code":"EX","state_name":"Extremadura","country_id":207,"country_code":"ES","country_name":"Spain","latitude":"38.28333000","longitude":"-5.81667000","wikiDataId":"Q1610680"},{"id":32871,"Name":"Berrocalejo","state_id":1190,"state_code":"EX","state_name":"Extremadura","country_id":207,"country_code":"ES","country_name":"Spain","latitude":"39.81948000","longitude":"-5.34951000","wikiDataId":"Q1658553"},{"id":32890,"Name":"Bienvenida","state_id":1190,"state_code":"EX","state_name":"Extremadura","country_id":207,"country_code":"ES","country_name":"Spain","latitude":"38.30000000","longitude":"-6.20000000","wikiDataId":"Q535145"},{"id":32927,"Name":"Bodonal de la Sierra","state_id":1190,"state_code":"EX","state_name":"Extremadura","country_id":207,"country_code":"ES","country_name":"Spain","latitude":"38.14751000","longitude":"-6.55950000","wikiDataId":"Q1066654"},{"id":32931,"Name":"Bohonal de Ibor","state_id":1190,"state_code":"EX","state_name":"Extremadura","country_id":207,"country_code":"ES","country_name":"Spain","latitude":"39.78457000","longitude":"-5.48500000","wikiDataId":"Q1645052"},{"id":32965,"Name":"Botija","state_id":1190,"state_code":"EX","state_name":"Extremadura","country_id":207,"country_code":"ES","country_name":"Spain","latitude":"39.34498000","longitude":"-6.07318000","wikiDataId":"Q1248482"},{"id":32993,"Name":"Brozas","state_id":1190,"state_code":"EX","state_name":"Extremadura","country_id":207,"country_code":"ES","country_name":"Spain","latitude":"39.61278000","longitude":"-6.77770000","wikiDataId":"Q1630506"},{"id":33029,"Name":"Burguillos del Cerro","state_id":1190,"state_code":"EX","state_name":"Extremadura","country_id":207,"country_code":"ES","country_name":"Spain","latitude":"38.38008000","longitude":"-6.59037000","wikiDataId":"Q1100437"},{"id":33075,"Name":"Cabañas del Castillo","state_id":1190,"state_code":"EX","state_name":"Extremadura","country_id":207,"country_code":"ES","country_name":"Spain","latitude":"39.54804000","longitude":"-5.51203000","wikiDataId":"Q1643637"},{"id":33077,"Name":"Cabeza del Buey","state_id":1190,"state_code":"EX","state_name":"Extremadura","country_id":207,"country_code":"ES","country_name":"Spain","latitude":"38.72227000","longitude":"-5.21946000","wikiDataId":"Q1100433"},{"id":33079,"Name":"Cabeza la Vaca","state_id":1190,"state_code":"EX","state_name":"Extremadura","country_id":207,"country_code":"ES","country_name":"Spain","latitude":"38.08333000","longitude":"-6.41667000","wikiDataId":"Q1372523"},{"id":33080,"Name":"Cabezabellosa","state_id":1190,"state_code":"EX","state_name":"Extremadura","country_id":207,"country_code":"ES","country_name":"Spain","latitude":"40.13763000","longitude":"-6.00086000","wikiDataId":"Q1648618"},{"id":33089,"Name":"Cabezuela del Valle","state_id":1190,"state_code":"EX","state_name":"Extremadura","country_id":207,"country_code":"ES","country_name":"Spain","latitude":"40.19364000","longitude":"-5.80650000","wikiDataId":"Q726538"},{"id":33106,"Name":"Cabrero","state_id":1190,"state_code":"EX","state_name":"Extremadura","country_id":207,"country_code":"ES","country_name":"Spain","latitude":"40.11324000","longitude":"-5.89293000","wikiDataId":"Q1776883"},{"id":33892,"Name":"Cáceres","state_id":1190,"state_code":"EX","state_name":"Extremadura","country_id":207,"country_code":"ES","country_name":"Spain","latitude":"39.47649000","longitude":"-6.37224000","wikiDataId":"Q15678"},{"id":33113,"Name":"Cachorrilla","state_id":1190,"state_code":"EX","state_name":"Extremadura","country_id":207,"country_code":"ES","country_name":"Spain","latitude":"39.91557000","longitude":"-6.66909000","wikiDataId":"Q640211"},{"id":33114,"Name":"Cadalso","state_id":1190,"state_code":"EX","state_name":"Extremadura","country_id":207,"country_code":"ES","country_name":"Spain","latitude":"40.23743000","longitude":"-6.54083000","wikiDataId":"Q640211"},{"id":33129,"Name":"Calamonte","state_id":1190,"state_code":"EX","state_name":"Extremadura","country_id":207,"country_code":"ES","country_name":"Spain","latitude":"38.88861000","longitude":"-6.38791000","wikiDataId":"Q1020436"},{"id":33140,"Name":"Calera de León","state_id":1190,"state_code":"EX","state_name":"Extremadura","country_id":207,"country_code":"ES","country_name":"Spain","latitude":"38.10000000","longitude":"-6.33333000","wikiDataId":"Q1074219"},{"id":33161,"Name":"Calzadilla","state_id":1190,"state_code":"EX","state_name":"Extremadura","country_id":207,"country_code":"ES","country_name":"Spain","latitude":"40.06014000","longitude":"-6.53328000","wikiDataId":"Q1646361"},{"id":33178,"Name":"Caminomorisco","state_id":1190,"state_code":"EX","state_name":"Extremadura","country_id":207,"country_code":"ES","country_name":"Spain","latitude":"40.32719000","longitude":"-6.28923000","wikiDataId":"Q1613482"},{"id":33181,"Name":"Campanario","state_id":1190,"state_code":"EX","state_name":"Extremadura","country_id":207,"country_code":"ES","country_name":"Spain","latitude":"38.86440000","longitude":"-5.61744000","wikiDataId":"Q1605982"},{"id":33191,"Name":"Campillo de Deleitosa","state_id":1190,"state_code":"EX","state_name":"Extremadura","country_id":207,"country_code":"ES","country_name":"Spain","latitude":"39.70297000","longitude":"-5.57436000","wikiDataId":"Q940738"},{"id":33193,"Name":"Campillo de Llerena","state_id":1190,"state_code":"EX","state_name":"Extremadura","country_id":207,"country_code":"ES","country_name":"Spain","latitude":"38.50196000","longitude":"-5.83139000","wikiDataId":"Q1372581"},{"id":33533,"Name":"Cañamero","state_id":1190,"state_code":"EX","state_name":"Extremadura","country_id":207,"country_code":"ES","country_name":"Spain","latitude":"39.37995000","longitude":"-5.38857000","wikiDataId":"Q1632497"},{"id":33535,"Name":"Cañaveral","state_id":1190,"state_code":"EX","state_name":"Extremadura","country_id":207,"country_code":"ES","country_name":"Spain","latitude":"39.79198000","longitude":"-6.39130000","wikiDataId":"Q970306"},{"id":33269,"Name":"Capilla","state_id":1190,"state_code":"EX","state_name":"Extremadura","country_id":207,"country_code":"ES","country_name":"Spain","latitude":"38.82037000","longitude":"-5.08417000","wikiDataId":"Q1639065"},{"id":33280,"Name":"Carbajo","state_id":1190,"state_code":"EX","state_name":"Extremadura","country_id":207,"country_code":"ES","country_name":"Spain","latitude":"39.60333000","longitude":"-7.19565000","wikiDataId":"Q384303"},{"id":33289,"Name":"Carcaboso","state_id":1190,"state_code":"EX","state_name":"Extremadura","country_id":207,"country_code":"ES","country_name":"Spain","latitude":"40.04968000","longitude":"-6.21375000","wikiDataId":"Q1613467"},{"id":33311,"Name":"Carmonita","state_id":1190,"state_code":"EX","state_name":"Extremadura","country_id":207,"country_code":"ES","country_name":"Spain","latitude":"39.15455000","longitude":"-6.33864000","wikiDataId":"Q1372506"},{"id":33320,"Name":"Carrascalejo","state_id":1190,"state_code":"EX","state_name":"Extremadura","country_id":207,"country_code":"ES","country_name":"Spain","latitude":"39.63333000","longitude":"-5.21667000","wikiDataId":"Q1646388"},{"id":33346,"Name":"Casar de Cáceres","state_id":1190,"state_code":"EX","state_name":"Extremadura","country_id":207,"country_code":"ES","country_name":"Spain","latitude":"39.56106000","longitude":"-6.41944000","wikiDataId":"Q578081"},{"id":33347,"Name":"Casar de Palomero","state_id":1190,"state_code":"EX","state_name":"Extremadura","country_id":207,"country_code":"ES","country_name":"Spain","latitude":"40.29483000","longitude":"-6.25698000","wikiDataId":"Q1630093"},{"id":33351,"Name":"Casares de las Hurdes","state_id":1190,"state_code":"EX","state_name":"Extremadura","country_id":207,"country_code":"ES","country_name":"Spain","latitude":"40.43333000","longitude":"-6.28333000","wikiDataId":"Q1613360"},{"id":33359,"Name":"Casas de Don Antonio","state_id":1190,"state_code":"EX","state_name":"Extremadura","country_id":207,"country_code":"ES","country_name":"Spain","latitude":"39.23578000","longitude":"-6.29143000","wikiDataId":"Q1648589"},{"id":33360,"Name":"Casas de Don Gómez","state_id":1190,"state_code":"EX","state_name":"Extremadura","country_id":207,"country_code":"ES","country_name":"Spain","latitude":"40.00932000","longitude":"-6.60073000","wikiDataId":"Q1646339"},{"id":33361,"Name":"Casas de Don Pedro","state_id":1190,"state_code":"EX","state_name":"Extremadura","country_id":207,"country_code":"ES","country_name":"Spain","latitude":"39.10822000","longitude":"-5.33077000","wikiDataId":"Q23986732"},{"id":33368,"Name":"Casas de Millán","state_id":1190,"state_code":"EX","state_name":"Extremadura","country_id":207,"country_code":"ES","country_name":"Spain","latitude":"39.81757000","longitude":"-6.32966000","wikiDataId":"Q1658755"},{"id":33369,"Name":"Casas de Miravete","state_id":1190,"state_code":"EX","state_name":"Extremadura","country_id":207,"country_code":"ES","country_name":"Spain","latitude":"39.72687000","longitude":"-5.74363000","wikiDataId":"Q1645489"},{"id":33370,"Name":"Casas de Reina","state_id":1190,"state_code":"EX","state_name":"Extremadura","country_id":207,"country_code":"ES","country_name":"Spain","latitude":"38.20000000","longitude":"-5.96667000","wikiDataId":"Q1157670"},{"id":33374,"Name":"Casas del Castañar","state_id":1190,"state_code":"EX","state_name":"Extremadura","country_id":207,"country_code":"ES","country_name":"Spain","latitude":"40.10785000","longitude":"-5.90509000","wikiDataId":"Q944113"},{"id":33375,"Name":"Casas del Monte","state_id":1190,"state_code":"EX","state_name":"Extremadura","country_id":207,"country_code":"ES","country_name":"Spain","latitude":"40.20320000","longitude":"-5.96152000","wikiDataId":"Q1643605"},{"id":33381,"Name":"Casatejada","state_id":1190,"state_code":"EX","state_name":"Extremadura","country_id":207,"country_code":"ES","country_name":"Spain","latitude":"39.88642000","longitude":"-5.68193000","wikiDataId":"Q1613382"},{"id":33389,"Name":"Casillas de Coria","state_id":1190,"state_code":"EX","state_name":"Extremadura","country_id":207,"country_code":"ES","country_name":"Spain","latitude":"39.96543000","longitude":"-6.63711000","wikiDataId":"Q975013"},{"id":33397,"Name":"Castañar de Ibor","state_id":1190,"state_code":"EX","state_name":"Extremadura","country_id":207,"country_code":"ES","country_name":"Spain","latitude":"39.62843000","longitude":"-5.41709000","wikiDataId":"Q1630518"},{"id":33446,"Name":"Castilblanco","state_id":1190,"state_code":"EX","state_name":"Extremadura","country_id":207,"country_code":"ES","country_name":"Spain","latitude":"39.28487000","longitude":"-5.09098000","wikiDataId":"Q780375"},{"id":33512,"Name":"Castuera","state_id":1190,"state_code":"EX","state_name":"Extremadura","country_id":207,"country_code":"ES","country_name":"Spain","latitude":"38.73204000","longitude":"-5.54390000","wikiDataId":"Q515016"},{"id":33553,"Name":"Ceclavín","state_id":1190,"state_code":"EX","state_name":"Extremadura","country_id":207,"country_code":"ES","country_name":"Spain","latitude":"39.82231000","longitude":"-6.77329000","wikiDataId":"Q1632687"},{"id":33555,"Name":"Cedillo","state_id":1190,"state_code":"EX","state_name":"Extremadura","country_id":207,"country_code":"ES","country_name":"Spain","latitude":"39.65099000","longitude":"-7.49817000","wikiDataId":"Q1646364"},{"id":33587,"Name":"Cerezo","state_id":1190,"state_code":"EX","state_name":"Extremadura","country_id":207,"country_code":"ES","country_name":"Spain","latitude":"40.23678000","longitude":"-6.22764000","wikiDataId":"Q1637672"},{"id":33622,"Name":"Cheles","state_id":1190,"state_code":"EX","state_name":"Extremadura","country_id":207,"country_code":"ES","country_name":"Spain","latitude":"38.51225000","longitude":"-7.28177000","wikiDataId":"Q844205"},{"id":33667,"Name":"Cilleros","state_id":1190,"state_code":"EX","state_name":"Extremadura","country_id":207,"country_code":"ES","country_name":"Spain","latitude":"40.11486000","longitude":"-6.79256000","wikiDataId":"Q1613475"},{"id":33731,"Name":"Collado","state_id":1190,"state_code":"EX","state_name":"Extremadura","country_id":207,"country_code":"ES","country_name":"Spain","latitude":"40.05729000","longitude":"-5.72052000","wikiDataId":"Q1637534"},{"id":33763,"Name":"Conquista de la Sierra","state_id":1190,"state_code":"EX","state_name":"Extremadura","country_id":207,"country_code":"ES","country_name":"Spain","latitude":"39.35070000","longitude":"-5.73464000","wikiDataId":"Q920677"},{"id":33780,"Name":"Cordobilla de Lácara","state_id":1190,"state_code":"EX","state_name":"Extremadura","country_id":207,"country_code":"ES","country_name":"Spain","latitude":"39.14763000","longitude":"-6.43619000","wikiDataId":"Q1404680"},{"id":33789,"Name":"Coria","state_id":1190,"state_code":"EX","state_name":"Extremadura","country_id":207,"country_code":"ES","country_name":"Spain","latitude":"39.98406000","longitude":"-6.53603000","wikiDataId":"Q1646359"},{"id":33805,"Name":"Corte de Peleas","state_id":1190,"state_code":"EX","state_name":"Extremadura","country_id":207,"country_code":"ES","country_name":"Spain","latitude":"38.72631000","longitude":"-6.67035000","wikiDataId":"Q1372541"},{"id":33836,"Name":"Cristina","state_id":1190,"state_code":"EX","state_name":"Extremadura","country_id":207,"country_code":"ES","country_name":"Spain","latitude":"38.83745000","longitude":"-6.09867000","wikiDataId":"Q23987103"},{"id":33923,"Name":"Deleitosa","state_id":1190,"state_code":"EX","state_name":"Extremadura","country_id":207,"country_code":"ES","country_name":"Spain","latitude":"39.64359000","longitude":"-5.64576000","wikiDataId":"Q1644267"},{"id":33928,"Name":"Descargamaría","state_id":1190,"state_code":"EX","state_name":"Extremadura","country_id":207,"country_code":"ES","country_name":"Spain","latitude":"40.30446000","longitude":"-6.48666000","wikiDataId":"Q1638600"},{"id":33942,"Name":"Don Álvaro","state_id":1190,"state_code":"EX","state_name":"Extremadura","country_id":207,"country_code":"ES","country_name":"Spain","latitude":"38.84837000","longitude":"-6.27475000","wikiDataId":"Q1387108"},{"id":33941,"Name":"Don Benito","state_id":1190,"state_code":"EX","state_name":"Extremadura","country_id":207,"country_code":"ES","country_name":"Spain","latitude":"38.95627000","longitude":"-5.86162000","wikiDataId":"Q24008796"},{"id":33988,"Name":"El Casar","state_id":1190,"state_code":"EX","state_name":"Extremadura","country_id":207,"country_code":"ES","country_name":"Spain","latitude":"38.53089000","longitude":"-5.92513000","wikiDataId":"Q1641917"},{"id":34037,"Name":"Eljas","state_id":1190,"state_code":"EX","state_name":"Extremadura","country_id":207,"country_code":"ES","country_name":"Spain","latitude":"40.21648000","longitude":"-6.84616000","wikiDataId":"Q1613259"},{"id":34064,"Name":"Entrín Bajo","state_id":1190,"state_code":"EX","state_name":"Extremadura","country_id":207,"country_code":"ES","country_name":"Spain","latitude":"38.71855000","longitude":"-6.71349000","wikiDataId":"Q1605952"},{"id":34092,"Name":"Escurial","state_id":1190,"state_code":"EX","state_name":"Extremadura","country_id":207,"country_code":"ES","country_name":"Spain","latitude":"39.16857000","longitude":"-5.88465000","wikiDataId":"Q1643658"},{"id":34105,"Name":"Esparragalejo","state_id":1190,"state_code":"EX","state_name":"Extremadura","country_id":207,"country_code":"ES","country_name":"Spain","latitude":"38.94330000","longitude":"-6.43549000","wikiDataId":"Q1446351"},{"id":34107,"Name":"Esparragosa de la Serena","state_id":1190,"state_code":"EX","state_name":"Extremadura","country_id":207,"country_code":"ES","country_name":"Spain","latitude":"38.65100000","longitude":"-5.60657000","wikiDataId":"Q1372885"},{"id":34106,"Name":"Esparragosa de Lares","state_id":1190,"state_code":"EX","state_name":"Extremadura","country_id":207,"country_code":"ES","country_name":"Spain","latitude":"38.97517000","longitude":"-5.26968000","wikiDataId":"Q1407179"},{"id":34173,"Name":"Feria","state_id":1190,"state_code":"EX","state_name":"Extremadura","country_id":207,"country_code":"ES","country_name":"Spain","latitude":"38.51151000","longitude":"-6.56416000","wikiDataId":"Q1447714"},{"id":34242,"Name":"Fregenal de la Sierra","state_id":1190,"state_code":"EX","state_name":"Extremadura","country_id":207,"country_code":"ES","country_name":"Spain","latitude":"38.16922000","longitude":"-6.65370000","wikiDataId":"Q1613587"},{"id":34251,"Name":"Fresnedoso de Ibor","state_id":1190,"state_code":"EX","state_name":"Extremadura","country_id":207,"country_code":"ES","country_name":"Spain","latitude":"39.68418000","longitude":"-5.50899000","wikiDataId":"Q1643018"},{"id":34284,"Name":"Fuenlabrada de los Montes","state_id":1190,"state_code":"EX","state_name":"Extremadura","country_id":207,"country_code":"ES","country_name":"Spain","latitude":"39.13288000","longitude":"-4.93513000","wikiDataId":"Q54902"},{"id":34295,"Name":"Fuente de Cantos","state_id":1190,"state_code":"EX","state_name":"Extremadura","country_id":207,"country_code":"ES","country_name":"Spain","latitude":"38.25000000","longitude":"-6.30000000","wikiDataId":"Q574513"},{"id":34299,"Name":"Fuente del Maestre","state_id":1190,"state_code":"EX","state_name":"Extremadura","country_id":207,"country_code":"ES","country_name":"Spain","latitude":"38.52656000","longitude":"-6.44782000","wikiDataId":"Q1407463"},{"id":34345,"Name":"Fuentes de León","state_id":1190,"state_code":"EX","state_name":"Extremadura","country_id":207,"country_code":"ES","country_name":"Spain","latitude":"38.06866000","longitude":"-6.53884000","wikiDataId":"Q1098694"},{"id":34385,"Name":"Galisteo","state_id":1190,"state_code":"EX","state_name":"Extremadura","country_id":207,"country_code":"ES","country_name":"Spain","latitude":"39.97642000","longitude":"-6.26782000","wikiDataId":"Q1613373"},{"id":34407,"Name":"Garbayuela","state_id":1190,"state_code":"EX","state_name":"Extremadura","country_id":207,"country_code":"ES","country_name":"Spain","latitude":"39.04956000","longitude":"-4.99856000","wikiDataId":"Q1447660"},{"id":34417,"Name":"Garganta la Olla","state_id":1190,"state_code":"EX","state_name":"Extremadura","country_id":207,"country_code":"ES","country_name":"Spain","latitude":"40.11049000","longitude":"-5.77665000","wikiDataId":"Q253672"},{"id":34418,"Name":"Gargantilla","state_id":1190,"state_code":"EX","state_name":"Extremadura","country_id":207,"country_code":"ES","country_name":"Spain","latitude":"40.24835000","longitude":"-5.92068000","wikiDataId":"Q1643602"},{"id":34419,"Name":"Gargüera","state_id":1190,"state_code":"EX","state_name":"Extremadura","country_id":207,"country_code":"ES","country_name":"Spain","latitude":"40.06130000","longitude":"-5.92781000","wikiDataId":"Q3197342"},{"id":34420,"Name":"Garlitos","state_id":1190,"state_code":"EX","state_name":"Extremadura","country_id":207,"country_code":"ES","country_name":"Spain","latitude":"38.88022000","longitude":"-5.04759000","wikiDataId":"Q1446316"},{"id":34426,"Name":"Garrovillas","state_id":1190,"state_code":"EX","state_name":"Extremadura","country_id":207,"country_code":"ES","country_name":"Spain","latitude":"39.71082000","longitude":"-6.55034000","wikiDataId":"Q904768"},{"id":34428,"Name":"Garvín","state_id":1190,"state_code":"EX","state_name":"Extremadura","country_id":207,"country_code":"ES","country_name":"Spain","latitude":"39.71984000","longitude":"-5.34678000","wikiDataId":"Q1658763"},{"id":34434,"Name":"Gata","state_id":1190,"state_code":"EX","state_name":"Extremadura","country_id":207,"country_code":"ES","country_name":"Spain","latitude":"40.23758000","longitude":"-6.59684000","wikiDataId":"Q14318"},{"id":34502,"Name":"Granja de Torrehermosa","state_id":1190,"state_code":"EX","state_name":"Extremadura","country_id":207,"country_code":"ES","country_name":"Spain","latitude":"38.31667000","longitude":"-5.58333000","wikiDataId":"Q1372757"},{"id":34526,"Name":"Guadalupe","state_id":1190,"state_code":"EX","state_name":"Extremadura","country_id":207,"country_code":"ES","country_name":"Spain","latitude":"39.45080000","longitude":"-5.32588000","wikiDataId":"Q695504"},{"id":34537,"Name":"Guareña","state_id":1190,"state_code":"EX","state_name":"Extremadura","country_id":207,"country_code":"ES","country_name":"Spain","latitude":"38.85952000","longitude":"-6.09987000","wikiDataId":"Q23986395"},{"id":34542,"Name":"Guijo de Coria","state_id":1190,"state_code":"EX","state_name":"Extremadura","country_id":207,"country_code":"ES","country_name":"Spain","latitude":"40.10098000","longitude":"-6.46383000","wikiDataId":"Q1646335"},{"id":34543,"Name":"Guijo de Galisteo","state_id":1190,"state_code":"EX","state_name":"Extremadura","country_id":207,"country_code":"ES","country_name":"Spain","latitude":"40.09383000","longitude":"-6.41007000","wikiDataId":"Q1646335"},{"id":34544,"Name":"Guijo de Granadilla","state_id":1190,"state_code":"EX","state_name":"Extremadura","country_id":207,"country_code":"ES","country_name":"Spain","latitude":"40.19351000","longitude":"-6.16339000","wikiDataId":"Q1643791"},{"id":34545,"Name":"Guijo de Santa Bárbara","state_id":1190,"state_code":"EX","state_name":"Extremadura","country_id":207,"country_code":"ES","country_name":"Spain","latitude":"40.15410000","longitude":"-5.65414000","wikiDataId":"Q1645193"},{"id":34582,"Name":"Herguijuela","state_id":1190,"state_code":"EX","state_name":"Extremadura","country_id":207,"country_code":"ES","country_name":"Spain","latitude":"39.37452000","longitude":"-5.76001000","wikiDataId":"Q1632508"},{"id":34591,"Name":"Hernán-Pérez","state_id":1190,"state_code":"EX","state_name":"Extremadura","country_id":207,"country_code":"ES","country_name":"Spain","latitude":"40.21246000","longitude":"-6.46479000","wikiDataId":"Q980477"},{"id":34594,"Name":"Herrera de Alcántara","state_id":1190,"state_code":"EX","state_name":"Extremadura","country_id":207,"country_code":"ES","country_name":"Spain","latitude":"39.63865000","longitude":"-7.40619000","wikiDataId":"Q1658574"},{"id":34599,"Name":"Herrera del Duque","state_id":1190,"state_code":"EX","state_name":"Extremadura","country_id":207,"country_code":"ES","country_name":"Spain","latitude":"39.16840000","longitude":"-5.05049000","wikiDataId":"Q1407162"},{"id":34604,"Name":"Hervás","state_id":1190,"state_code":"EX","state_name":"Extremadura","country_id":207,"country_code":"ES","country_name":"Spain","latitude":"40.27081000","longitude":"-5.86721000","wikiDataId":"Q1628817"},{"id":34607,"Name":"Higuera","state_id":1190,"state_code":"EX","state_name":"Extremadura","country_id":207,"country_code":"ES","country_name":"Spain","latitude":"39.72551000","longitude":"-5.66692000","wikiDataId":"Q1647875"},{"id":34611,"Name":"Higuera de la Serena","state_id":1190,"state_code":"EX","state_name":"Extremadura","country_id":207,"country_code":"ES","country_name":"Spain","latitude":"38.64616000","longitude":"-5.74129000","wikiDataId":"Q1446402"},{"id":34610,"Name":"Higuera de Vargas","state_id":1190,"state_code":"EX","state_name":"Extremadura","country_id":207,"country_code":"ES","country_name":"Spain","latitude":"38.44700000","longitude":"-6.97517000","wikiDataId":"Q929743"},{"id":34614,"Name":"Higuera la Real","state_id":1190,"state_code":"EX","state_name":"Extremadura","country_id":207,"country_code":"ES","country_name":"Spain","latitude":"38.14088000","longitude":"-6.68922000","wikiDataId":"Q953685"},{"id":34619,"Name":"Hinojal","state_id":1190,"state_code":"EX","state_name":"Extremadura","country_id":207,"country_code":"ES","country_name":"Spain","latitude":"39.70900000","longitude":"-6.35567000","wikiDataId":"Q1646377"},{"id":34628,"Name":"Hinojosa del Valle","state_id":1190,"state_code":"EX","state_name":"Extremadura","country_id":207,"country_code":"ES","country_name":"Spain","latitude":"38.48333000","longitude":"-6.18333000","wikiDataId":"Q1446338"},{"id":34631,"Name":"Holguera","state_id":1190,"state_code":"EX","state_name":"Extremadura","country_id":207,"country_code":"ES","country_name":"Spain","latitude":"39.89916000","longitude":"-6.34999000","wikiDataId":"Q1646345"},{"id":34659,"Name":"Hornachos","state_id":1190,"state_code":"EX","state_name":"Extremadura","country_id":207,"country_code":"ES","country_name":"Spain","latitude":"38.55428000","longitude":"-6.06829000","wikiDataId":"Q1446441"},{"id":34677,"Name":"Hoyos","state_id":1190,"state_code":"EX","state_name":"Extremadura","country_id":207,"country_code":"ES","country_name":"Spain","latitude":"40.17154000","longitude":"-6.72092000","wikiDataId":"Q1606975"},{"id":34707,"Name":"Huélaga","state_id":1190,"state_code":"EX","state_name":"Extremadura","country_id":207,"country_code":"ES","country_name":"Spain","latitude":"40.05582000","longitude":"-6.61568000","wikiDataId":"Q1645042"},{"id":34723,"Name":"Ibahernando","state_id":1190,"state_code":"EX","state_name":"Extremadura","country_id":207,"country_code":"ES","country_name":"Spain","latitude":"39.32538000","longitude":"-5.91833000","wikiDataId":"Q1643623"},{"id":34798,"Name":"Jaraicejo","state_id":1190,"state_code":"EX","state_name":"Extremadura","country_id":207,"country_code":"ES","country_name":"Spain","latitude":"39.66624000","longitude":"-5.81308000","wikiDataId":"Q1643598"},{"id":34802,"Name":"Jaraíz de la Vera","state_id":1190,"state_code":"EX","state_name":"Extremadura","country_id":207,"country_code":"ES","country_name":"Spain","latitude":"40.06005000","longitude":"-5.75426000","wikiDataId":"Q368372"},{"id":34801,"Name":"Jarandilla de la Vera","state_id":1190,"state_code":"EX","state_name":"Extremadura","country_id":207,"country_code":"ES","country_name":"Spain","latitude":"40.12915000","longitude":"-5.66079000","wikiDataId":"Q1632660"},{"id":34813,"Name":"Jerez de los Caballeros","state_id":1190,"state_code":"EX","state_name":"Extremadura","country_id":207,"country_code":"ES","country_name":"Spain","latitude":"38.32063000","longitude":"-6.77260000","wikiDataId":"Q1153945"},{"id":34814,"Name":"Jerte","state_id":1190,"state_code":"EX","state_name":"Extremadura","country_id":207,"country_code":"ES","country_name":"Spain","latitude":"40.22271000","longitude":"-5.75011000","wikiDataId":"Q1626889"},{"id":34852,"Name":"La Albuera","state_id":1190,"state_code":"EX","state_name":"Extremadura","country_id":207,"country_code":"ES","country_name":"Spain","latitude":"38.71779000","longitude":"-6.82326000","wikiDataId":"Q144268"},{"id":34867,"Name":"La Codosera","state_id":1190,"state_code":"EX","state_name":"Extremadura","country_id":207,"country_code":"ES","country_name":"Spain","latitude":"39.20878000","longitude":"-7.17330000","wikiDataId":"Q743708"},{"id":34868,"Name":"La Coronada","state_id":1190,"state_code":"EX","state_name":"Extremadura","country_id":207,"country_code":"ES","country_name":"Spain","latitude":"38.92045000","longitude":"-5.66978000","wikiDataId":"Q1447677"},{"id":34870,"Name":"La Cumbre","state_id":1190,"state_code":"EX","state_name":"Extremadura","country_id":207,"country_code":"ES","country_name":"Spain","latitude":"39.40460000","longitude":"-5.97635000","wikiDataId":"Q1630485"},{"id":34876,"Name":"La Garrovilla","state_id":1190,"state_code":"EX","state_name":"Extremadura","country_id":207,"country_code":"ES","country_name":"Spain","latitude":"38.91961000","longitude":"-6.47747000","wikiDataId":"Q587063"},{"id":34883,"Name":"La Haba","state_id":1190,"state_code":"EX","state_name":"Extremadura","country_id":207,"country_code":"ES","country_name":"Spain","latitude":"38.91929000","longitude":"-5.80034000","wikiDataId":"Q1387033"},{"id":34896,"Name":"La Nava de Santiago","state_id":1190,"state_code":"EX","state_name":"Extremadura","country_id":207,"country_code":"ES","country_name":"Spain","latitude":"39.06328000","longitude":"-6.50525000","wikiDataId":"Q970535"},{"id":34900,"Name":"La Parra","state_id":1190,"state_code":"EX","state_name":"Extremadura","country_id":207,"country_code":"ES","country_name":"Spain","latitude":"38.52120000","longitude":"-6.62260000","wikiDataId":"Q23985069"},{"id":34902,"Name":"La Pesga","state_id":1190,"state_code":"EX","state_name":"Extremadura","country_id":207,"country_code":"ES","country_name":"Spain","latitude":"40.32630000","longitude":"-6.17603000","wikiDataId":"Q728401"},{"id":34919,"Name":"La Roca de la Sierra","state_id":1190,"state_code":"EX","state_name":"Extremadura","country_id":207,"country_code":"ES","country_name":"Spain","latitude":"39.10966000","longitude":"-6.68916000","wikiDataId":"Q1372861"},{"id":34938,"Name":"Ladrillar","state_id":1190,"state_code":"EX","state_name":"Extremadura","country_id":207,"country_code":"ES","country_name":"Spain","latitude":"40.46576000","longitude":"-6.22427000","wikiDataId":"Q1613396"},{"id":35075,"Name":"Llera","state_id":1190,"state_code":"EX","state_name":"Extremadura","country_id":207,"country_code":"ES","country_name":"Spain","latitude":"38.45000000","longitude":"-6.05000000","wikiDataId":"Q1645899"},{"id":35076,"Name":"Llerena","state_id":1190,"state_code":"EX","state_name":"Extremadura","country_id":207,"country_code":"ES","country_name":"Spain","latitude":"38.23333000","longitude":"-6.01667000","wikiDataId":"Q686184"},{"id":35097,"Name":"Lobón","state_id":1190,"state_code":"EX","state_name":"Extremadura","country_id":207,"country_code":"ES","country_name":"Spain","latitude":"38.84876000","longitude":"-6.62365000","wikiDataId":"Q582987"},{"id":35100,"Name":"Logrosán","state_id":1190,"state_code":"EX","state_name":"Extremadura","country_id":207,"country_code":"ES","country_name":"Spain","latitude":"39.33641000","longitude":"-5.49281000","wikiDataId":"Q1632442"},{"id":35133,"Name":"Los Santos de Maimona","state_id":1190,"state_code":"EX","state_name":"Extremadura","country_id":207,"country_code":"ES","country_name":"Spain","latitude":"38.45000000","longitude":"-6.38333000","wikiDataId":"Q1372555"},{"id":35141,"Name":"Losar de la Vera","state_id":1190,"state_code":"EX","state_name":"Extremadura","country_id":207,"country_code":"ES","country_name":"Spain","latitude":"40.12158000","longitude":"-5.60454000","wikiDataId":"Q1631182"},{"id":35189,"Name":"Madrigal de la Vera","state_id":1190,"state_code":"EX","state_name":"Extremadura","country_id":207,"country_code":"ES","country_name":"Spain","latitude":"40.14760000","longitude":"-5.36818000","wikiDataId":"Q1630737"},{"id":35192,"Name":"Madrigalejo","state_id":1190,"state_code":"EX","state_name":"Extremadura","country_id":207,"country_code":"ES","country_name":"Spain","latitude":"39.13858000","longitude":"-5.62740000","wikiDataId":"Q1643765"},{"id":35196,"Name":"Madroñera","state_id":1190,"state_code":"EX","state_name":"Extremadura","country_id":207,"country_code":"ES","country_name":"Spain","latitude":"39.42526000","longitude":"-5.75568000","wikiDataId":"Q1613503"},{"id":35199,"Name":"Magacela","state_id":1190,"state_code":"EX","state_name":"Extremadura","country_id":207,"country_code":"ES","country_name":"Spain","latitude":"38.89648000","longitude":"-5.73437000","wikiDataId":"Q1615390"},{"id":35204,"Name":"Maguilla","state_id":1190,"state_code":"EX","state_name":"Extremadura","country_id":207,"country_code":"ES","country_name":"Spain","latitude":"38.36667000","longitude":"-5.83333000","wikiDataId":"Q1372788"},{"id":35215,"Name":"Majadas","state_id":1190,"state_code":"EX","state_name":"Extremadura","country_id":207,"country_code":"ES","country_name":"Spain","latitude":"39.94291000","longitude":"-5.74589000","wikiDataId":"Q427505"},{"id":35221,"Name":"Malcocinado","state_id":1190,"state_code":"EX","state_name":"Extremadura","country_id":207,"country_code":"ES","country_name":"Spain","latitude":"38.11667000","longitude":"-5.68333000","wikiDataId":"Q1446416"},{"id":35227,"Name":"Malpartida de Cáceres","state_id":1190,"state_code":"EX","state_name":"Extremadura","country_id":207,"country_code":"ES","country_name":"Spain","latitude":"39.44664000","longitude":"-6.50760000","wikiDataId":"Q946208"},{"id":35229,"Name":"Malpartida de la Serena","state_id":1190,"state_code":"EX","state_name":"Extremadura","country_id":207,"country_code":"ES","country_name":"Spain","latitude":"38.67470000","longitude":"-5.64054000","wikiDataId":"Q1615324"},{"id":35228,"Name":"Malpartida de Plasencia","state_id":1190,"state_code":"EX","state_name":"Extremadura","country_id":207,"country_code":"ES","country_name":"Spain","latitude":"39.97962000","longitude":"-6.04609000","wikiDataId":"Q1643692"},{"id":35243,"Name":"Manchita","state_id":1190,"state_code":"EX","state_name":"Extremadura","country_id":207,"country_code":"ES","country_name":"Spain","latitude":"38.81404000","longitude":"-6.02041000","wikiDataId":"Q1446428"},{"id":35282,"Name":"Marchagaz","state_id":1190,"state_code":"EX","state_name":"Extremadura","country_id":207,"country_code":"ES","country_name":"Spain","latitude":"40.26769000","longitude":"-6.27485000","wikiDataId":"Q1643628"},{"id":35329,"Name":"Mata de Alcántara","state_id":1190,"state_code":"EX","state_name":"Extremadura","country_id":207,"country_code":"ES","country_name":"Spain","latitude":"39.71738000","longitude":"-6.81825000","wikiDataId":"Q1640520"},{"id":35367,"Name":"Medellín","state_id":1190,"state_code":"EX","state_name":"Extremadura","country_id":207,"country_code":"ES","country_name":"Spain","latitude":"38.96265000","longitude":"-5.95785000","wikiDataId":"Q23984122"},{"id":35372,"Name":"Medina de las Torres","state_id":1190,"state_code":"EX","state_name":"Extremadura","country_id":207,"country_code":"ES","country_name":"Spain","latitude":"38.33333000","longitude":"-6.40000000","wikiDataId":"Q1406716"},{"id":35403,"Name":"Mengabril","state_id":1190,"state_code":"EX","state_name":"Extremadura","country_id":207,"country_code":"ES","country_name":"Spain","latitude":"38.93554000","longitude":"-5.93335000","wikiDataId":"Q1455235"},{"id":35707,"Name":"Mérida","state_id":1190,"state_code":"EX","state_name":"Extremadura","country_id":207,"country_code":"ES","country_name":"Spain","latitude":"38.91611000","longitude":"-6.34366000","wikiDataId":"Q14323"},{"id":35408,"Name":"Mesas de Ibor","state_id":1190,"state_code":"EX","state_name":"Extremadura","country_id":207,"country_code":"ES","country_name":"Spain","latitude":"39.75587000","longitude":"-5.54637000","wikiDataId":"Q1644461"},{"id":35416,"Name":"Miajadas","state_id":1190,"state_code":"EX","state_name":"Extremadura","country_id":207,"country_code":"ES","country_name":"Spain","latitude":"39.15127000","longitude":"-5.90841000","wikiDataId":"Q371790"},{"id":35431,"Name":"Millanes","state_id":1190,"state_code":"EX","state_name":"Extremadura","country_id":207,"country_code":"ES","country_name":"Spain","latitude":"39.84917000","longitude":"-5.58079000","wikiDataId":"Q650873"},{"id":35440,"Name":"Mirabel","state_id":1190,"state_code":"EX","state_name":"Extremadura","country_id":207,"country_code":"ES","country_name":"Spain","latitude":"39.86230000","longitude":"-6.23274000","wikiDataId":"Q1764584"},{"id":35452,"Name":"Mirandilla","state_id":1190,"state_code":"EX","state_name":"Extremadura","country_id":207,"country_code":"ES","country_name":"Spain","latitude":"39.00200000","longitude":"-6.28893000","wikiDataId":"Q527689"},{"id":35509,"Name":"Monesterio","state_id":1190,"state_code":"EX","state_name":"Extremadura","country_id":207,"country_code":"ES","country_name":"Spain","latitude":"38.08333000","longitude":"-6.26667000","wikiDataId":"Q733580"},{"id":35588,"Name":"Montánchez","state_id":1190,"state_code":"EX","state_name":"Extremadura","country_id":207,"country_code":"ES","country_name":"Spain","latitude":"39.22548000","longitude":"-6.14914000","wikiDataId":"Q1630109"},{"id":35549,"Name":"Montehermoso","state_id":1190,"state_code":"EX","state_name":"Extremadura","country_id":207,"country_code":"ES","country_name":"Spain","latitude":"40.08796000","longitude":"-6.34984000","wikiDataId":"Q43713"},{"id":35561,"Name":"Montemolín","state_id":1190,"state_code":"EX","state_name":"Extremadura","country_id":207,"country_code":"ES","country_name":"Spain","latitude":"38.15000000","longitude":"-6.20000000","wikiDataId":"Q1372801"},{"id":35568,"Name":"Monterrubio de la Serena","state_id":1190,"state_code":"EX","state_name":"Extremadura","country_id":207,"country_code":"ES","country_name":"Spain","latitude":"38.58876000","longitude":"-5.44569000","wikiDataId":"Q587935"},{"id":35576,"Name":"Montijo","state_id":1190,"state_code":"EX","state_name":"Extremadura","country_id":207,"country_code":"ES","country_name":"Spain","latitude":"38.90839000","longitude":"-6.61785000","wikiDataId":"Q1610078"},{"id":35601,"Name":"Moraleja","state_id":1190,"state_code":"EX","state_name":"Extremadura","country_id":207,"country_code":"ES","country_name":"Spain","latitude":"40.06682000","longitude":"-6.65983000","wikiDataId":"Q23994282"},{"id":35622,"Name":"Morcillo","state_id":1190,"state_code":"EX","state_name":"Extremadura","country_id":207,"country_code":"ES","country_name":"Spain","latitude":"40.01884000","longitude":"-6.39746000","wikiDataId":"Q1607494"},{"id":35732,"Name":"Navaconcejo","state_id":1190,"state_code":"EX","state_name":"Extremadura","country_id":207,"country_code":"ES","country_name":"Spain","latitude":"40.17712000","longitude":"-5.83108000","wikiDataId":"Q1632435"},{"id":35752,"Name":"Navalmoral de la Mata","state_id":1190,"state_code":"EX","state_name":"Extremadura","country_id":207,"country_code":"ES","country_name":"Spain","latitude":"39.89158000","longitude":"-5.54064000","wikiDataId":"Q965529"},{"id":35760,"Name":"Navalvillar de Ibor","state_id":1190,"state_code":"EX","state_name":"Extremadura","country_id":207,"country_code":"ES","country_name":"Spain","latitude":"39.58389000","longitude":"-5.41328000","wikiDataId":"Q1638594"},{"id":35761,"Name":"Navalvillar de Pela","state_id":1190,"state_code":"EX","state_name":"Extremadura","country_id":207,"country_code":"ES","country_name":"Spain","latitude":"39.09436000","longitude":"-5.46810000","wikiDataId":"Q649045"},{"id":35782,"Name":"Navas del Madroño","state_id":1190,"state_code":"EX","state_name":"Extremadura","country_id":207,"country_code":"ES","country_name":"Spain","latitude":"39.62290000","longitude":"-6.65260000","wikiDataId":"Q511197"},{"id":35789,"Name":"Navezuelas","state_id":1190,"state_code":"EX","state_name":"Extremadura","country_id":207,"country_code":"ES","country_name":"Spain","latitude":"39.50918000","longitude":"-5.43766000","wikiDataId":"Q1644329"},{"id":35816,"Name":"Nogales","state_id":1190,"state_code":"EX","state_name":"Extremadura","country_id":207,"country_code":"ES","country_name":"Spain","latitude":"38.58629000","longitude":"-6.74901000","wikiDataId":"Q1641701"},{"id":35841,"Name":"Nuñomoral","state_id":1190,"state_code":"EX","state_name":"Extremadura","country_id":207,"country_code":"ES","country_name":"Spain","latitude":"40.40692000","longitude":"-6.24636000","wikiDataId":"Q1613456"},{"id":35887,"Name":"Oliva de la Frontera","state_id":1190,"state_code":"EX","state_name":"Extremadura","country_id":207,"country_code":"ES","country_name":"Spain","latitude":"38.27595000","longitude":"-6.91873000","wikiDataId":"Q947183"},{"id":35885,"Name":"Oliva de Mérida","state_id":1190,"state_code":"EX","state_name":"Extremadura","country_id":207,"country_code":"ES","country_name":"Spain","latitude":"38.79051000","longitude":"-6.12402000","wikiDataId":"Q941458"},{"id":35886,"Name":"Oliva de Plasencia","state_id":1190,"state_code":"EX","state_name":"Extremadura","country_id":207,"country_code":"ES","country_name":"Spain","latitude":"40.11227000","longitude":"-6.08648000","wikiDataId":"Q1658547"},{"id":35892,"Name":"Olivenza","state_id":1190,"state_code":"EX","state_name":"Extremadura","country_id":207,"country_code":"ES","country_name":"Spain","latitude":"38.68269000","longitude":"-7.10046000","wikiDataId":"Q1647653"},{"id":35943,"Name":"Orellana la Vieja","state_id":1190,"state_code":"EX","state_name":"Extremadura","country_id":207,"country_code":"ES","country_name":"Spain","latitude":"39.00617000","longitude":"-5.53441000","wikiDataId":"Q1446374"},{"id":36038,"Name":"Palomas","state_id":1190,"state_code":"EX","state_name":"Extremadura","country_id":207,"country_code":"ES","country_name":"Spain","latitude":"38.69277000","longitude":"-6.13490000","wikiDataId":"Q1605692"},{"id":36040,"Name":"Palomero","state_id":1190,"state_code":"EX","state_name":"Extremadura","country_id":207,"country_code":"ES","country_name":"Spain","latitude":"40.24688000","longitude":"-6.27706000","wikiDataId":"Q1644124"},{"id":36113,"Name":"Pedroso de Acim","state_id":1190,"state_code":"EX","state_name":"Extremadura","country_id":207,"country_code":"ES","country_name":"Spain","latitude":"39.82522000","longitude":"-6.41251000","wikiDataId":"Q927149"},{"id":36167,"Name":"Peñalsordo","state_id":1190,"state_code":"EX","state_name":"Extremadura","country_id":207,"country_code":"ES","country_name":"Spain","latitude":"38.82019000","longitude":"-5.11405000","wikiDataId":"Q1455254"},{"id":36133,"Name":"Peraleda de la Mata","state_id":1190,"state_code":"EX","state_name":"Extremadura","country_id":207,"country_code":"ES","country_name":"Spain","latitude":"39.85288000","longitude":"-5.46065000","wikiDataId":"Q1643620"},{"id":36132,"Name":"Peraleda de San Román","state_id":1190,"state_code":"EX","state_name":"Extremadura","country_id":207,"country_code":"ES","country_name":"Spain","latitude":"39.74130000","longitude":"-5.38726000","wikiDataId":"Q23982662"},{"id":36141,"Name":"Perales del Puerto","state_id":1190,"state_code":"EX","state_name":"Extremadura","country_id":207,"country_code":"ES","country_name":"Spain","latitude":"40.15596000","longitude":"-6.68192000","wikiDataId":"Q1630915"},{"id":36154,"Name":"Pescueza","state_id":1190,"state_code":"EX","state_name":"Extremadura","country_id":207,"country_code":"ES","country_name":"Spain","latitude":"39.91807000","longitude":"-6.64589000","wikiDataId":"Q1642988"},{"id":36184,"Name":"Piedras Albas","state_id":1190,"state_code":"EX","state_name":"Extremadura","country_id":207,"country_code":"ES","country_name":"Spain","latitude":"39.78417000","longitude":"-6.92588000","wikiDataId":"Q1647923"},{"id":36210,"Name":"Pinofranqueado","state_id":1190,"state_code":"EX","state_name":"Extremadura","country_id":207,"country_code":"ES","country_name":"Spain","latitude":"40.30351000","longitude":"-6.33181000","wikiDataId":"Q1611575"},{"id":36216,"Name":"Piornal","state_id":1190,"state_code":"EX","state_name":"Extremadura","country_id":207,"country_code":"ES","country_name":"Spain","latitude":"40.11731000","longitude":"-5.84787000","wikiDataId":"Q1613446"},{"id":36236,"Name":"Plasencia","state_id":1190,"state_code":"EX","state_name":"Extremadura","country_id":207,"country_code":"ES","country_name":"Spain","latitude":"40.03116000","longitude":"-6.08845000","wikiDataId":"Q12318"},{"id":36238,"Name":"Plasenzuela","state_id":1190,"state_code":"EX","state_name":"Extremadura","country_id":207,"country_code":"ES","country_name":"Spain","latitude":"39.38194000","longitude":"-6.04786000","wikiDataId":"Q1658539"},{"id":36285,"Name":"Portaje","state_id":1190,"state_code":"EX","state_name":"Extremadura","country_id":207,"country_code":"ES","country_name":"Spain","latitude":"39.91757000","longitude":"-6.56218000","wikiDataId":"Q1643030"},{"id":36289,"Name":"Portezuelo","state_id":1190,"state_code":"EX","state_name":"Extremadura","country_id":207,"country_code":"ES","country_name":"Spain","latitude":"39.81233000","longitude":"-6.47433000","wikiDataId":"Q1900715"},{"id":36335,"Name":"Pozuelo de Zarzón","state_id":1190,"state_code":"EX","state_name":"Extremadura","country_id":207,"country_code":"ES","country_name":"Spain","latitude":"40.14805000","longitude":"-6.41458000","wikiDataId":"Q1630861"},{"id":36363,"Name":"Provincia de Badajoz","state_id":1190,"state_code":"EX","state_name":"Extremadura","country_id":207,"country_code":"ES","country_name":"Spain","latitude":"38.66667000","longitude":"-6.16667000","wikiDataId":"Q81803"},{"id":36368,"Name":"Provincia de Cáceres","state_id":1190,"state_code":"EX","state_name":"Extremadura","country_id":207,"country_code":"ES","country_name":"Spain","latitude":"39.52205000","longitude":"-6.37482000","wikiDataId":"Q81977"},{"id":36409,"Name":"Puebla de Alcocer","state_id":1190,"state_code":"EX","state_name":"Extremadura","country_id":207,"country_code":"ES","country_name":"Spain","latitude":"38.98648000","longitude":"-5.25633000","wikiDataId":"Q1605886"},{"id":36426,"Name":"Puebla de la Calzada","state_id":1190,"state_code":"EX","state_name":"Extremadura","country_id":207,"country_code":"ES","country_name":"Spain","latitude":"38.89441000","longitude":"-6.62592000","wikiDataId":"Q1387062"},{"id":36427,"Name":"Puebla de la Reina","state_id":1190,"state_code":"EX","state_name":"Extremadura","country_id":207,"country_code":"ES","country_name":"Spain","latitude":"38.66455000","longitude":"-6.10216000","wikiDataId":"Q1446389"},{"id":36419,"Name":"Puebla de Obando","state_id":1190,"state_code":"EX","state_name":"Extremadura","country_id":207,"country_code":"ES","country_name":"Spain","latitude":"39.17630000","longitude":"-6.62764000","wikiDataId":"Q1372742"},{"id":36424,"Name":"Puebla de Sancho Pérez","state_id":1190,"state_code":"EX","state_name":"Extremadura","country_id":207,"country_code":"ES","country_name":"Spain","latitude":"38.40000000","longitude":"-6.40000000","wikiDataId":"Q678613"},{"id":36428,"Name":"Puebla del Maestre","state_id":1190,"state_code":"EX","state_name":"Extremadura","country_id":207,"country_code":"ES","country_name":"Spain","latitude":"38.08333000","longitude":"-6.08333000","wikiDataId":"Q1446303"},{"id":36429,"Name":"Puebla del Prior","state_id":1190,"state_code":"EX","state_name":"Extremadura","country_id":207,"country_code":"ES","country_name":"Spain","latitude":"38.57032000","longitude":"-6.19584000","wikiDataId":"Q1455217"},{"id":36453,"Name":"Puerto de Santa Cruz","state_id":1190,"state_code":"EX","state_name":"Extremadura","country_id":207,"country_code":"ES","country_name":"Spain","latitude":"39.31631000","longitude":"-5.85875000","wikiDataId":"Q1644113"},{"id":36502,"Name":"Quintana de la Serena","state_id":1190,"state_code":"EX","state_name":"Extremadura","country_id":207,"country_code":"ES","country_name":"Spain","latitude":"38.74595000","longitude":"-5.67233000","wikiDataId":"Q1387040"},{"id":36567,"Name":"Reina","state_id":1190,"state_code":"EX","state_name":"Extremadura","country_id":207,"country_code":"ES","country_name":"Spain","latitude":"38.18333000","longitude":"-5.95000000","wikiDataId":"Q1752863"},{"id":36575,"Name":"Rena","state_id":1190,"state_code":"EX","state_name":"Extremadura","country_id":207,"country_code":"ES","country_name":"Spain","latitude":"39.05252000","longitude":"-5.80868000","wikiDataId":"Q1630808"},{"id":36615,"Name":"Ribera del Fresno","state_id":1190,"state_code":"EX","state_name":"Extremadura","country_id":207,"country_code":"ES","country_name":"Spain","latitude":"38.55177000","longitude":"-6.23768000","wikiDataId":"Q1442520"},{"id":36717,"Name":"Ríolobos","state_id":1190,"state_code":"EX","state_name":"Extremadura","country_id":207,"country_code":"ES","country_name":"Spain","latitude":"39.92074000","longitude":"-6.30397000","wikiDataId":"Q1613493"},{"id":36648,"Name":"Robledillo de Gata","state_id":1190,"state_code":"EX","state_name":"Extremadura","country_id":207,"country_code":"ES","country_name":"Spain","latitude":"40.32234000","longitude":"-6.47129000","wikiDataId":"Q1120025"},{"id":36652,"Name":"Robledillo de la Vera","state_id":1190,"state_code":"EX","state_name":"Extremadura","country_id":207,"country_code":"ES","country_name":"Spain","latitude":"40.10093000","longitude":"-5.58896000","wikiDataId":"Q1642754"},{"id":36650,"Name":"Robledillo de Trujillo","state_id":1190,"state_code":"EX","state_name":"Extremadura","country_id":207,"country_code":"ES","country_name":"Spain","latitude":"39.26956000","longitude":"-5.98001000","wikiDataId":"Q976530"},{"id":36656,"Name":"Robledollano","state_id":1190,"state_code":"EX","state_name":"Extremadura","country_id":207,"country_code":"ES","country_name":"Spain","latitude":"39.60962000","longitude":"-5.50855000","wikiDataId":"Q730201"},{"id":36669,"Name":"Romangordo","state_id":1190,"state_code":"EX","state_name":"Extremadura","country_id":207,"country_code":"ES","country_name":"Spain","latitude":"39.74199000","longitude":"-5.70081000","wikiDataId":"Q1642781"},{"id":36677,"Name":"Rosalejo","state_id":1190,"state_code":"EX","state_name":"Extremadura","country_id":207,"country_code":"ES","country_name":"Spain","latitude":"39.43660000","longitude":"-4.90821000","wikiDataId":"Q23979863"},{"id":36687,"Name":"Ruanes","state_id":1190,"state_code":"EX","state_name":"Extremadura","country_id":207,"country_code":"ES","country_name":"Spain","latitude":"39.32814000","longitude":"-6.01347000","wikiDataId":"Q1642766"},{"id":36776,"Name":"Salorino","state_id":1190,"state_code":"EX","state_name":"Extremadura","country_id":207,"country_code":"ES","country_name":"Spain","latitude":"39.48018000","longitude":"-7.00758000","wikiDataId":"Q2572619"},{"id":36783,"Name":"Salvaleón","state_id":1190,"state_code":"EX","state_name":"Extremadura","country_id":207,"country_code":"ES","country_name":"Spain","latitude":"38.51020000","longitude":"-6.78627000","wikiDataId":"Q1443665"},{"id":36788,"Name":"Salvatierra de los Barros","state_id":1190,"state_code":"EX","state_name":"Extremadura","country_id":207,"country_code":"ES","country_name":"Spain","latitude":"38.49091000","longitude":"-6.68423000","wikiDataId":"Q1443754"},{"id":36786,"Name":"Salvatierra de Santiago","state_id":1190,"state_code":"EX","state_name":"Extremadura","country_id":207,"country_code":"ES","country_name":"Spain","latitude":"39.30363000","longitude":"-6.03206000","wikiDataId":"Q1658566"},{"id":36868,"Name":"San Martín de Trevejo","state_id":1190,"state_code":"EX","state_name":"Extremadura","country_id":207,"country_code":"ES","country_name":"Spain","latitude":"40.21241000","longitude":"-6.79535000","wikiDataId":"Q1628492"},{"id":36907,"Name":"San Pedro de Mérida","state_id":1190,"state_code":"EX","state_name":"Extremadura","country_id":207,"country_code":"ES","country_name":"Spain","latitude":"38.95007000","longitude":"-6.18645000","wikiDataId":"Q1443685"},{"id":36926,"Name":"San Vicente de Alcántara","state_id":1190,"state_code":"EX","state_name":"Extremadura","country_id":207,"country_code":"ES","country_name":"Spain","latitude":"39.36132000","longitude":"-7.13766000","wikiDataId":"Q1442479"},{"id":37003,"Name":"Santa Amalia","state_id":1190,"state_code":"EX","state_name":"Extremadura","country_id":207,"country_code":"ES","country_name":"Spain","latitude":"39.01118000","longitude":"-6.01158000","wikiDataId":"Q1407143"},{"id":37004,"Name":"Santa Ana","state_id":1190,"state_code":"EX","state_name":"Extremadura","country_id":207,"country_code":"ES","country_name":"Spain","latitude":"39.30823000","longitude":"-5.99027000","wikiDataId":"Q1407143"},{"id":37041,"Name":"Santa Cruz de la Sierra","state_id":1190,"state_code":"EX","state_name":"Extremadura","country_id":207,"country_code":"ES","country_name":"Spain","latitude":"39.33635000","longitude":"-5.84561000","wikiDataId":"Q973409"},{"id":37034,"Name":"Santa Cruz de Paniagua","state_id":1190,"state_code":"EX","state_name":"Extremadura","country_id":207,"country_code":"ES","country_name":"Spain","latitude":"40.19167000","longitude":"-6.34003000","wikiDataId":"Q976610"},{"id":37069,"Name":"Santa Marta","state_id":1190,"state_code":"EX","state_name":"Extremadura","country_id":207,"country_code":"ES","country_name":"Spain","latitude":"38.61421000","longitude":"-6.62799000","wikiDataId":"Q138239"},{"id":37070,"Name":"Santa Marta de Magasca","state_id":1190,"state_code":"EX","state_name":"Extremadura","country_id":207,"country_code":"ES","country_name":"Spain","latitude":"39.51150000","longitude":"-6.09881000","wikiDataId":"Q1658734"},{"id":37117,"Name":"Santiago del Campo","state_id":1190,"state_code":"EX","state_name":"Extremadura","country_id":207,"country_code":"ES","country_name":"Spain","latitude":"39.62840000","longitude":"-6.36362000","wikiDataId":"Q1658560"},{"id":37128,"Name":"Santibáñez el Alto","state_id":1190,"state_code":"EX","state_name":"Extremadura","country_id":207,"country_code":"ES","country_name":"Spain","latitude":"40.18525000","longitude":"-6.54782000","wikiDataId":"Q1628837"},{"id":37129,"Name":"Santibáñez el Bajo","state_id":1190,"state_code":"EX","state_name":"Extremadura","country_id":207,"country_code":"ES","country_name":"Spain","latitude":"40.17637000","longitude":"-6.22441000","wikiDataId":"Q522058"},{"id":37177,"Name":"Saucedilla","state_id":1190,"state_code":"EX","state_name":"Extremadura","country_id":207,"country_code":"ES","country_name":"Spain","latitude":"39.85284000","longitude":"-5.67781000","wikiDataId":"Q1628353"},{"id":37195,"Name":"Segura de León","state_id":1190,"state_code":"EX","state_name":"Extremadura","country_id":207,"country_code":"ES","country_name":"Spain","latitude":"38.11667000","longitude":"-6.51667000","wikiDataId":"Q23979296"},{"id":37196,"Name":"Segura de Toro","state_id":1190,"state_code":"EX","state_name":"Extremadura","country_id":207,"country_code":"ES","country_name":"Spain","latitude":"40.22427000","longitude":"-5.94836000","wikiDataId":"Q542646"},{"id":37221,"Name":"Serradilla","state_id":1190,"state_code":"EX","state_name":"Extremadura","country_id":207,"country_code":"ES","country_name":"Spain","latitude":"39.82920000","longitude":"-6.14034000","wikiDataId":"Q1628832"},{"id":37226,"Name":"Serrejón","state_id":1190,"state_code":"EX","state_name":"Extremadura","country_id":207,"country_code":"ES","country_name":"Spain","latitude":"39.81735000","longitude":"-5.80263000","wikiDataId":"Q1640773"},{"id":37244,"Name":"Sierra de Fuentes","state_id":1190,"state_code":"EX","state_name":"Extremadura","country_id":207,"country_code":"ES","country_name":"Spain","latitude":"39.43997000","longitude":"-6.27242000","wikiDataId":"Q1628461"},{"id":37264,"Name":"Siruela","state_id":1190,"state_code":"EX","state_name":"Extremadura","country_id":207,"country_code":"ES","country_name":"Spain","latitude":"38.97718000","longitude":"-5.04969000","wikiDataId":"Q1372816"},{"id":37279,"Name":"Solana de los Barros","state_id":1190,"state_code":"EX","state_name":"Extremadura","country_id":207,"country_code":"ES","country_name":"Spain","latitude":"38.72527000","longitude":"-6.53899000","wikiDataId":"Q1442582"},{"id":37356,"Name":"Talarrubias","state_id":1190,"state_code":"EX","state_name":"Extremadura","country_id":207,"country_code":"ES","country_name":"Spain","latitude":"39.03697000","longitude":"-5.23423000","wikiDataId":"Q669707"},{"id":37359,"Name":"Talaván","state_id":1190,"state_code":"EX","state_name":"Extremadura","country_id":207,"country_code":"ES","country_name":"Spain","latitude":"39.71715000","longitude":"-6.28146000","wikiDataId":"Q1640803"},{"id":37357,"Name":"Talavera La Real","state_id":1190,"state_code":"EX","state_name":"Extremadura","country_id":207,"country_code":"ES","country_name":"Spain","latitude":"38.87794000","longitude":"-6.76856000","wikiDataId":"Q1387075"},{"id":37360,"Name":"Talayuela","state_id":1190,"state_code":"EX","state_name":"Extremadura","country_id":207,"country_code":"ES","country_name":"Spain","latitude":"39.98701000","longitude":"-5.60982000","wikiDataId":"Q1442461"},{"id":37663,"Name":"Táliga","state_id":1190,"state_code":"EX","state_name":"Extremadura","country_id":207,"country_code":"ES","country_name":"Spain","latitude":"38.52861000","longitude":"-7.01713000","wikiDataId":"Q1613535"},{"id":37367,"Name":"Tamurejo","state_id":1190,"state_code":"EX","state_name":"Extremadura","country_id":207,"country_code":"ES","country_name":"Spain","latitude":"38.98333000","longitude":"-4.93333000","wikiDataId":"Q1629497"},{"id":37398,"Name":"Tejeda de Tiétar","state_id":1190,"state_code":"EX","state_name":"Extremadura","country_id":207,"country_code":"ES","country_name":"Spain","latitude":"40.01790000","longitude":"-5.86953000","wikiDataId":"Q1750981"},{"id":37466,"Name":"Toril","state_id":1190,"state_code":"EX","state_name":"Extremadura","country_id":207,"country_code":"ES","country_name":"Spain","latitude":"39.89749000","longitude":"-5.77950000","wikiDataId":"Q31925224"},{"id":37474,"Name":"Tornavacas","state_id":1190,"state_code":"EX","state_name":"Extremadura","country_id":207,"country_code":"ES","country_name":"Spain","latitude":"40.25498000","longitude":"-5.68876000","wikiDataId":"Q1626858"},{"id":37491,"Name":"Torre de Don Miguel","state_id":1190,"state_code":"EX","state_name":"Extremadura","country_id":207,"country_code":"ES","country_name":"Spain","latitude":"40.22333000","longitude":"-6.57686000","wikiDataId":"Q1641468"},{"id":37494,"Name":"Torre de Miguel Sesmero","state_id":1190,"state_code":"EX","state_name":"Extremadura","country_id":207,"country_code":"ES","country_name":"Spain","latitude":"38.61913000","longitude":"-6.79580000","wikiDataId":"Q1613555"},{"id":37496,"Name":"Torre de Santa María","state_id":1190,"state_code":"EX","state_name":"Extremadura","country_id":207,"country_code":"ES","country_name":"Spain","latitude":"39.25441000","longitude":"-6.11610000","wikiDataId":"Q1183759"},{"id":37520,"Name":"Torrecilla de los Ángeles","state_id":1190,"state_code":"EX","state_name":"Extremadura","country_id":207,"country_code":"ES","country_name":"Spain","latitude":"40.24788000","longitude":"-6.41606000","wikiDataId":"Q1628823"},{"id":37526,"Name":"Torrecillas de la Tiesa","state_id":1190,"state_code":"EX","state_name":"Extremadura","country_id":207,"country_code":"ES","country_name":"Spain","latitude":"39.56837000","longitude":"-5.74238000","wikiDataId":"Q1628401"},{"id":37542,"Name":"Torrejón el Rubio","state_id":1190,"state_code":"EX","state_name":"Extremadura","country_id":207,"country_code":"ES","country_name":"Spain","latitude":"39.77068000","longitude":"-6.01260000","wikiDataId":"Q615676"},{"id":37536,"Name":"Torrejoncillo","state_id":1190,"state_code":"EX","state_name":"Extremadura","country_id":207,"country_code":"ES","country_name":"Spain","latitude":"39.89675000","longitude":"-6.46712000","wikiDataId":"Q521090"},{"id":37552,"Name":"Torremayor","state_id":1190,"state_code":"EX","state_name":"Extremadura","country_id":207,"country_code":"ES","country_name":"Spain","latitude":"38.90140000","longitude":"-6.53858000","wikiDataId":"Q1613573"},{"id":37553,"Name":"Torremegía","state_id":1190,"state_code":"EX","state_name":"Extremadura","country_id":207,"country_code":"ES","country_name":"Spain","latitude":"38.79037000","longitude":"-6.37670000","wikiDataId":"Q1613573"},{"id":37554,"Name":"Torremenga","state_id":1190,"state_code":"EX","state_name":"Extremadura","country_id":207,"country_code":"ES","country_name":"Spain","latitude":"40.04658000","longitude":"-5.77471000","wikiDataId":"Q1641394"},{"id":37555,"Name":"Torremocha","state_id":1190,"state_code":"EX","state_name":"Extremadura","country_id":207,"country_code":"ES","country_name":"Spain","latitude":"39.34565000","longitude":"-6.17335000","wikiDataId":"Q1626819"},{"id":37568,"Name":"Torreorgaz","state_id":1190,"state_code":"EX","state_name":"Extremadura","country_id":207,"country_code":"ES","country_name":"Spain","latitude":"39.38310000","longitude":"-6.24941000","wikiDataId":"Q749842"},{"id":37570,"Name":"Torrequemada","state_id":1190,"state_code":"EX","state_name":"Extremadura","country_id":207,"country_code":"ES","country_name":"Spain","latitude":"39.36664000","longitude":"-6.22052000","wikiDataId":"Q1643596"},{"id":37619,"Name":"Trasierra","state_id":1190,"state_code":"EX","state_name":"Extremadura","country_id":207,"country_code":"ES","country_name":"Spain","latitude":"38.18333000","longitude":"-6.00000000","wikiDataId":"Q952282"},{"id":37644,"Name":"Trujillanos","state_id":1190,"state_code":"EX","state_name":"Extremadura","country_id":207,"country_code":"ES","country_name":"Spain","latitude":"38.95233000","longitude":"-6.25759000","wikiDataId":"Q2572293"},{"id":37645,"Name":"Trujillo","state_id":1190,"state_code":"EX","state_name":"Extremadura","country_id":207,"country_code":"ES","country_name":"Spain","latitude":"39.45786000","longitude":"-5.88203000","wikiDataId":"Q23979008"},{"id":37703,"Name":"Usagre","state_id":1190,"state_code":"EX","state_name":"Extremadura","country_id":207,"country_code":"ES","country_name":"Spain","latitude":"38.35000000","longitude":"-6.16667000","wikiDataId":"Q784442"},{"id":37728,"Name":"Valdastillas","state_id":1190,"state_code":"EX","state_name":"Extremadura","country_id":207,"country_code":"ES","country_name":"Spain","latitude":"40.13293000","longitude":"-5.87932000","wikiDataId":"Q588290"},{"id":37737,"Name":"Valdecaballeros","state_id":1190,"state_code":"EX","state_name":"Extremadura","country_id":207,"country_code":"ES","country_name":"Spain","latitude":"39.24289000","longitude":"-5.19000000","wikiDataId":"Q1614671"},{"id":37740,"Name":"Valdecañas de Tajo","state_id":1190,"state_code":"EX","state_name":"Extremadura","country_id":207,"country_code":"ES","country_name":"Spain","latitude":"39.75919000","longitude":"-5.61951000","wikiDataId":"Q1658788"},{"id":37745,"Name":"Valdefuentes","state_id":1190,"state_code":"EX","state_name":"Extremadura","country_id":207,"country_code":"ES","country_name":"Spain","latitude":"39.27433000","longitude":"-6.12183000","wikiDataId":"Q426206"},{"id":37752,"Name":"Valdehúncar","state_id":1190,"state_code":"EX","state_name":"Extremadura","country_id":207,"country_code":"ES","country_name":"Spain","latitude":"39.83659000","longitude":"-5.52307000","wikiDataId":"Q1642313"},{"id":37753,"Name":"Valdelacalzada","state_id":1190,"state_code":"EX","state_name":"Extremadura","country_id":207,"country_code":"ES","country_name":"Spain","latitude":"38.88943000","longitude":"-6.70029000","wikiDataId":"Q1246417"},{"id":37755,"Name":"Valdelacasa de Tajo","state_id":1190,"state_code":"EX","state_name":"Extremadura","country_id":207,"country_code":"ES","country_name":"Spain","latitude":"39.72588000","longitude":"-5.28296000","wikiDataId":"Q1656602"},{"id":37771,"Name":"Valdemorales","state_id":1190,"state_code":"EX","state_name":"Extremadura","country_id":207,"country_code":"ES","country_name":"Spain","latitude":"39.20588000","longitude":"-6.06622000","wikiDataId":"Q1750947"},{"id":37778,"Name":"Valdeobispo","state_id":1190,"state_code":"EX","state_name":"Extremadura","country_id":207,"country_code":"ES","country_name":"Spain","latitude":"40.08297000","longitude":"-6.24757000","wikiDataId":"Q1643024"},{"id":37803,"Name":"Valdetorres","state_id":1190,"state_code":"EX","state_name":"Extremadura","country_id":207,"country_code":"ES","country_name":"Spain","latitude":"38.91542000","longitude":"-6.06765000","wikiDataId":"Q1630933"},{"id":37817,"Name":"Valencia de Alcántara","state_id":1190,"state_code":"EX","state_name":"Extremadura","country_id":207,"country_code":"ES","country_name":"Spain","latitude":"39.41148000","longitude":"-7.24435000","wikiDataId":"Q1613421"},{"id":37819,"Name":"Valencia de las Torres","state_id":1190,"state_code":"EX","state_name":"Extremadura","country_id":207,"country_code":"ES","country_name":"Spain","latitude":"38.40518000","longitude":"-6.00403000","wikiDataId":"Q920525"},{"id":37820,"Name":"Valencia del Mombuey","state_id":1190,"state_code":"EX","state_name":"Extremadura","country_id":207,"country_code":"ES","country_name":"Spain","latitude":"38.24243000","longitude":"-7.11965000","wikiDataId":"Q1658582"},{"id":37821,"Name":"Valencia del Ventoso","state_id":1190,"state_code":"EX","state_name":"Extremadura","country_id":207,"country_code":"ES","country_name":"Spain","latitude":"38.26667000","longitude":"-6.46667000","wikiDataId":"Q1630828"},{"id":37848,"Name":"Valle de la Serena","state_id":1190,"state_code":"EX","state_name":"Extremadura","country_id":207,"country_code":"ES","country_name":"Spain","latitude":"38.71010000","longitude":"-5.79847000","wikiDataId":"Q1637562"},{"id":37845,"Name":"Valle de Matamoros","state_id":1190,"state_code":"EX","state_name":"Extremadura","country_id":207,"country_code":"ES","country_name":"Spain","latitude":"38.37889000","longitude":"-6.80371000","wikiDataId":"Q1647560"},{"id":37846,"Name":"Valle de Santa Ana","state_id":1190,"state_code":"EX","state_name":"Extremadura","country_id":207,"country_code":"ES","country_name":"Spain","latitude":"38.36637000","longitude":"-6.78860000","wikiDataId":"Q1643055"},{"id":37883,"Name":"Valverde de Burguillos","state_id":1190,"state_code":"EX","state_name":"Extremadura","country_id":207,"country_code":"ES","country_name":"Spain","latitude":"38.32710000","longitude":"-6.53648000","wikiDataId":"Q2003388"},{"id":37890,"Name":"Valverde de la Vera","state_id":1190,"state_code":"EX","state_name":"Extremadura","country_id":207,"country_code":"ES","country_name":"Spain","latitude":"40.12268000","longitude":"-5.49541000","wikiDataId":"Q1642209"},{"id":37886,"Name":"Valverde de Leganés","state_id":1190,"state_code":"EX","state_name":"Extremadura","country_id":207,"country_code":"ES","country_name":"Spain","latitude":"38.67059000","longitude":"-6.98036000","wikiDataId":"Q1630843"},{"id":37887,"Name":"Valverde de Llerena","state_id":1190,"state_code":"EX","state_name":"Extremadura","country_id":207,"country_code":"ES","country_name":"Spain","latitude":"38.21667000","longitude":"-5.81667000","wikiDataId":"Q1642776"},{"id":37888,"Name":"Valverde de Mérida","state_id":1190,"state_code":"EX","state_name":"Extremadura","country_id":207,"country_code":"ES","country_name":"Spain","latitude":"38.91122000","longitude":"-6.21999000","wikiDataId":"Q377785"},{"id":37894,"Name":"Valverde del Fresno","state_id":1190,"state_code":"EX","state_name":"Extremadura","country_id":207,"country_code":"ES","country_name":"Spain","latitude":"40.22210000","longitude":"-6.87848000","wikiDataId":"Q1441219"},{"id":37960,"Name":"Viandar de la Vera","state_id":1190,"state_code":"EX","state_name":"Extremadura","country_id":207,"country_code":"ES","country_name":"Spain","latitude":"40.12191000","longitude":"-5.53593000","wikiDataId":"Q623175"},{"id":38011,"Name":"Villa del Campo","state_id":1190,"state_code":"EX","state_name":"Extremadura","country_id":207,"country_code":"ES","country_name":"Spain","latitude":"40.14223000","longitude":"-6.42679000","wikiDataId":"Q956050"},{"id":38013,"Name":"Villa del Rey","state_id":1190,"state_code":"EX","state_name":"Extremadura","country_id":207,"country_code":"ES","country_name":"Spain","latitude":"39.65955000","longitude":"-6.82122000","wikiDataId":"Q1642021"},{"id":38060,"Name":"Villafranca de los Barros","state_id":1190,"state_code":"EX","state_name":"Extremadura","country_id":207,"country_code":"ES","country_name":"Spain","latitude":"38.56144000","longitude":"-6.33810000","wikiDataId":"Q613908"},{"id":38072,"Name":"Villagarcía de la Torre","state_id":1190,"state_code":"EX","state_name":"Extremadura","country_id":207,"country_code":"ES","country_name":"Spain","latitude":"38.30000000","longitude":"-6.08333000","wikiDataId":"Q1628543"},{"id":38076,"Name":"Villagonzalo","state_id":1190,"state_code":"EX","state_name":"Extremadura","country_id":207,"country_code":"ES","country_name":"Spain","latitude":"38.86329000","longitude":"-6.19665000","wikiDataId":"Q784629"},{"id":38100,"Name":"Villalba de los Barros","state_id":1190,"state_code":"EX","state_name":"Extremadura","country_id":207,"country_code":"ES","country_name":"Spain","latitude":"38.61294000","longitude":"-6.50914000","wikiDataId":"Q1628578"},{"id":38153,"Name":"Villamesías","state_id":1190,"state_code":"EX","state_name":"Extremadura","country_id":207,"country_code":"ES","country_name":"Spain","latitude":"39.24568000","longitude":"-5.87307000","wikiDataId":"Q1642246"},{"id":38154,"Name":"Villamiel","state_id":1190,"state_code":"EX","state_name":"Extremadura","country_id":207,"country_code":"ES","country_name":"Spain","latitude":"40.18635000","longitude":"-6.78425000","wikiDataId":"Q1613433"},{"id":38201,"Name":"Villanueva de la Serena","state_id":1190,"state_code":"EX","state_name":"Extremadura","country_id":207,"country_code":"ES","country_name":"Spain","latitude":"38.97655000","longitude":"-5.79740000","wikiDataId":"Q695380"},{"id":38202,"Name":"Villanueva de la Sierra","state_id":1190,"state_code":"EX","state_name":"Extremadura","country_id":207,"country_code":"ES","country_name":"Spain","latitude":"40.20163000","longitude":"-6.40611000","wikiDataId":"Q788259"},{"id":38204,"Name":"Villanueva de la Vera","state_id":1190,"state_code":"EX","state_name":"Extremadura","country_id":207,"country_code":"ES","country_name":"Spain","latitude":"40.12998000","longitude":"-5.46250000","wikiDataId":"Q1629837"},{"id":38218,"Name":"Villanueva del Fresno","state_id":1190,"state_code":"EX","state_name":"Extremadura","country_id":207,"country_code":"ES","country_name":"Spain","latitude":"38.37600000","longitude":"-7.16753000","wikiDataId":"Q1628563"},{"id":38243,"Name":"Villar de Plasencia","state_id":1190,"state_code":"EX","state_name":"Extremadura","country_id":207,"country_code":"ES","country_name":"Spain","latitude":"40.13773000","longitude":"-6.02790000","wikiDataId":"Q1648580"},{"id":38244,"Name":"Villar de Rena","state_id":1190,"state_code":"EX","state_name":"Extremadura","country_id":207,"country_code":"ES","country_name":"Spain","latitude":"39.07651000","longitude":"-5.81074000","wikiDataId":"Q1628552"},{"id":38258,"Name":"Villar del Pedroso","state_id":1190,"state_code":"EX","state_name":"Extremadura","country_id":207,"country_code":"ES","country_name":"Spain","latitude":"39.70631000","longitude":"-5.19583000","wikiDataId":"Q1750977"},{"id":38260,"Name":"Villar del Rey","state_id":1190,"state_code":"EX","state_name":"Extremadura","country_id":207,"country_code":"ES","country_name":"Spain","latitude":"39.13310000","longitude":"-6.84762000","wikiDataId":"Q1615783"},{"id":38308,"Name":"Villarta de los Montes","state_id":1190,"state_code":"EX","state_name":"Extremadura","country_id":207,"country_code":"ES","country_name":"Spain","latitude":"39.21386000","longitude":"-4.79227000","wikiDataId":"Q957280"},{"id":38316,"Name":"Villasbuenas de Gata","state_id":1190,"state_code":"EX","state_name":"Extremadura","country_id":207,"country_code":"ES","country_name":"Spain","latitude":"40.17879000","longitude":"-6.62641000","wikiDataId":"Q1642015"},{"id":38450,"Name":"Zafra","state_id":1190,"state_code":"EX","state_name":"Extremadura","country_id":207,"country_code":"ES","country_name":"Spain","latitude":"38.42539000","longitude":"-6.41734000","wikiDataId":"Q140203"},{"id":38456,"Name":"Zahinos","state_id":1190,"state_code":"EX","state_name":"Extremadura","country_id":207,"country_code":"ES","country_name":"Spain","latitude":"38.33135000","longitude":"-6.95533000","wikiDataId":"Q1641406"},{"id":38458,"Name":"Zalamea de la Serena","state_id":1190,"state_code":"EX","state_name":"Extremadura","country_id":207,"country_code":"ES","country_name":"Spain","latitude":"38.65131000","longitude":"-5.66063000","wikiDataId":"Q1613344"},{"id":38477,"Name":"Zarza de Alange","state_id":1190,"state_code":"EX","state_name":"Extremadura","country_id":207,"country_code":"ES","country_name":"Spain","latitude":"38.81814000","longitude":"-6.21756000","wikiDataId":"Q23977168"},{"id":38478,"Name":"Zarza de Granadilla","state_id":1190,"state_code":"EX","state_name":"Extremadura","country_id":207,"country_code":"ES","country_name":"Spain","latitude":"40.23723000","longitude":"-6.04850000","wikiDataId":"Q1613311"},{"id":38479,"Name":"Zarza de Montánchez","state_id":1190,"state_code":"EX","state_name":"Extremadura","country_id":207,"country_code":"ES","country_name":"Spain","latitude":"39.25756000","longitude":"-6.03248000","wikiDataId":"Q732380"},{"id":38481,"Name":"Zarza la Mayor","state_id":1190,"state_code":"EX","state_name":"Extremadura","country_id":207,"country_code":"ES","country_name":"Spain","latitude":"39.87692000","longitude":"-6.86211000","wikiDataId":"Q773420"},{"id":38495,"Name":"Zorita","state_id":1190,"state_code":"EX","state_name":"Extremadura","country_id":207,"country_code":"ES","country_name":"Spain","latitude":"39.28522000","longitude":"-5.69973000","wikiDataId":"Q1628569"}]