[{"id":19296,"Name":"Badu","state_id":2248,"state_code":"FJ","state_name":"Fujian","country_id":45,"country_code":"CN","country_name":"China","latitude":"26.81028000","longitude":"119.56417000","wikiDataId":"Q625554"},{"id":19301,"Name":"Baiqi","state_id":2248,"state_code":"FJ","state_name":"Fujian","country_id":45,"country_code":"CN","country_name":"China","latitude":"24.88244000","longitude":"118.70869000","wikiDataId":""},{"id":19310,"Name":"Baiyun","state_id":2248,"state_code":"FJ","state_name":"Fujian","country_id":45,"country_code":"CN","country_name":"China","latitude":"26.03648000","longitude":"118.90622000","wikiDataId":"Q532981"},{"id":19334,"Name":"Beishancun","state_id":2248,"state_code":"FJ","state_name":"Fujian","country_id":45,"country_code":"CN","country_name":"China","latitude":"26.43732000","longitude":"119.63372000","wikiDataId":"Q814826"},{"id":19371,"Name":"Changqiao","state_id":2248,"state_code":"FJ","state_name":"Fujian","country_id":45,"country_code":"CN","country_name":"China","latitude":"26.82139000","longitude":"118.84361000","wikiDataId":"Q989898"},{"id":19391,"Name":"Chengmen","state_id":2248,"state_code":"FJ","state_name":"Fujian","country_id":45,"country_code":"CN","country_name":"China","latitude":"25.99339000","longitude":"119.36136000","wikiDataId":"Q1344805"},{"id":19400,"Name":"Chixi","state_id":2248,"state_code":"FJ","state_name":"Fujian","country_id":45,"country_code":"CN","country_name":"China","latitude":"26.91111000","longitude":"119.48306000","wikiDataId":"Q570829"},{"id":19405,"Name":"Chongru","state_id":2248,"state_code":"FJ","state_name":"Fujian","country_id":45,"country_code":"CN","country_name":"China","latitude":"26.95111000","longitude":"119.92528000","wikiDataId":"Q360870"},{"id":19414,"Name":"Dadeng","state_id":2248,"state_code":"FJ","state_name":"Fujian","country_id":45,"country_code":"CN","country_name":"China","latitude":"24.54386000","longitude":"118.32753000","wikiDataId":"Q114045"},{"id":19417,"Name":"Daixi","state_id":2248,"state_code":"FJ","state_name":"Fujian","country_id":45,"country_code":"CN","country_name":"China","latitude":"26.81250000","longitude":"119.11417000","wikiDataId":"Q114045"},{"id":19427,"Name":"Danyang","state_id":2248,"state_code":"FJ","state_name":"Fujian","country_id":45,"country_code":"CN","country_name":"China","latitude":"26.35102000","longitude":"119.48030000","wikiDataId":"Q75110"},{"id":19429,"Name":"Daqiao","state_id":2248,"state_code":"FJ","state_name":"Fujian","country_id":45,"country_code":"CN","country_name":"China","latitude":"26.61500000","longitude":"118.90639000","wikiDataId":"Q75110"},{"id":19444,"Name":"Dazuo","state_id":2248,"state_code":"FJ","state_name":"Fujian","country_id":45,"country_code":"CN","country_name":"China","latitude":"24.88616000","longitude":"118.96433000","wikiDataId":"Q427488"},{"id":19457,"Name":"Dinghaicun","state_id":2248,"state_code":"FJ","state_name":"Fujian","country_id":45,"country_code":"CN","country_name":"China","latitude":"26.28022000","longitude":"119.78964000","wikiDataId":"Q162880"},{"id":19459,"Name":"Dingtoucun","state_id":2248,"state_code":"FJ","state_name":"Fujian","country_id":45,"country_code":"CN","country_name":"China","latitude":"26.83977000","longitude":"119.66111000","wikiDataId":"Q162880"},{"id":19462,"Name":"Dongchongcun","state_id":2248,"state_code":"FJ","state_name":"Fujian","country_id":45,"country_code":"CN","country_name":"China","latitude":"26.54001000","longitude":"119.83257000","wikiDataId":"Q645183"},{"id":19464,"Name":"Dongdai","state_id":2248,"state_code":"FJ","state_name":"Fujian","country_id":45,"country_code":"CN","country_name":"China","latitude":"26.24366000","longitude":"119.61566000","wikiDataId":"Q1337641"},{"id":19469,"Name":"Donghu","state_id":2248,"state_code":"FJ","state_name":"Fujian","country_id":45,"country_code":"CN","country_name":"China","latitude":"26.23453000","longitude":"119.51430000","wikiDataId":"Q1025345"},{"id":19471,"Name":"Dongling","state_id":2248,"state_code":"FJ","state_name":"Fujian","country_id":45,"country_code":"CN","country_name":"China","latitude":"24.98271000","longitude":"118.89790000","wikiDataId":"Q1025345"},{"id":19482,"Name":"Dongyuan","state_id":2248,"state_code":"FJ","state_name":"Fujian","country_id":45,"country_code":"CN","country_name":"China","latitude":"24.91738000","longitude":"118.75236000","wikiDataId":"Q1023774"},{"id":19502,"Name":"Feiluan","state_id":2248,"state_code":"FJ","state_name":"Fujian","country_id":45,"country_code":"CN","country_name":"China","latitude":"26.56250000","longitude":"119.59750000","wikiDataId":"Q1198379"},{"id":19508,"Name":"Fengpu","state_id":2248,"state_code":"FJ","state_name":"Fujian","country_id":45,"country_code":"CN","country_name":"China","latitude":"26.68276000","longitude":"118.76006000","wikiDataId":"Q1362431"},{"id":19512,"Name":"Fengzhou","state_id":2248,"state_code":"FJ","state_name":"Fujian","country_id":45,"country_code":"CN","country_name":"China","latitude":"24.95762000","longitude":"118.53365000","wikiDataId":"Q1362431"},{"id":19532,"Name":"Fu’an","state_id":2248,"state_code":"FJ","state_name":"Fujian","country_id":45,"country_code":"CN","country_name":"China","latitude":"27.06372000","longitude":"119.65280000","wikiDataId":"Q1374581"},{"id":19517,"Name":"Fuding","state_id":2248,"state_code":"FJ","state_name":"Fujian","country_id":45,"country_code":"CN","country_name":"China","latitude":"27.32734000","longitude":"120.21399000","wikiDataId":"Q34412"},{"id":19522,"Name":"Fuqing","state_id":2248,"state_code":"FJ","state_name":"Fujian","country_id":45,"country_code":"CN","country_name":"China","latitude":"25.72500000","longitude":"119.37944000","wikiDataId":"Q262208"},{"id":19531,"Name":"Fuzhou","state_id":2248,"state_code":"FJ","state_name":"Fujian","country_id":45,"country_code":"CN","country_name":"China","latitude":"26.06139000","longitude":"119.30611000","wikiDataId":"Q68481"},{"id":19537,"Name":"Gantang","state_id":2248,"state_code":"FJ","state_name":"Fujian","country_id":45,"country_code":"CN","country_name":"China","latitude":"26.92000000","longitude":"119.63333000","wikiDataId":"Q1331447"},{"id":19566,"Name":"Guantou","state_id":2248,"state_code":"FJ","state_name":"Fujian","country_id":45,"country_code":"CN","country_name":"China","latitude":"26.13593000","longitude":"119.56162000","wikiDataId":"Q1025444"},{"id":19568,"Name":"Gufeng","state_id":2248,"state_code":"FJ","state_name":"Fujian","country_id":45,"country_code":"CN","country_name":"China","latitude":"26.90833000","longitude":"118.98194000","wikiDataId":"Q1025444"},{"id":19618,"Name":"Hetang","state_id":2248,"state_code":"FJ","state_name":"Fujian","country_id":45,"country_code":"CN","country_name":"China","latitude":"26.66276000","longitude":"119.11062000","wikiDataId":"Q144663"},{"id":19628,"Name":"Hongtang","state_id":2248,"state_code":"FJ","state_name":"Fujian","country_id":45,"country_code":"CN","country_name":"China","latitude":"26.07056000","longitude":"119.23083000","wikiDataId":"Q762724"},{"id":19629,"Name":"Hongyang","state_id":2248,"state_code":"FJ","state_name":"Fujian","country_id":45,"country_code":"CN","country_name":"China","latitude":"26.52861000","longitude":"119.46250000","wikiDataId":"Q762724"},{"id":19632,"Name":"Houyu","state_id":2248,"state_code":"FJ","state_name":"Fujian","country_id":45,"country_code":"CN","country_name":"China","latitude":"26.05958000","longitude":"119.53502000","wikiDataId":"Q235389"},{"id":19643,"Name":"Huai’an","state_id":2248,"state_code":"FJ","state_name":"Fujian","country_id":45,"country_code":"CN","country_name":"China","latitude":"26.09899000","longitude":"119.22171000","wikiDataId":"Q360178"},{"id":19659,"Name":"Huangtian","state_id":2248,"state_code":"FJ","state_name":"Fujian","country_id":45,"country_code":"CN","country_name":"China","latitude":"26.43851000","longitude":"118.62398000","wikiDataId":"Q71204"},{"id":19686,"Name":"Huotong","state_id":2248,"state_code":"FJ","state_name":"Fujian","country_id":45,"country_code":"CN","country_name":"China","latitude":"26.84972000","longitude":"119.41806000","wikiDataId":"Q128674"},{"id":19709,"Name":"Jian’ou","state_id":2248,"state_code":"FJ","state_name":"Fujian","country_id":45,"country_code":"CN","country_name":"China","latitude":"27.04694000","longitude":"118.32528000","wikiDataId":"Q1374860"},{"id":19697,"Name":"Jiangkou","state_id":2248,"state_code":"FJ","state_name":"Fujian","country_id":45,"country_code":"CN","country_name":"China","latitude":"25.48694000","longitude":"119.19834000","wikiDataId":"Q774508"},{"id":19706,"Name":"Jianjiang","state_id":2248,"state_code":"FJ","state_name":"Fujian","country_id":45,"country_code":"CN","country_name":"China","latitude":"26.54972000","longitude":"119.75500000","wikiDataId":"Q1015823"},{"id":19732,"Name":"Jingfeng","state_id":2248,"state_code":"FJ","state_name":"Fujian","country_id":45,"country_code":"CN","country_name":"China","latitude":"24.97441000","longitude":"118.96486000","wikiDataId":"Q34405"},{"id":19744,"Name":"Jinjiang","state_id":2248,"state_code":"FJ","state_name":"Fujian","country_id":45,"country_code":"CN","country_name":"China","latitude":"24.81978000","longitude":"118.57415000","wikiDataId":"Q128883"},{"id":19746,"Name":"Jinjing","state_id":2248,"state_code":"FJ","state_name":"Fujian","country_id":45,"country_code":"CN","country_name":"China","latitude":"24.57500000","longitude":"118.59722000","wikiDataId":"Q128883"},{"id":19755,"Name":"Jitoucun","state_id":2248,"state_code":"FJ","state_name":"Fujian","country_id":45,"country_code":"CN","country_name":"China","latitude":"26.47681000","longitude":"119.60517000","wikiDataId":"Q28996"},{"id":19777,"Name":"Kengyuan","state_id":2248,"state_code":"FJ","state_name":"Fujian","country_id":45,"country_code":"CN","country_name":"China","latitude":"26.33964000","longitude":"119.76476000","wikiDataId":"Q739890"},{"id":19778,"Name":"Kerencun","state_id":2248,"state_code":"FJ","state_name":"Fujian","country_id":45,"country_code":"CN","country_name":"China","latitude":"24.58213000","longitude":"118.66046000","wikiDataId":"Q739890"},{"id":19780,"Name":"Kuai’an","state_id":2248,"state_code":"FJ","state_name":"Fujian","country_id":45,"country_code":"CN","country_name":"China","latitude":"26.03417000","longitude":"119.41639000","wikiDataId":"Q837425"},{"id":19820,"Name":"Lianhecun","state_id":2248,"state_code":"FJ","state_name":"Fujian","country_id":45,"country_code":"CN","country_name":"China","latitude":"24.58932000","longitude":"118.33903000","wikiDataId":"Q666884"},{"id":19862,"Name":"Liuwudiancun","state_id":2248,"state_code":"FJ","state_name":"Fujian","country_id":45,"country_code":"CN","country_name":"China","latitude":"24.56923000","longitude":"118.19064000","wikiDataId":"Q485918"},{"id":19870,"Name":"Longmen","state_id":2248,"state_code":"FJ","state_name":"Fujian","country_id":45,"country_code":"CN","country_name":"China","latitude":"24.95972000","longitude":"118.08889000","wikiDataId":"Q713327"},{"id":19875,"Name":"Longyan","state_id":2248,"state_code":"FJ","state_name":"Fujian","country_id":45,"country_code":"CN","country_name":"China","latitude":"25.10722000","longitude":"117.02250000","wikiDataId":"Q68862"},{"id":19886,"Name":"Luoqiao","state_id":2248,"state_code":"FJ","state_name":"Fujian","country_id":45,"country_code":"CN","country_name":"China","latitude":"26.47265000","longitude":"119.00392000","wikiDataId":"Q404599"},{"id":19890,"Name":"Luoyang","state_id":2248,"state_code":"FJ","state_name":"Fujian","country_id":45,"country_code":"CN","country_name":"China","latitude":"24.95938000","longitude":"118.68300000","wikiDataId":"Q187136"},{"id":19892,"Name":"Luxia","state_id":2248,"state_code":"FJ","state_name":"Fujian","country_id":45,"country_code":"CN","country_name":"China","latitude":"26.93000000","longitude":"118.80722000","wikiDataId":"Q187136"},{"id":19907,"Name":"Maping","state_id":2248,"state_code":"FJ","state_name":"Fujian","country_id":45,"country_code":"CN","country_name":"China","latitude":"24.68722000","longitude":"118.55278000","wikiDataId":"Q38927"},{"id":19911,"Name":"Meipu","state_id":2248,"state_code":"FJ","state_name":"Fujian","country_id":45,"country_code":"CN","country_name":"China","latitude":"26.21120000","longitude":"118.89561000","wikiDataId":"Q971498"},{"id":19924,"Name":"Min’an","state_id":2248,"state_code":"FJ","state_name":"Fujian","country_id":45,"country_code":"CN","country_name":"China","latitude":"26.04962000","longitude":"119.49964000","wikiDataId":"Q1014635"},{"id":19947,"Name":"Nanping","state_id":2248,"state_code":"FJ","state_name":"Fujian","country_id":45,"country_code":"CN","country_name":"China","latitude":"26.64500000","longitude":"118.17361000","wikiDataId":"Q68534"},{"id":19955,"Name":"Neikeng","state_id":2248,"state_code":"FJ","state_name":"Fujian","country_id":45,"country_code":"CN","country_name":"China","latitude":"24.78544000","longitude":"118.46037000","wikiDataId":"Q426756"},{"id":19960,"Name":"Ningde","state_id":2248,"state_code":"FJ","state_name":"Fujian","country_id":45,"country_code":"CN","country_name":"China","latitude":"26.66167000","longitude":"119.52278000","wikiDataId":"Q42780"},{"id":19971,"Name":"Pandu","state_id":2248,"state_code":"FJ","state_name":"Fujian","country_id":45,"country_code":"CN","country_name":"China","latitude":"26.23639000","longitude":"119.45026000","wikiDataId":"Q570937"},{"id":19990,"Name":"Pucheng","state_id":2248,"state_code":"FJ","state_name":"Fujian","country_id":45,"country_code":"CN","country_name":"China","latitude":"27.92333000","longitude":"118.53333000","wikiDataId":"Q416748"},{"id":19998,"Name":"Putian","state_id":2248,"state_code":"FJ","state_name":"Fujian","country_id":45,"country_code":"CN","country_name":"China","latitude":"25.43944000","longitude":"119.01028000","wikiDataId":"Q68579"},{"id":20012,"Name":"Qibu","state_id":2248,"state_code":"FJ","state_name":"Fujian","country_id":45,"country_code":"CN","country_name":"China","latitude":"26.50750000","longitude":"119.54500000","wikiDataId":"Q1344702"},{"id":20013,"Name":"Qidu","state_id":2248,"state_code":"FJ","state_name":"Fujian","country_id":45,"country_code":"CN","country_name":"China","latitude":"26.76528000","longitude":"119.54722000","wikiDataId":"Q1344702"},{"id":20036,"Name":"Quanzhou","state_id":2248,"state_code":"FJ","state_name":"Fujian","country_id":45,"country_code":"CN","country_name":"China","latitude":"24.91389000","longitude":"118.58583000","wikiDataId":"Q68695"},{"id":20043,"Name":"Rong’an","state_id":2248,"state_code":"FJ","state_name":"Fujian","country_id":45,"country_code":"CN","country_name":"China","latitude":"26.12472000","longitude":"119.12139000","wikiDataId":"Q425804"},{"id":20055,"Name":"Sanming","state_id":2248,"state_code":"FJ","state_name":"Fujian","country_id":45,"country_code":"CN","country_name":"China","latitude":"26.24861000","longitude":"117.61861000","wikiDataId":"Q68614"},{"id":20061,"Name":"Shajiang","state_id":2248,"state_code":"FJ","state_name":"Fujian","country_id":45,"country_code":"CN","country_name":"China","latitude":"26.78250000","longitude":"119.96694000","wikiDataId":"Q319804"},{"id":20064,"Name":"Shangjie","state_id":2248,"state_code":"FJ","state_name":"Fujian","country_id":45,"country_code":"CN","country_name":"China","latitude":"26.08679000","longitude":"119.18494000","wikiDataId":"Q8686"},{"id":20078,"Name":"Shanxia","state_id":2248,"state_code":"FJ","state_name":"Fujian","country_id":45,"country_code":"CN","country_name":"China","latitude":"24.93802000","longitude":"118.88170000","wikiDataId":"Q777171"},{"id":20079,"Name":"Shanyang","state_id":2248,"state_code":"FJ","state_name":"Fujian","country_id":45,"country_code":"CN","country_name":"China","latitude":"26.67019000","longitude":"119.20509000","wikiDataId":"Q777171"},{"id":20081,"Name":"Shaowu","state_id":2248,"state_code":"FJ","state_name":"Fujian","country_id":45,"country_code":"CN","country_name":"China","latitude":"27.34089000","longitude":"117.48310000","wikiDataId":"Q777171"},{"id":20098,"Name":"Shijing","state_id":2248,"state_code":"FJ","state_name":"Fujian","country_id":45,"country_code":"CN","country_name":"China","latitude":"24.61956000","longitude":"118.42437000","wikiDataId":"Q58401"},{"id":20102,"Name":"Shima","state_id":2248,"state_code":"FJ","state_name":"Fujian","country_id":45,"country_code":"CN","country_name":"China","latitude":"24.44647000","longitude":"117.81216000","wikiDataId":"Q1025428"},{"id":20113,"Name":"Shoushan","state_id":2248,"state_code":"FJ","state_name":"Fujian","country_id":45,"country_code":"CN","country_name":"China","latitude":"26.96444000","longitude":"119.16167000","wikiDataId":"Q1357984"},{"id":20118,"Name":"Shuangxi","state_id":2248,"state_code":"FJ","state_name":"Fujian","country_id":45,"country_code":"CN","country_name":"China","latitude":"27.02248000","longitude":"119.04140000","wikiDataId":"Q1359879"},{"id":20121,"Name":"Shuangzhu","state_id":2248,"state_code":"FJ","state_name":"Fujian","country_id":45,"country_code":"CN","country_name":"China","latitude":"26.63114000","longitude":"118.64570000","wikiDataId":"Q349973"},{"id":20124,"Name":"Shuikou","state_id":2248,"state_code":"FJ","state_name":"Fujian","country_id":45,"country_code":"CN","country_name":"China","latitude":"26.38360000","longitude":"118.73027000","wikiDataId":"Q349973"},{"id":20169,"Name":"Tangkou","state_id":2248,"state_code":"FJ","state_name":"Fujian","country_id":45,"country_code":"CN","country_name":"China","latitude":"26.95417000","longitude":"119.01278000","wikiDataId":"Q1359226"},{"id":20174,"Name":"Tantou","state_id":2248,"state_code":"FJ","state_name":"Fujian","country_id":45,"country_code":"CN","country_name":"China","latitude":"26.03033000","longitude":"119.59739000","wikiDataId":"Q58422"},{"id":20177,"Name":"Tatou","state_id":2248,"state_code":"FJ","state_name":"Fujian","country_id":45,"country_code":"CN","country_name":"China","latitude":"24.61732000","longitude":"118.52672000","wikiDataId":"Q58422"},{"id":20186,"Name":"Tingjiang","state_id":2248,"state_code":"FJ","state_name":"Fujian","country_id":45,"country_code":"CN","country_name":"China","latitude":"26.07401000","longitude":"119.50574000","wikiDataId":"Q75268"},{"id":20202,"Name":"Tuzhai","state_id":2248,"state_code":"FJ","state_name":"Fujian","country_id":45,"country_code":"CN","country_name":"China","latitude":"24.98301000","longitude":"118.83194000","wikiDataId":"Q868527"},{"id":20227,"Name":"Wubao","state_id":2248,"state_code":"FJ","state_name":"Fujian","country_id":45,"country_code":"CN","country_name":"China","latitude":"24.59589000","longitude":"118.55359000","wikiDataId":"Q42635"},{"id":20243,"Name":"Wuyishan","state_id":2248,"state_code":"FJ","state_name":"Fujian","country_id":45,"country_code":"CN","country_name":"China","latitude":"27.75995000","longitude":"118.03066000","wikiDataId":"Q94945"},{"id":20244,"Name":"Wuyucun","state_id":2248,"state_code":"FJ","state_name":"Fujian","country_id":45,"country_code":"CN","country_name":"China","latitude":"24.33551000","longitude":"118.14489000","wikiDataId":"Q94945"},{"id":20248,"Name":"Xiabaishi","state_id":2248,"state_code":"FJ","state_name":"Fujian","country_id":45,"country_code":"CN","country_name":"China","latitude":"26.81528000","longitude":"119.67917000","wikiDataId":"Q571652"},{"id":20249,"Name":"Xiahu","state_id":2248,"state_code":"FJ","state_name":"Fujian","country_id":45,"country_code":"CN","country_name":"China","latitude":"26.61056000","longitude":"119.94833000","wikiDataId":"Q571652"},{"id":20252,"Name":"Xiamen","state_id":2248,"state_code":"FJ","state_name":"Fujian","country_id":45,"country_code":"CN","country_name":"China","latitude":"24.47979000","longitude":"118.08187000","wikiDataId":"Q68744"},{"id":20253,"Name":"Xiancun","state_id":2248,"state_code":"FJ","state_name":"Fujian","country_id":45,"country_code":"CN","country_name":"China","latitude":"26.93861000","longitude":"119.36028000","wikiDataId":"Q68744"},{"id":20259,"Name":"Xiangyun","state_id":2248,"state_code":"FJ","state_name":"Fujian","country_id":45,"country_code":"CN","country_name":"China","latitude":"24.97111000","longitude":"118.16028000","wikiDataId":"Q71284"},{"id":20279,"Name":"Xibing","state_id":2248,"state_code":"FJ","state_name":"Fujian","country_id":45,"country_code":"CN","country_name":"China","latitude":"26.98139000","longitude":"119.72472000","wikiDataId":"Q71339"},{"id":20286,"Name":"Xiling","state_id":2248,"state_code":"FJ","state_name":"Fujian","country_id":45,"country_code":"CN","country_name":"China","latitude":"26.81444000","longitude":"119.04722000","wikiDataId":"Q1009416"},{"id":20287,"Name":"Ximei","state_id":2248,"state_code":"FJ","state_name":"Fujian","country_id":45,"country_code":"CN","country_name":"China","latitude":"24.98773000","longitude":"118.38580000","wikiDataId":"Q1209464"},{"id":20288,"Name":"Xinan","state_id":2248,"state_code":"FJ","state_name":"Fujian","country_id":45,"country_code":"CN","country_name":"China","latitude":"26.72000000","longitude":"119.85556000","wikiDataId":"Q1209464"},{"id":20292,"Name":"Xindian","state_id":2248,"state_code":"FJ","state_name":"Fujian","country_id":45,"country_code":"CN","country_name":"China","latitude":"24.61006000","longitude":"118.24068000","wikiDataId":"Q1209464"},{"id":20337,"Name":"Yakou","state_id":2248,"state_code":"FJ","state_name":"Fujian","country_id":45,"country_code":"CN","country_name":"China","latitude":"24.67194000","longitude":"118.63722000","wikiDataId":"Q1010264"},{"id":20343,"Name":"Yanghou","state_id":2248,"state_code":"FJ","state_name":"Fujian","country_id":45,"country_code":"CN","country_name":"China","latitude":"26.64083000","longitude":"118.50806000","wikiDataId":"Q1023923"},{"id":20348,"Name":"Yangzhong","state_id":2248,"state_code":"FJ","state_name":"Fujian","country_id":45,"country_code":"CN","country_name":"China","latitude":"26.70556000","longitude":"119.37444000","wikiDataId":"Q72907"},{"id":20357,"Name":"Yantian","state_id":2248,"state_code":"FJ","state_name":"Fujian","country_id":45,"country_code":"CN","country_name":"China","latitude":"26.85333000","longitude":"119.85750000","wikiDataId":"Q210493"},{"id":20377,"Name":"Yingdu","state_id":2248,"state_code":"FJ","state_name":"Fujian","country_id":45,"country_code":"CN","country_name":"China","latitude":"24.97167000","longitude":"118.24417000","wikiDataId":"Q1344848"},{"id":20379,"Name":"Yinglin","state_id":2248,"state_code":"FJ","state_name":"Fujian","country_id":45,"country_code":"CN","country_name":"China","latitude":"24.63222000","longitude":"118.58056000","wikiDataId":"Q75150"},{"id":20387,"Name":"Yongning","state_id":2248,"state_code":"FJ","state_name":"Fujian","country_id":45,"country_code":"CN","country_name":"China","latitude":"24.68000000","longitude":"118.69000000","wikiDataId":"Q1011138"},{"id":20404,"Name":"Yushan","state_id":2248,"state_code":"FJ","state_name":"Fujian","country_id":45,"country_code":"CN","country_name":"China","latitude":"26.90863000","longitude":"118.56713000","wikiDataId":"Q59233"},{"id":20425,"Name":"Zhangwan","state_id":2248,"state_code":"FJ","state_name":"Fujian","country_id":45,"country_code":"CN","country_name":"China","latitude":"26.71139000","longitude":"119.59194000","wikiDataId":"Q58650"},{"id":20428,"Name":"Zhangzhou","state_id":2248,"state_code":"FJ","state_name":"Fujian","country_id":45,"country_code":"CN","country_name":"China","latitude":"24.51333000","longitude":"117.65556000","wikiDataId":"Q68814"},{"id":20440,"Name":"Zhenhaicun","state_id":2248,"state_code":"FJ","state_name":"Fujian","country_id":45,"country_code":"CN","country_name":"China","latitude":"24.25894000","longitude":"118.09186000","wikiDataId":"Q30340"},{"id":20450,"Name":"Zhongfang","state_id":2248,"state_code":"FJ","state_name":"Fujian","country_id":45,"country_code":"CN","country_name":"China","latitude":"26.60083000","longitude":"119.42583000","wikiDataId":"Q1359300"},{"id":20472,"Name":"Zhuoyang","state_id":2248,"state_code":"FJ","state_name":"Fujian","country_id":45,"country_code":"CN","country_name":"China","latitude":"26.63003000","longitude":"119.02150000","wikiDataId":"Q198240"},{"id":20473,"Name":"Zhuqi","state_id":2248,"state_code":"FJ","state_name":"Fujian","country_id":45,"country_code":"CN","country_name":"China","latitude":"26.14860000","longitude":"119.10216000","wikiDataId":"Q198240"}]