[{"id":67834,"Name":"Bel Air Rivière Sèche","state_id":3254,"state_code":"FL","state_name":"Flacq District","country_id":140,"country_code":"MU","country_name":"Mauritius","latitude":"-20.25777000","longitude":"57.74976000","wikiDataId":"Q4881723"},{"id":67836,"Name":"Bon Accueil","state_id":3254,"state_code":"FL","state_name":"Flacq District","country_id":140,"country_code":"MU","country_name":"Mauritius","latitude":"-20.17083000","longitude":"57.65639000","wikiDataId":"Q27763580"},{"id":67837,"Name":"Brisée Verdière","state_id":3254,"state_code":"FL","state_name":"Flacq District","country_id":140,"country_code":"MU","country_name":"Mauritius","latitude":"-20.16389000","longitude":"57.64667000","wikiDataId":"Q25406451"},{"id":67842,"Name":"Camp de Masque","state_id":3254,"state_code":"FL","state_name":"Flacq District","country_id":140,"country_code":"MU","country_name":"Mauritius","latitude":"-20.23694000","longitude":"57.66333000","wikiDataId":"Q27763594"},{"id":67840,"Name":"Camp Ithier","state_id":3254,"state_code":"FL","state_name":"Flacq District","country_id":140,"country_code":"MU","country_name":"Mauritius","latitude":"-20.21583000","longitude":"57.74556000","wikiDataId":"Q27764406"},{"id":67846,"Name":"Centre de Flacq","state_id":3254,"state_code":"FL","state_name":"Flacq District","country_id":140,"country_code":"MU","country_name":"Mauritius","latitude":"-20.18972000","longitude":"57.71444000","wikiDataId":"Q1054191"},{"id":67850,"Name":"Clémencia","state_id":3254,"state_code":"FL","state_name":"Flacq District","country_id":140,"country_code":"MU","country_name":"Mauritius","latitude":"-20.26389000","longitude":"57.70611000","wikiDataId":"Q27763620"},{"id":67858,"Name":"Ecroignard","state_id":3254,"state_code":"FL","state_name":"Flacq District","country_id":140,"country_code":"MU","country_name":"Mauritius","latitude":"-20.22611000","longitude":"57.73611000","wikiDataId":"Q27764391"},{"id":67868,"Name":"Grande Rivière Sud Est","state_id":3254,"state_code":"FL","state_name":"Flacq District","country_id":140,"country_code":"MU","country_name":"Mauritius","latitude":"-20.28611000","longitude":"57.77583000","wikiDataId":"Q27763680"},{"id":67870,"Name":"Lalmatie","state_id":3254,"state_code":"FL","state_name":"Flacq District","country_id":140,"country_code":"MU","country_name":"Mauritius","latitude":"-20.18972000","longitude":"57.66111000","wikiDataId":"Q27763713"},{"id":67871,"Name":"Laventure","state_id":3254,"state_code":"FL","state_name":"Flacq District","country_id":140,"country_code":"MU","country_name":"Mauritius","latitude":"-20.14583000","longitude":"57.67667000","wikiDataId":"Q27763713"},{"id":67876,"Name":"Mare La Chaux","state_id":3254,"state_code":"FL","state_name":"Flacq District","country_id":140,"country_code":"MU","country_name":"Mauritius","latitude":"-20.19806000","longitude":"57.74944000","wikiDataId":"Q1105427"},{"id":67884,"Name":"Olivia","state_id":3254,"state_code":"FL","state_name":"Flacq District","country_id":140,"country_code":"MU","country_name":"Mauritius","latitude":"-20.28778000","longitude":"57.73097000","wikiDataId":"Q282908"},{"id":67897,"Name":"Poste de Flacq","state_id":3254,"state_code":"FL","state_name":"Flacq District","country_id":140,"country_code":"MU","country_name":"Mauritius","latitude":"-20.16306000","longitude":"57.73056000","wikiDataId":"Q1021638"},{"id":67901,"Name":"Quatre Cocos","state_id":3254,"state_code":"FL","state_name":"Flacq District","country_id":140,"country_code":"MU","country_name":"Mauritius","latitude":"-20.20151000","longitude":"57.77448000","wikiDataId":"Q1341194"},{"id":67902,"Name":"Quatre Soeurs","state_id":3254,"state_code":"FL","state_name":"Flacq District","country_id":140,"country_code":"MU","country_name":"Mauritius","latitude":"-20.29917000","longitude":"57.77056000","wikiDataId":"Q1341194"},{"id":67903,"Name":"Queen Victoria","state_id":3254,"state_code":"FL","state_name":"Flacq District","country_id":140,"country_code":"MU","country_name":"Mauritius","latitude":"-20.22000000","longitude":"57.70750000","wikiDataId":"Q1341194"},{"id":67911,"Name":"Saint Julien","state_id":3254,"state_code":"FL","state_name":"Flacq District","country_id":140,"country_code":"MU","country_name":"Mauritius","latitude":"-20.22639000","longitude":"57.63639000","wikiDataId":"Q1341194"},{"id":67913,"Name":"Sebastopol","state_id":3254,"state_code":"FL","state_name":"Flacq District","country_id":140,"country_code":"MU","country_name":"Mauritius","latitude":"-20.29070000","longitude":"57.68779000","wikiDataId":"Q1154985"}]