[{"id":31769,"Name":"Al Fayyūm","state_id":3238,"state_code":"FYM","state_name":"Faiyum","country_id":65,"country_code":"EG","country_name":"Egypt","latitude":"29.30995000","longitude":"30.84180000","wikiDataId":"Q203299"},{"id":31782,"Name":"Al Wāsiţah","state_id":3238,"state_code":"FYM","state_name":"Faiyum","country_id":65,"country_code":"EG","country_name":"Egypt","latitude":"29.33778000","longitude":"31.20556000","wikiDataId":"Q4105094"},{"id":31818,"Name":"Ibshawāy","state_id":3238,"state_code":"FYM","state_name":"Faiyum","country_id":65,"country_code":"EG","country_name":"Egypt","latitude":"29.35896000","longitude":"30.68061000","wikiDataId":"Q23949980"},{"id":31823,"Name":"Iţsā","state_id":3238,"state_code":"FYM","state_name":"Faiyum","country_id":65,"country_code":"EG","country_name":"Egypt","latitude":"29.23760000","longitude":"30.78944000","wikiDataId":"Q23950077"},{"id":31877,"Name":"Ţāmiyah","state_id":3238,"state_code":"FYM","state_name":"Faiyum","country_id":65,"country_code":"EG","country_name":"Egypt","latitude":"29.47639000","longitude":"30.96119000","wikiDataId":"Q952118"}]