[{"id":103985,"Name":"Älmhult","state_id":1542,"state_code":"G","state_name":"Kronoberg County","country_id":213,"country_code":"SE","country_name":"Sweden","latitude":"56.55146000","longitude":"14.13827000","wikiDataId":"Q122872"},{"id":102995,"Name":"Alvesta","state_id":1542,"state_code":"G","state_name":"Kronoberg County","country_id":213,"country_code":"SE","country_name":"Sweden","latitude":"56.89935000","longitude":"14.55559000","wikiDataId":"Q2604885"},{"id":104018,"Name":"Åseda","state_id":1542,"state_code":"G","state_name":"Kronoberg County","country_id":213,"country_code":"SE","country_name":"Sweden","latitude":"57.17010000","longitude":"15.34430000","wikiDataId":"Q271255"},{"id":103082,"Name":"Braås","state_id":1542,"state_code":"G","state_name":"Kronoberg County","country_id":213,"country_code":"SE","country_name":"Sweden","latitude":"57.06667000","longitude":"15.05000000","wikiDataId":"Q2513859"},{"id":103205,"Name":"Gemla","state_id":1542,"state_code":"G","state_name":"Kronoberg County","country_id":213,"country_code":"SE","country_name":"Sweden","latitude":"56.86753000","longitude":"14.64379000","wikiDataId":"Q1501148"},{"id":103301,"Name":"Hovmantorp","state_id":1542,"state_code":"G","state_name":"Kronoberg County","country_id":213,"country_code":"SE","country_name":"Sweden","latitude":"56.78685000","longitude":"15.14023000","wikiDataId":"Q2034409"},{"id":103346,"Name":"Ingelstad","state_id":1542,"state_code":"G","state_name":"Kronoberg County","country_id":213,"country_code":"SE","country_name":"Sweden","latitude":"56.75000000","longitude":"14.91667000","wikiDataId":"Q1857569"},{"id":103446,"Name":"Lagan","state_id":1542,"state_code":"G","state_name":"Kronoberg County","country_id":213,"country_code":"SE","country_name":"Sweden","latitude":"56.91667000","longitude":"13.98333000","wikiDataId":"Q1800209"},{"id":103449,"Name":"Lammhult","state_id":1542,"state_code":"G","state_name":"Kronoberg County","country_id":213,"country_code":"SE","country_name":"Sweden","latitude":"57.16667000","longitude":"14.58333000","wikiDataId":"Q1025495"},{"id":103458,"Name":"Lenhovda","state_id":1542,"state_code":"G","state_name":"Kronoberg County","country_id":213,"country_code":"SE","country_name":"Sweden","latitude":"57.00000000","longitude":"15.28333000","wikiDataId":"Q2327523"},{"id":103461,"Name":"Lessebo","state_id":1542,"state_code":"G","state_name":"Kronoberg County","country_id":213,"country_code":"SE","country_name":"Sweden","latitude":"56.75185000","longitude":"15.26969000","wikiDataId":"Q1820923"},{"id":103478,"Name":"Ljungby","state_id":1542,"state_code":"G","state_name":"Kronoberg County","country_id":213,"country_code":"SE","country_name":"Sweden","latitude":"56.83324000","longitude":"13.94082000","wikiDataId":"Q744491"},{"id":103531,"Name":"Markaryd","state_id":1542,"state_code":"G","state_name":"Kronoberg County","country_id":213,"country_code":"SE","country_name":"Sweden","latitude":"56.46135000","longitude":"13.59644000","wikiDataId":"Q1639483"},{"id":103543,"Name":"Moheda","state_id":1542,"state_code":"G","state_name":"Kronoberg County","country_id":213,"country_code":"SE","country_name":"Sweden","latitude":"57.00000000","longitude":"14.56667000","wikiDataId":"Q3188859"},{"id":103659,"Name":"Rottne","state_id":1542,"state_code":"G","state_name":"Kronoberg County","country_id":213,"country_code":"SE","country_name":"Sweden","latitude":"57.01667000","longitude":"14.90000000","wikiDataId":"Q2291661"},{"id":103660,"Name":"Ryd","state_id":1542,"state_code":"G","state_name":"Kronoberg County","country_id":213,"country_code":"SE","country_name":"Sweden","latitude":"56.46667000","longitude":"14.68333000","wikiDataId":"Q2784057"},{"id":103774,"Name":"Strömsnäsbruk","state_id":1542,"state_code":"G","state_name":"Kronoberg County","country_id":213,"country_code":"SE","country_name":"Sweden","latitude":"56.55000000","longitude":"13.71667000","wikiDataId":"Q3056196"},{"id":103852,"Name":"Tingsryd","state_id":1542,"state_code":"G","state_name":"Kronoberg County","country_id":213,"country_code":"SE","country_name":"Sweden","latitude":"56.52470000","longitude":"14.97902000","wikiDataId":"Q1813784"},{"id":103975,"Name":"Växjö","state_id":1542,"state_code":"G","state_name":"Kronoberg County","country_id":213,"country_code":"SE","country_name":"Sweden","latitude":"56.87767000","longitude":"14.80906000","wikiDataId":"Q26152"},{"id":103959,"Name":"Vislanda","state_id":1542,"state_code":"G","state_name":"Kronoberg County","country_id":213,"country_code":"SE","country_name":"Sweden","latitude":"56.78333000","longitude":"14.45000000","wikiDataId":"Q1016338"}]