[{"id":31892,"Name":"A Baña","state_id":1167,"state_code":"GA","state_name":"Galicia","country_id":207,"country_code":"ES","country_name":"Spain","latitude":"42.96180000","longitude":"-8.75784000","wikiDataId":"Q1183411"},{"id":31893,"Name":"A Coruña","state_id":1167,"state_code":"GA","state_name":"Galicia","country_id":207,"country_code":"ES","country_name":"Spain","latitude":"43.37135000","longitude":"-8.39600000","wikiDataId":"Q8757"},{"id":31894,"Name":"A Estrada","state_id":1167,"state_code":"GA","state_name":"Galicia","country_id":207,"country_code":"ES","country_name":"Spain","latitude":"42.68911000","longitude":"-8.48842000","wikiDataId":"Q1621191"},{"id":31895,"Name":"A Pobra do Brollon","state_id":1167,"state_code":"GA","state_name":"Galicia","country_id":207,"country_code":"ES","country_name":"Spain","latitude":"42.55612000","longitude":"-7.39140000","wikiDataId":"Q1621191"},{"id":31896,"Name":"A Pobra do Caramiñal","state_id":1167,"state_code":"GA","state_name":"Galicia","country_id":207,"country_code":"ES","country_name":"Spain","latitude":"42.60295000","longitude":"-8.93824000","wikiDataId":"Q1621191"},{"id":31897,"Name":"A Rúa","state_id":1167,"state_code":"GA","state_name":"Galicia","country_id":207,"country_code":"ES","country_name":"Spain","latitude":"42.40048000","longitude":"-7.10268000","wikiDataId":"Q1607619"},{"id":31901,"Name":"Abadín","state_id":1167,"state_code":"GA","state_name":"Galicia","country_id":207,"country_code":"ES","country_name":"Spain","latitude":"43.36667000","longitude":"-7.48333000","wikiDataId":"Q304757"},{"id":31906,"Name":"Abegondo","state_id":1167,"state_code":"GA","state_name":"Galicia","country_id":207,"country_code":"ES","country_name":"Spain","latitude":"43.21667000","longitude":"-8.28333000","wikiDataId":"Q305593"},{"id":32254,"Name":"Allariz","state_id":1167,"state_code":"GA","state_name":"Galicia","country_id":207,"country_code":"ES","country_name":"Spain","latitude":"42.19044000","longitude":"-7.80175000","wikiDataId":"Q1438879"},{"id":32352,"Name":"Ambía","state_id":1167,"state_code":"GA","state_name":"Galicia","country_id":207,"country_code":"ES","country_name":"Spain","latitude":"42.20578000","longitude":"-7.73707000","wikiDataId":"Q457605"},{"id":32364,"Name":"Amés","state_id":1167,"state_code":"GA","state_name":"Galicia","country_id":207,"country_code":"ES","country_name":"Spain","latitude":"42.90426000","longitude":"-8.65551000","wikiDataId":"Q1907334"},{"id":32355,"Name":"Amoeiro","state_id":1167,"state_code":"GA","state_name":"Galicia","country_id":207,"country_code":"ES","country_name":"Spain","latitude":"42.41667000","longitude":"-7.95000000","wikiDataId":"Q1627616"},{"id":32411,"Name":"Aranga","state_id":1167,"state_code":"GA","state_name":"Galicia","country_id":207,"country_code":"ES","country_name":"Spain","latitude":"43.23469000","longitude":"-8.01705000","wikiDataId":"Q1648789"},{"id":32425,"Name":"Arbo","state_id":1167,"state_code":"GA","state_name":"Galicia","country_id":207,"country_code":"ES","country_name":"Spain","latitude":"42.11667000","longitude":"-8.31667000","wikiDataId":"Q630031"},{"id":32455,"Name":"Ares","state_id":1167,"state_code":"GA","state_name":"Galicia","country_id":207,"country_code":"ES","country_name":"Spain","latitude":"43.42995000","longitude":"-8.24254000","wikiDataId":"Q513637"},{"id":32522,"Name":"Arteixo","state_id":1167,"state_code":"GA","state_name":"Galicia","country_id":207,"country_code":"ES","country_name":"Spain","latitude":"43.30482000","longitude":"-8.50749000","wikiDataId":"Q12383329"},{"id":32529,"Name":"Arzúa","state_id":1167,"state_code":"GA","state_name":"Galicia","country_id":207,"country_code":"ES","country_name":"Spain","latitude":"42.93333000","longitude":"-8.15000000","wikiDataId":"Q715970"},{"id":32533,"Name":"As Pontes de García Rodríguez","state_id":1167,"state_code":"GA","state_name":"Galicia","country_id":207,"country_code":"ES","country_name":"Spain","latitude":"43.45266000","longitude":"-7.85178000","wikiDataId":"Q1442761"},{"id":32569,"Name":"Avión","state_id":1167,"state_code":"GA","state_name":"Galicia","country_id":207,"country_code":"ES","country_name":"Spain","latitude":"42.38333000","longitude":"-8.25000000","wikiDataId":"Q791209"},{"id":32616,"Name":"Baiona","state_id":1167,"state_code":"GA","state_name":"Galicia","country_id":207,"country_code":"ES","country_name":"Spain","latitude":"42.11667000","longitude":"-8.85000000","wikiDataId":"Q695456"},{"id":32630,"Name":"Baltar","state_id":1167,"state_code":"GA","state_name":"Galicia","country_id":207,"country_code":"ES","country_name":"Spain","latitude":"41.95200000","longitude":"-7.71581000","wikiDataId":"Q1646404"},{"id":32632,"Name":"Bande","state_id":1167,"state_code":"GA","state_name":"Galicia","country_id":207,"country_code":"ES","country_name":"Spain","latitude":"42.03120000","longitude":"-7.97489000","wikiDataId":"Q2047646"},{"id":32703,"Name":"Baños de Molgas","state_id":1167,"state_code":"GA","state_name":"Galicia","country_id":207,"country_code":"ES","country_name":"Spain","latitude":"42.24148000","longitude":"-7.67223000","wikiDataId":"Q1632922"},{"id":32639,"Name":"Baralla","state_id":1167,"state_code":"GA","state_name":"Galicia","country_id":207,"country_code":"ES","country_name":"Spain","latitude":"42.89207000","longitude":"-7.25492000","wikiDataId":"Q1633465"},{"id":32672,"Name":"Barreiros","state_id":1167,"state_code":"GA","state_name":"Galicia","country_id":207,"country_code":"ES","country_name":"Spain","latitude":"43.53321000","longitude":"-7.23342000","wikiDataId":"Q1634820"},{"id":32714,"Name":"Beade","state_id":1167,"state_code":"GA","state_name":"Galicia","country_id":207,"country_code":"ES","country_name":"Spain","latitude":"42.33074000","longitude":"-8.12950000","wikiDataId":"Q784010"},{"id":32723,"Name":"Becerreá","state_id":1167,"state_code":"GA","state_name":"Galicia","country_id":207,"country_code":"ES","country_name":"Spain","latitude":"42.85610000","longitude":"-7.16360000","wikiDataId":"Q1596031"},{"id":32727,"Name":"Begonte","state_id":1167,"state_code":"GA","state_name":"Galicia","country_id":207,"country_code":"ES","country_name":"Spain","latitude":"43.15121000","longitude":"-7.68643000","wikiDataId":"Q959803"},{"id":32851,"Name":"Bergondo","state_id":1167,"state_code":"GA","state_name":"Galicia","country_id":207,"country_code":"ES","country_name":"Spain","latitude":"43.31667000","longitude":"-8.23333000","wikiDataId":"Q644018"},{"id":32879,"Name":"Betanzos","state_id":1167,"state_code":"GA","state_name":"Galicia","country_id":207,"country_code":"ES","country_name":"Spain","latitude":"43.28042000","longitude":"-8.21467000","wikiDataId":"Q13417"},{"id":32908,"Name":"Blancos","state_id":1167,"state_code":"GA","state_name":"Galicia","country_id":207,"country_code":"ES","country_name":"Spain","latitude":"41.99652000","longitude":"-7.75175000","wikiDataId":"Q1627544"},{"id":32921,"Name":"Boborás","state_id":1167,"state_code":"GA","state_name":"Galicia","country_id":207,"country_code":"ES","country_name":"Spain","latitude":"42.43332000","longitude":"-8.14431000","wikiDataId":"Q1627596"},{"id":32933,"Name":"Boimorto","state_id":1167,"state_code":"GA","state_name":"Galicia","country_id":207,"country_code":"ES","country_name":"Spain","latitude":"43.00000000","longitude":"-8.13333000","wikiDataId":"Q692787"},{"id":32934,"Name":"Boiro","state_id":1167,"state_code":"GA","state_name":"Galicia","country_id":207,"country_code":"ES","country_name":"Spain","latitude":"42.64725000","longitude":"-8.88459000","wikiDataId":"Q735282"},{"id":33007,"Name":"Bueu","state_id":1167,"state_code":"GA","state_name":"Galicia","country_id":207,"country_code":"ES","country_name":"Spain","latitude":"42.32458000","longitude":"-8.78497000","wikiDataId":"Q1632909"},{"id":33022,"Name":"Burela de Cabo","state_id":1167,"state_code":"GA","state_name":"Galicia","country_id":207,"country_code":"ES","country_name":"Spain","latitude":"43.65000000","longitude":"-7.40000000","wikiDataId":"Q1619456"},{"id":33137,"Name":"Caldas de Reis","state_id":1167,"state_code":"GA","state_name":"Galicia","country_id":207,"country_code":"ES","country_name":"Spain","latitude":"42.60473000","longitude":"-8.64230000","wikiDataId":"Q1650833"},{"id":33156,"Name":"Calvos","state_id":1167,"state_code":"GA","state_name":"Galicia","country_id":207,"country_code":"ES","country_name":"Spain","latitude":"41.94790000","longitude":"-7.89604000","wikiDataId":"Q491786"},{"id":33169,"Name":"Camariñas","state_id":1167,"state_code":"GA","state_name":"Galicia","country_id":207,"country_code":"ES","country_name":"Spain","latitude":"43.13115000","longitude":"-9.18172000","wikiDataId":"Q1652442"},{"id":33174,"Name":"Cambados","state_id":1167,"state_code":"GA","state_name":"Galicia","country_id":207,"country_code":"ES","country_name":"Spain","latitude":"42.51222000","longitude":"-8.81310000","wikiDataId":"Q695477"},{"id":33176,"Name":"Cambre","state_id":1167,"state_code":"GA","state_name":"Galicia","country_id":207,"country_code":"ES","country_name":"Spain","latitude":"43.29438000","longitude":"-8.34736000","wikiDataId":"Q1611875"},{"id":33237,"Name":"Cangas do Morrazo","state_id":1167,"state_code":"GA","state_name":"Galicia","country_id":207,"country_code":"ES","country_name":"Spain","latitude":"42.26413000","longitude":"-8.78463000","wikiDataId":"Q24013398"},{"id":33282,"Name":"Carballeda de Avia","state_id":1167,"state_code":"GA","state_name":"Galicia","country_id":207,"country_code":"ES","country_name":"Spain","latitude":"42.32140000","longitude":"-8.16456000","wikiDataId":"Q940960"},{"id":33283,"Name":"Carballo","state_id":1167,"state_code":"GA","state_name":"Galicia","country_id":207,"country_code":"ES","country_name":"Spain","latitude":"43.21300000","longitude":"-8.69104000","wikiDataId":"Q940960"},{"id":33307,"Name":"Cariño","state_id":1167,"state_code":"GA","state_name":"Galicia","country_id":207,"country_code":"ES","country_name":"Spain","latitude":"43.74134000","longitude":"-7.86715000","wikiDataId":"Q24002479"},{"id":33312,"Name":"Carnota","state_id":1167,"state_code":"GA","state_name":"Galicia","country_id":207,"country_code":"ES","country_name":"Spain","latitude":"42.82330000","longitude":"-9.08913000","wikiDataId":"Q1372506"},{"id":33316,"Name":"Carral","state_id":1167,"state_code":"GA","state_name":"Galicia","country_id":207,"country_code":"ES","country_name":"Spain","latitude":"43.22860000","longitude":"-8.35545000","wikiDataId":"Q601352"},{"id":33339,"Name":"Cartelle","state_id":1167,"state_code":"GA","state_name":"Galicia","country_id":207,"country_code":"ES","country_name":"Spain","latitude":"42.25109000","longitude":"-8.07062000","wikiDataId":"Q1630168"},{"id":33473,"Name":"Castrelo de Miño","state_id":1167,"state_code":"GA","state_name":"Galicia","country_id":207,"country_code":"ES","country_name":"Spain","latitude":"42.29798000","longitude":"-8.06697000","wikiDataId":"Q1605406"},{"id":33486,"Name":"Castro","state_id":1167,"state_code":"GA","state_name":"Galicia","country_id":207,"country_code":"ES","country_name":"Spain","latitude":"42.76667000","longitude":"-7.58333000","wikiDataId":"Q2047584"},{"id":33487,"Name":"Castro Caldelas","state_id":1167,"state_code":"GA","state_name":"Galicia","country_id":207,"country_code":"ES","country_name":"Spain","latitude":"42.37366000","longitude":"-7.42578000","wikiDataId":"Q1607646"},{"id":33490,"Name":"Castro de Rei","state_id":1167,"state_code":"GA","state_name":"Galicia","country_id":207,"country_code":"ES","country_name":"Spain","latitude":"43.20866000","longitude":"-7.40026000","wikiDataId":"Q1917016"},{"id":33509,"Name":"Castroverde","state_id":1167,"state_code":"GA","state_name":"Galicia","country_id":207,"country_code":"ES","country_name":"Spain","latitude":"43.03020000","longitude":"-7.32428000","wikiDataId":"Q1368794"},{"id":33515,"Name":"Catoira","state_id":1167,"state_code":"GA","state_name":"Galicia","country_id":207,"country_code":"ES","country_name":"Spain","latitude":"42.66748000","longitude":"-8.72323000","wikiDataId":"Q377244"},{"id":33547,"Name":"Cea","state_id":1167,"state_code":"GA","state_name":"Galicia","country_id":207,"country_code":"ES","country_name":"Spain","latitude":"42.47490000","longitude":"-7.98739000","wikiDataId":"Q24016739"},{"id":33554,"Name":"Cedeira","state_id":1167,"state_code":"GA","state_name":"Galicia","country_id":207,"country_code":"ES","country_name":"Spain","latitude":"43.66044000","longitude":"-8.05719000","wikiDataId":"Q1632687"},{"id":33559,"Name":"Cee","state_id":1167,"state_code":"GA","state_name":"Galicia","country_id":207,"country_code":"ES","country_name":"Spain","latitude":"42.95466000","longitude":"-9.18800000","wikiDataId":"Q988707"},{"id":33563,"Name":"Celanova","state_id":1167,"state_code":"GA","state_name":"Galicia","country_id":207,"country_code":"ES","country_name":"Spain","latitude":"42.15303000","longitude":"-7.95513000","wikiDataId":"Q975881"},{"id":33572,"Name":"Cenlle","state_id":1167,"state_code":"GA","state_name":"Galicia","country_id":207,"country_code":"ES","country_name":"Spain","latitude":"42.34183000","longitude":"-8.08982000","wikiDataId":"Q1607762"},{"id":33581,"Name":"Cerdido","state_id":1167,"state_code":"GA","state_name":"Galicia","country_id":207,"country_code":"ES","country_name":"Spain","latitude":"43.62063000","longitude":"-7.99959000","wikiDataId":"Q1646215"},{"id":33606,"Name":"Cervo","state_id":1167,"state_code":"GA","state_name":"Galicia","country_id":207,"country_code":"ES","country_name":"Spain","latitude":"43.67019000","longitude":"-7.41013000","wikiDataId":"Q13428"},{"id":33607,"Name":"Cesuras","state_id":1167,"state_code":"GA","state_name":"Galicia","country_id":207,"country_code":"ES","country_name":"Spain","latitude":"43.17282000","longitude":"-8.20061000","wikiDataId":"Q772776"},{"id":33617,"Name":"Chantada","state_id":1167,"state_code":"GA","state_name":"Galicia","country_id":207,"country_code":"ES","country_name":"Spain","latitude":"42.60876000","longitude":"-7.77115000","wikiDataId":"Q1763370"},{"id":33725,"Name":"Coirós","state_id":1167,"state_code":"GA","state_name":"Galicia","country_id":207,"country_code":"ES","country_name":"Spain","latitude":"43.25000000","longitude":"-8.16667000","wikiDataId":"Q527259"},{"id":33727,"Name":"Coles","state_id":1167,"state_code":"GA","state_name":"Galicia","country_id":207,"country_code":"ES","country_name":"Spain","latitude":"42.40000000","longitude":"-7.83333000","wikiDataId":"Q1605474"},{"id":33752,"Name":"Combarro","state_id":1167,"state_code":"GA","state_name":"Galicia","country_id":207,"country_code":"ES","country_name":"Spain","latitude":"42.43188000","longitude":"-8.70649000","wikiDataId":"Q488895"},{"id":33779,"Name":"Corcubión","state_id":1167,"state_code":"GA","state_name":"Galicia","country_id":207,"country_code":"ES","country_name":"Spain","latitude":"42.94414000","longitude":"-9.19260000","wikiDataId":"Q581367"},{"id":33788,"Name":"Corgo","state_id":1167,"state_code":"GA","state_name":"Galicia","country_id":207,"country_code":"ES","country_name":"Spain","latitude":"42.94434000","longitude":"-7.43140000","wikiDataId":"Q1646359"},{"id":33792,"Name":"Coristanco","state_id":1167,"state_code":"GA","state_name":"Galicia","country_id":207,"country_code":"ES","country_name":"Spain","latitude":"43.20000000","longitude":"-8.75000000","wikiDataId":"Q1369028"},{"id":33828,"Name":"Covelo","state_id":1167,"state_code":"GA","state_name":"Galicia","country_id":207,"country_code":"ES","country_name":"Spain","latitude":"42.23333000","longitude":"-8.35000000","wikiDataId":"Q305392"},{"id":33843,"Name":"Cualedro","state_id":1167,"state_code":"GA","state_name":"Galicia","country_id":207,"country_code":"ES","country_name":"Spain","latitude":"41.98897000","longitude":"-7.59464000","wikiDataId":"Q601546"},{"id":33882,"Name":"Culleredo","state_id":1167,"state_code":"GA","state_name":"Galicia","country_id":207,"country_code":"ES","country_name":"Spain","latitude":"43.28788000","longitude":"-8.38858000","wikiDataId":"Q1113450"},{"id":33885,"Name":"Cuntis","state_id":1167,"state_code":"GA","state_name":"Galicia","country_id":207,"country_code":"ES","country_name":"Spain","latitude":"42.63396000","longitude":"-8.56256000","wikiDataId":"Q1631860"},{"id":33887,"Name":"Curtis","state_id":1167,"state_code":"GA","state_name":"Galicia","country_id":207,"country_code":"ES","country_name":"Spain","latitude":"43.12374000","longitude":"-8.14818000","wikiDataId":"Q1373939"},{"id":33953,"Name":"Dozón","state_id":1167,"state_code":"GA","state_name":"Galicia","country_id":207,"country_code":"ES","country_name":"Spain","latitude":"42.58333000","longitude":"-8.01667000","wikiDataId":"Q1614585"},{"id":33960,"Name":"Dumbría","state_id":1167,"state_code":"GA","state_name":"Galicia","country_id":207,"country_code":"ES","country_name":"Spain","latitude":"43.00836000","longitude":"-9.11328000","wikiDataId":"Q549319"},{"id":34063,"Name":"Entrimo","state_id":1167,"state_code":"GA","state_name":"Galicia","country_id":207,"country_code":"ES","country_name":"Spain","latitude":"41.93297000","longitude":"-8.11725000","wikiDataId":"Q1606243"},{"id":34095,"Name":"Esgos","state_id":1167,"state_code":"GA","state_name":"Galicia","country_id":207,"country_code":"ES","country_name":"Spain","latitude":"42.32549000","longitude":"-7.69691000","wikiDataId":"Q559286"},{"id":34172,"Name":"Fene","state_id":1167,"state_code":"GA","state_name":"Galicia","country_id":207,"country_code":"ES","country_name":"Spain","latitude":"43.45000000","longitude":"-8.15000000","wikiDataId":"Q1639270"},{"id":34182,"Name":"Ferrol","state_id":1167,"state_code":"GA","state_name":"Galicia","country_id":207,"country_code":"ES","country_name":"Spain","latitude":"43.48961000","longitude":"-8.21940000","wikiDataId":"Q485329"},{"id":34192,"Name":"Fisterra","state_id":1167,"state_code":"GA","state_name":"Galicia","country_id":207,"country_code":"ES","country_name":"Spain","latitude":"42.90492000","longitude":"-9.26289000","wikiDataId":"Q598606"},{"id":34210,"Name":"Fonsagrada","state_id":1167,"state_code":"GA","state_name":"Galicia","country_id":207,"country_code":"ES","country_name":"Spain","latitude":"43.12398000","longitude":"-7.06790000","wikiDataId":"Q1465213"},{"id":34226,"Name":"Fornelos de Montes","state_id":1167,"state_code":"GA","state_name":"Galicia","country_id":207,"country_code":"ES","country_name":"Spain","latitude":"42.34126000","longitude":"-8.45291000","wikiDataId":"Q525124"},{"id":34234,"Name":"Foz","state_id":1167,"state_code":"GA","state_name":"Galicia","country_id":207,"country_code":"ES","country_name":"Spain","latitude":"43.56920000","longitude":"-7.25441000","wikiDataId":"Q1230137"},{"id":34267,"Name":"Friol","state_id":1167,"state_code":"GA","state_name":"Galicia","country_id":207,"country_code":"ES","country_name":"Spain","latitude":"43.03213000","longitude":"-7.79514000","wikiDataId":"Q576916"},{"id":34483,"Name":"Gondomar","state_id":1167,"state_code":"GA","state_name":"Galicia","country_id":207,"country_code":"ES","country_name":"Spain","latitude":"42.11155000","longitude":"-8.74971000","wikiDataId":"Q1607596"},{"id":34552,"Name":"Guitiriz","state_id":1167,"state_code":"GA","state_name":"Galicia","country_id":207,"country_code":"ES","country_name":"Spain","latitude":"43.18169000","longitude":"-7.89656000","wikiDataId":"Q1450130"},{"id":34744,"Name":"Illa de Arousa","state_id":1167,"state_code":"GA","state_name":"Galicia","country_id":207,"country_code":"ES","country_name":"Spain","latitude":"42.56376000","longitude":"-8.87258000","wikiDataId":"Q24013366"},{"id":34759,"Name":"Irixoa","state_id":1167,"state_code":"GA","state_name":"Galicia","country_id":207,"country_code":"ES","country_name":"Spain","latitude":"43.28470000","longitude":"-8.05916000","wikiDataId":"Q1620170"},{"id":34956,"Name":"Lalín","state_id":1167,"state_code":"GA","state_name":"Galicia","country_id":207,"country_code":"ES","country_name":"Spain","latitude":"42.66085000","longitude":"-8.11285000","wikiDataId":"Q1374736"},{"id":34957,"Name":"Lama","state_id":1167,"state_code":"GA","state_name":"Galicia","country_id":207,"country_code":"ES","country_name":"Spain","latitude":"42.40000000","longitude":"-8.43333000","wikiDataId":"Q1374736"},{"id":35175,"Name":"Láncara","state_id":1167,"state_code":"GA","state_name":"Galicia","country_id":207,"country_code":"ES","country_name":"Spain","latitude":"42.86425000","longitude":"-7.33667000","wikiDataId":"Q484981"},{"id":34974,"Name":"Laracha","state_id":1167,"state_code":"GA","state_name":"Galicia","country_id":207,"country_code":"ES","country_name":"Spain","latitude":"43.25375000","longitude":"-8.58535000","wikiDataId":"Q924043"},{"id":35007,"Name":"Laza","state_id":1167,"state_code":"GA","state_name":"Galicia","country_id":207,"country_code":"ES","country_name":"Spain","latitude":"42.06136000","longitude":"-7.46200000","wikiDataId":"Q1631843"},{"id":35095,"Name":"Lobios","state_id":1167,"state_code":"GA","state_name":"Galicia","country_id":207,"country_code":"ES","country_name":"Spain","latitude":"42.40746000","longitude":"-7.53164000","wikiDataId":"Q1639598"},{"id":35144,"Name":"Lousame","state_id":1167,"state_code":"GA","state_name":"Galicia","country_id":207,"country_code":"ES","country_name":"Spain","latitude":"42.76477000","longitude":"-8.84926000","wikiDataId":"Q1450842"},{"id":35159,"Name":"Lugo","state_id":1167,"state_code":"GA","state_name":"Galicia","country_id":207,"country_code":"ES","country_name":"Spain","latitude":"43.00992000","longitude":"-7.55602000","wikiDataId":"Q1650612"},{"id":35161,"Name":"Luintra","state_id":1167,"state_code":"GA","state_name":"Galicia","country_id":207,"country_code":"ES","country_name":"Spain","latitude":"42.40964000","longitude":"-7.72682000","wikiDataId":"Q1635929"},{"id":35181,"Name":"Maceda","state_id":1167,"state_code":"GA","state_name":"Galicia","country_id":207,"country_code":"ES","country_name":"Spain","latitude":"42.26972000","longitude":"-7.65052000","wikiDataId":"Q1617896"},{"id":35231,"Name":"Malpica","state_id":1167,"state_code":"GA","state_name":"Galicia","country_id":207,"country_code":"ES","country_name":"Spain","latitude":"43.32280000","longitude":"-8.81052000","wikiDataId":"Q596761"},{"id":35268,"Name":"Manzaneda","state_id":1167,"state_code":"GA","state_name":"Galicia","country_id":207,"country_code":"ES","country_name":"Spain","latitude":"42.30962000","longitude":"-7.23209000","wikiDataId":"Q55483"},{"id":35314,"Name":"Marín","state_id":1167,"state_code":"GA","state_name":"Galicia","country_id":207,"country_code":"ES","country_name":"Spain","latitude":"42.39145000","longitude":"-8.70136000","wikiDataId":"Q1640944"},{"id":35323,"Name":"Maside","state_id":1167,"state_code":"GA","state_name":"Galicia","country_id":207,"country_code":"ES","country_name":"Spain","latitude":"42.41031000","longitude":"-8.02582000","wikiDataId":"Q1654362"},{"id":35354,"Name":"Mazaricos","state_id":1167,"state_code":"GA","state_name":"Galicia","country_id":207,"country_code":"ES","country_name":"Spain","latitude":"42.94033000","longitude":"-8.97187000","wikiDataId":"Q1442814"},{"id":35364,"Name":"Meaño","state_id":1167,"state_code":"GA","state_name":"Galicia","country_id":207,"country_code":"ES","country_name":"Spain","latitude":"42.44661000","longitude":"-8.78122000","wikiDataId":"Q1607447"},{"id":35381,"Name":"Meira","state_id":1167,"state_code":"GA","state_name":"Galicia","country_id":207,"country_code":"ES","country_name":"Spain","latitude":"43.21337000","longitude":"-7.29372000","wikiDataId":"Q1618958"},{"id":35382,"Name":"Meis","state_id":1167,"state_code":"GA","state_name":"Galicia","country_id":207,"country_code":"ES","country_name":"Spain","latitude":"42.50000000","longitude":"-8.75000000","wikiDataId":"Q1618958"},{"id":35392,"Name":"Melón","state_id":1167,"state_code":"GA","state_name":"Galicia","country_id":207,"country_code":"ES","country_name":"Spain","latitude":"42.26016000","longitude":"-8.21400000","wikiDataId":"Q1644993"},{"id":35410,"Name":"Mesia","state_id":1167,"state_code":"GA","state_name":"Galicia","country_id":207,"country_code":"ES","country_name":"Spain","latitude":"43.10000000","longitude":"-8.26667000","wikiDataId":"Q1606528"},{"id":35457,"Name":"Miño","state_id":1167,"state_code":"GA","state_name":"Galicia","country_id":207,"country_code":"ES","country_name":"Spain","latitude":"43.35000000","longitude":"-8.20000000","wikiDataId":"Q12442"},{"id":35459,"Name":"Moaña","state_id":1167,"state_code":"GA","state_name":"Galicia","country_id":207,"country_code":"ES","country_name":"Spain","latitude":"42.27807000","longitude":"-8.73921000","wikiDataId":"Q1617430"},{"id":35465,"Name":"Moeche","state_id":1167,"state_code":"GA","state_name":"Galicia","country_id":207,"country_code":"ES","country_name":"Spain","latitude":"43.55000000","longitude":"-8.01667000","wikiDataId":"Q1645207"},{"id":35504,"Name":"Mondariz","state_id":1167,"state_code":"GA","state_name":"Galicia","country_id":207,"country_code":"ES","country_name":"Spain","latitude":"42.23110000","longitude":"-8.45839000","wikiDataId":"Q1624023"},{"id":35505,"Name":"Mondariz-Balneario","state_id":1167,"state_code":"GA","state_name":"Galicia","country_id":207,"country_code":"ES","country_name":"Spain","latitude":"42.22686000","longitude":"-8.46728000","wikiDataId":"Q23994672"},{"id":35506,"Name":"Mondoñedo","state_id":1167,"state_code":"GA","state_name":"Galicia","country_id":207,"country_code":"ES","country_name":"Spain","latitude":"43.40000000","longitude":"-7.40000000","wikiDataId":"Q23994676"},{"id":35512,"Name":"Monfero","state_id":1167,"state_code":"GA","state_name":"Galicia","country_id":207,"country_code":"ES","country_name":"Spain","latitude":"43.33333000","longitude":"-8.01667000","wikiDataId":"Q1652360"},{"id":35513,"Name":"Monforte de Lemos","state_id":1167,"state_code":"GA","state_name":"Galicia","country_id":207,"country_code":"ES","country_name":"Spain","latitude":"42.52165000","longitude":"-7.51422000","wikiDataId":"Q24012806"},{"id":35547,"Name":"Montederramo","state_id":1167,"state_code":"GA","state_name":"Galicia","country_id":207,"country_code":"ES","country_name":"Spain","latitude":"42.27554000","longitude":"-7.50138000","wikiDataId":"Q1606231"},{"id":35565,"Name":"Monterroso","state_id":1167,"state_code":"GA","state_name":"Galicia","country_id":207,"country_code":"ES","country_name":"Spain","latitude":"42.79250000","longitude":"-7.83425000","wikiDataId":"Q1122290"},{"id":35621,"Name":"Moraña","state_id":1167,"state_code":"GA","state_name":"Galicia","country_id":207,"country_code":"ES","country_name":"Spain","latitude":"42.55000000","longitude":"-8.58333000","wikiDataId":"Q1607494"},{"id":35637,"Name":"Mos","state_id":1167,"state_code":"GA","state_name":"Galicia","country_id":207,"country_code":"ES","country_name":"Spain","latitude":"43.15667000","longitude":"-7.55047000","wikiDataId":"Q609094"},{"id":35658,"Name":"Mugardos","state_id":1167,"state_code":"GA","state_name":"Galicia","country_id":207,"country_code":"ES","country_name":"Spain","latitude":"43.46040000","longitude":"-8.25507000","wikiDataId":"Q1768955"},{"id":35659,"Name":"Mugia","state_id":1167,"state_code":"GA","state_name":"Galicia","country_id":207,"country_code":"ES","country_name":"Spain","latitude":"43.10414000","longitude":"-9.21791000","wikiDataId":"Q512940"},{"id":35660,"Name":"Muiños","state_id":1167,"state_code":"GA","state_name":"Galicia","country_id":207,"country_code":"ES","country_name":"Spain","latitude":"41.95609000","longitude":"-7.97396000","wikiDataId":"Q512940"},{"id":35669,"Name":"Muras","state_id":1167,"state_code":"GA","state_name":"Galicia","country_id":207,"country_code":"ES","country_name":"Spain","latitude":"43.46685000","longitude":"-7.72383000","wikiDataId":"Q24012023"},{"id":35685,"Name":"Muros","state_id":1167,"state_code":"GA","state_name":"Galicia","country_id":207,"country_code":"ES","country_name":"Spain","latitude":"42.77617000","longitude":"-9.06032000","wikiDataId":"Q1636253"},{"id":35720,"Name":"Narón","state_id":1167,"state_code":"GA","state_name":"Galicia","country_id":207,"country_code":"ES","country_name":"Spain","latitude":"43.50175000","longitude":"-8.19082000","wikiDataId":"Q1606774"},{"id":35790,"Name":"Navia de Suarna","state_id":1167,"state_code":"GA","state_name":"Galicia","country_id":207,"country_code":"ES","country_name":"Spain","latitude":"42.96667000","longitude":"-7.00000000","wikiDataId":"Q1445393"},{"id":35797,"Name":"Negreira","state_id":1167,"state_code":"GA","state_name":"Galicia","country_id":207,"country_code":"ES","country_name":"Spain","latitude":"42.90402000","longitude":"-8.74273000","wikiDataId":"Q840787"},{"id":35808,"Name":"Nigrán","state_id":1167,"state_code":"GA","state_name":"Galicia","country_id":207,"country_code":"ES","country_name":"Spain","latitude":"42.14153000","longitude":"-8.80656000","wikiDataId":"Q1617562"},{"id":35817,"Name":"Nogueira de Ramuín","state_id":1167,"state_code":"GA","state_name":"Galicia","country_id":207,"country_code":"ES","country_name":"Spain","latitude":"42.41712000","longitude":"-7.74982000","wikiDataId":"Q1641701"},{"id":35846,"Name":"O Barco de Valdeorras","state_id":1167,"state_code":"GA","state_name":"Galicia","country_id":207,"country_code":"ES","country_name":"Spain","latitude":"42.41642000","longitude":"-6.99005000","wikiDataId":"Q1607428"},{"id":35847,"Name":"O Carballiño","state_id":1167,"state_code":"GA","state_name":"Galicia","country_id":207,"country_code":"ES","country_name":"Spain","latitude":"42.43163000","longitude":"-8.07899000","wikiDataId":"Q1607558"},{"id":35848,"Name":"O Grove","state_id":1167,"state_code":"GA","state_name":"Galicia","country_id":207,"country_code":"ES","country_name":"Spain","latitude":"42.49444000","longitude":"-8.86502000","wikiDataId":"Q929161"},{"id":35849,"Name":"O Incio","state_id":1167,"state_code":"GA","state_name":"Galicia","country_id":207,"country_code":"ES","country_name":"Spain","latitude":"42.63333000","longitude":"-7.35000000","wikiDataId":"Q592681"},{"id":35850,"Name":"O Páramo","state_id":1167,"state_code":"GA","state_name":"Galicia","country_id":207,"country_code":"ES","country_name":"Spain","latitude":"42.95000000","longitude":"-7.30000000","wikiDataId":"Q1617334"},{"id":35851,"Name":"O Rosal","state_id":1167,"state_code":"GA","state_name":"Galicia","country_id":207,"country_code":"ES","country_name":"Spain","latitude":"41.93536000","longitude":"-8.83677000","wikiDataId":"Q1617334"},{"id":35864,"Name":"Oia","state_id":1167,"state_code":"GA","state_name":"Galicia","country_id":207,"country_code":"ES","country_name":"Spain","latitude":"42.00000000","longitude":"-8.86667000","wikiDataId":"Q1644565"},{"id":35865,"Name":"Oimbra","state_id":1167,"state_code":"GA","state_name":"Galicia","country_id":207,"country_code":"ES","country_name":"Spain","latitude":"41.88554000","longitude":"-7.47216000","wikiDataId":"Q1644565"},{"id":35876,"Name":"Oleiros","state_id":1167,"state_code":"GA","state_name":"Galicia","country_id":207,"country_code":"ES","country_name":"Spain","latitude":"43.33333000","longitude":"-8.31667000","wikiDataId":"Q688611"},{"id":35939,"Name":"Ordes","state_id":1167,"state_code":"GA","state_name":"Galicia","country_id":207,"country_code":"ES","country_name":"Spain","latitude":"43.07654000","longitude":"-8.40900000","wikiDataId":"Q23982261"},{"id":35959,"Name":"Oroso","state_id":1167,"state_code":"GA","state_name":"Galicia","country_id":207,"country_code":"ES","country_name":"Spain","latitude":"42.98333000","longitude":"-8.43333000","wikiDataId":"Q924131"},{"id":35983,"Name":"Ourense","state_id":1167,"state_code":"GA","state_name":"Galicia","country_id":207,"country_code":"ES","country_name":"Spain","latitude":"42.33669000","longitude":"-7.86407000","wikiDataId":"Q99151"},{"id":35984,"Name":"Ourol","state_id":1167,"state_code":"GA","state_name":"Galicia","country_id":207,"country_code":"ES","country_name":"Spain","latitude":"42.87013000","longitude":"-7.61447000","wikiDataId":"Q1445352"},{"id":35985,"Name":"Outeiro","state_id":1167,"state_code":"GA","state_name":"Galicia","country_id":207,"country_code":"ES","country_name":"Spain","latitude":"43.14458000","longitude":"-7.29212000","wikiDataId":"Q1445352"},{"id":35986,"Name":"Outeiro de Rei","state_id":1167,"state_code":"GA","state_name":"Galicia","country_id":207,"country_code":"ES","country_name":"Spain","latitude":"43.10198000","longitude":"-7.61497000","wikiDataId":"Q1445352"},{"id":35987,"Name":"Outes","state_id":1167,"state_code":"GA","state_name":"Galicia","country_id":207,"country_code":"ES","country_name":"Spain","latitude":"42.86189000","longitude":"-8.90181000","wikiDataId":"Q1445352"},{"id":35993,"Name":"Padrenda","state_id":1167,"state_code":"GA","state_name":"Galicia","country_id":207,"country_code":"ES","country_name":"Spain","latitude":"42.13333000","longitude":"-8.15000000","wikiDataId":"Q1607736"},{"id":35995,"Name":"Padrón","state_id":1167,"state_code":"GA","state_name":"Galicia","country_id":207,"country_code":"ES","country_name":"Spain","latitude":"42.73875000","longitude":"-8.66057000","wikiDataId":"Q1643720"},{"id":36031,"Name":"Palmeira","state_id":1167,"state_code":"GA","state_name":"Galicia","country_id":207,"country_code":"ES","country_name":"Spain","latitude":"42.58333000","longitude":"-8.95000000","wikiDataId":"Q1008934"},{"id":36050,"Name":"Pantón","state_id":1167,"state_code":"GA","state_name":"Galicia","country_id":207,"country_code":"ES","country_name":"Spain","latitude":"42.51667000","longitude":"-7.60000000","wikiDataId":"Q1447446"},{"id":36059,"Name":"Paradela","state_id":1167,"state_code":"GA","state_name":"Galicia","country_id":207,"country_code":"ES","country_name":"Spain","latitude":"42.76667000","longitude":"-7.56667000","wikiDataId":"Q1146813"},{"id":36075,"Name":"Pastoriza","state_id":1167,"state_code":"GA","state_name":"Galicia","country_id":207,"country_code":"ES","country_name":"Spain","latitude":"43.33333000","longitude":"-8.46667000","wikiDataId":"Q847127"},{"id":36147,"Name":"Pereiro de Aguiar","state_id":1167,"state_code":"GA","state_name":"Galicia","country_id":207,"country_code":"ES","country_name":"Spain","latitude":"42.34524000","longitude":"-7.80008000","wikiDataId":"Q1603774"},{"id":36159,"Name":"Petín","state_id":1167,"state_code":"GA","state_name":"Galicia","country_id":207,"country_code":"ES","country_name":"Spain","latitude":"42.38191000","longitude":"-7.12899000","wikiDataId":"Q670366"},{"id":36232,"Name":"Piñor","state_id":1167,"state_code":"GA","state_name":"Galicia","country_id":207,"country_code":"ES","country_name":"Spain","latitude":"42.50120000","longitude":"-8.00151000","wikiDataId":"Q934212"},{"id":36255,"Name":"Pobra de Trives","state_id":1167,"state_code":"GA","state_name":"Galicia","country_id":207,"country_code":"ES","country_name":"Spain","latitude":"42.33932000","longitude":"-7.25338000","wikiDataId":"Q1642159"},{"id":36256,"Name":"Poio","state_id":1167,"state_code":"GA","state_name":"Galicia","country_id":207,"country_code":"ES","country_name":"Spain","latitude":"42.44775000","longitude":"-8.68594000","wikiDataId":"Q1642159"},{"id":36272,"Name":"Ponteareas","state_id":1167,"state_code":"GA","state_name":"Galicia","country_id":207,"country_code":"ES","country_name":"Spain","latitude":"42.17476000","longitude":"-8.50398000","wikiDataId":"Q617119"},{"id":36273,"Name":"Pontevedra","state_id":1167,"state_code":"GA","state_name":"Galicia","country_id":207,"country_code":"ES","country_name":"Spain","latitude":"42.43100000","longitude":"-8.64435000","wikiDataId":"Q12411"},{"id":36278,"Name":"Porqueira","state_id":1167,"state_code":"GA","state_name":"Galicia","country_id":207,"country_code":"ES","country_name":"Spain","latitude":"42.01667000","longitude":"-7.85000000","wikiDataId":"Q1631352"},{"id":36280,"Name":"Porriño","state_id":1167,"state_code":"GA","state_name":"Galicia","country_id":207,"country_code":"ES","country_name":"Spain","latitude":"42.16156000","longitude":"-8.61980000","wikiDataId":"Q925773"},{"id":36286,"Name":"Portas","state_id":1167,"state_code":"GA","state_name":"Galicia","country_id":207,"country_code":"ES","country_name":"Spain","latitude":"42.58531000","longitude":"-8.65573000","wikiDataId":"Q1631280"},{"id":36296,"Name":"Porto do Son","state_id":1167,"state_code":"GA","state_name":"Galicia","country_id":207,"country_code":"ES","country_name":"Spain","latitude":"42.72482000","longitude":"-9.00527000","wikiDataId":"Q1766511"},{"id":36298,"Name":"Portomarín","state_id":1167,"state_code":"GA","state_name":"Galicia","country_id":207,"country_code":"ES","country_name":"Spain","latitude":"42.80620000","longitude":"-7.61644000","wikiDataId":"Q849319"},{"id":36299,"Name":"Portonovo","state_id":1167,"state_code":"GA","state_name":"Galicia","country_id":207,"country_code":"ES","country_name":"Spain","latitude":"42.39424000","longitude":"-8.82563000","wikiDataId":"Q2735639"},{"id":36360,"Name":"Provincia da Coruña","state_id":1167,"state_code":"GA","state_name":"Galicia","country_id":207,"country_code":"ES","country_name":"Spain","latitude":"43.16667000","longitude":"-8.41667000","wikiDataId":"Q82119"},{"id":36378,"Name":"Provincia de Lugo","state_id":1167,"state_code":"GA","state_name":"Galicia","country_id":207,"country_code":"ES","country_name":"Spain","latitude":"43.00000000","longitude":"-7.50000000","wikiDataId":"Q95027"},{"id":36382,"Name":"Provincia de Ourense","state_id":1167,"state_code":"GA","state_name":"Galicia","country_id":207,"country_code":"ES","country_name":"Spain","latitude":"42.16667000","longitude":"-7.50000000","wikiDataId":"Q95038"},{"id":36384,"Name":"Provincia de Pontevedra","state_id":1167,"state_code":"GA","state_name":"Galicia","country_id":207,"country_code":"ES","country_name":"Spain","latitude":"42.50000000","longitude":"-8.50000000","wikiDataId":"Q95086"},{"id":36433,"Name":"Puente Nuevo","state_id":1167,"state_code":"GA","state_name":"Galicia","country_id":207,"country_code":"ES","country_name":"Spain","latitude":"43.34948000","longitude":"-7.19458000","wikiDataId":"Q1465219"},{"id":36527,"Name":"Quintela de Leirado","state_id":1167,"state_code":"GA","state_name":"Galicia","country_id":207,"country_code":"ES","country_name":"Spain","latitude":"42.13967000","longitude":"-8.10126000","wikiDataId":"Q1630324"},{"id":36529,"Name":"Quiroga","state_id":1167,"state_code":"GA","state_name":"Galicia","country_id":207,"country_code":"ES","country_name":"Spain","latitude":"42.47678000","longitude":"-7.27463000","wikiDataId":"Q969128"},{"id":36707,"Name":"Rábade","state_id":1167,"state_code":"GA","state_name":"Galicia","country_id":207,"country_code":"ES","country_name":"Spain","latitude":"43.11700000","longitude":"-7.61714000","wikiDataId":"Q592982"},{"id":36542,"Name":"Rairiz de Veiga","state_id":1167,"state_code":"GA","state_name":"Galicia","country_id":207,"country_code":"ES","country_name":"Spain","latitude":"42.08364000","longitude":"-7.83503000","wikiDataId":"Q542228"},{"id":36561,"Name":"Redondela","state_id":1167,"state_code":"GA","state_name":"Galicia","country_id":207,"country_code":"ES","country_name":"Spain","latitude":"42.28337000","longitude":"-8.60960000","wikiDataId":"Q20547064"},{"id":36603,"Name":"Rianxo","state_id":1167,"state_code":"GA","state_name":"Galicia","country_id":207,"country_code":"ES","country_name":"Spain","latitude":"42.64977000","longitude":"-8.81763000","wikiDataId":"Q970471"},{"id":36607,"Name":"Ribadavia","state_id":1167,"state_code":"GA","state_name":"Galicia","country_id":207,"country_code":"ES","country_name":"Spain","latitude":"42.28804000","longitude":"-8.14362000","wikiDataId":"Q917180"},{"id":36608,"Name":"Ribadeo","state_id":1167,"state_code":"GA","state_name":"Galicia","country_id":207,"country_code":"ES","country_name":"Spain","latitude":"43.53704000","longitude":"-7.04095000","wikiDataId":"Q23992983"},{"id":36609,"Name":"Ribadumia","state_id":1167,"state_code":"GA","state_name":"Galicia","country_id":207,"country_code":"ES","country_name":"Spain","latitude":"42.51667000","longitude":"-8.75000000","wikiDataId":"Q1631321"},{"id":36614,"Name":"Ribeira","state_id":1167,"state_code":"GA","state_name":"Galicia","country_id":207,"country_code":"ES","country_name":"Spain","latitude":"42.74611000","longitude":"-8.44392000","wikiDataId":"Q1647102"},{"id":36642,"Name":"Riós","state_id":1167,"state_code":"GA","state_name":"Galicia","country_id":207,"country_code":"ES","country_name":"Spain","latitude":"41.97457000","longitude":"-7.28234000","wikiDataId":"Q1645023"},{"id":36718,"Name":"Ríotorto","state_id":1167,"state_code":"GA","state_name":"Galicia","country_id":207,"country_code":"ES","country_name":"Spain","latitude":"43.35000000","longitude":"-7.23333000","wikiDataId":"Q23993044"},{"id":36663,"Name":"Rodeiro","state_id":1167,"state_code":"GA","state_name":"Galicia","country_id":207,"country_code":"ES","country_name":"Spain","latitude":"42.65193000","longitude":"-7.95519000","wikiDataId":"Q1939023"},{"id":36732,"Name":"Sada","state_id":1167,"state_code":"GA","state_name":"Galicia","country_id":207,"country_code":"ES","country_name":"Spain","latitude":"43.35619000","longitude":"-8.25796000","wikiDataId":"Q1616081"},{"id":36785,"Name":"Salvatierra de Miño","state_id":1167,"state_code":"GA","state_name":"Galicia","country_id":207,"country_code":"ES","country_name":"Spain","latitude":"42.08333000","longitude":"-8.50000000","wikiDataId":"Q1640389"},{"id":36792,"Name":"Samos","state_id":1167,"state_code":"GA","state_name":"Galicia","country_id":207,"country_code":"ES","country_name":"Spain","latitude":"42.73100000","longitude":"-7.32582000","wikiDataId":"Q917876"},{"id":36801,"Name":"San Amaro","state_id":1167,"state_code":"GA","state_name":"Galicia","country_id":207,"country_code":"ES","country_name":"Spain","latitude":"42.37385000","longitude":"-8.07347000","wikiDataId":"Q1766839"},{"id":36915,"Name":"San Román","state_id":1167,"state_code":"GA","state_name":"Galicia","country_id":207,"country_code":"ES","country_name":"Spain","latitude":"42.86932000","longitude":"-7.06261000","wikiDataId":"Q23992451"},{"id":37021,"Name":"Santa Comba","state_id":1167,"state_code":"GA","state_name":"Galicia","country_id":207,"country_code":"ES","country_name":"Spain","latitude":"43.03306000","longitude":"-8.80925000","wikiDataId":"Q141080"},{"id":37071,"Name":"Santa Marta de Ortigueira","state_id":1167,"state_code":"GA","state_name":"Galicia","country_id":207,"country_code":"ES","country_name":"Spain","latitude":"43.68333000","longitude":"-7.85000000","wikiDataId":"Q1375842"},{"id":37101,"Name":"Santa Uxía de Ribeira","state_id":1167,"state_code":"GA","state_name":"Galicia","country_id":207,"country_code":"ES","country_name":"Spain","latitude":"42.55352000","longitude":"-8.99094000","wikiDataId":"Q1941746"},{"id":37114,"Name":"Santiago de Compostela","state_id":1167,"state_code":"GA","state_name":"Galicia","country_id":207,"country_code":"ES","country_name":"Spain","latitude":"42.88052000","longitude":"-8.54569000","wikiDataId":"Q23992507"},{"id":37132,"Name":"Santiso","state_id":1167,"state_code":"GA","state_name":"Galicia","country_id":207,"country_code":"ES","country_name":"Spain","latitude":"42.87388000","longitude":"-8.05497000","wikiDataId":"Q1442623"},{"id":37157,"Name":"Sanxenxo","state_id":1167,"state_code":"GA","state_name":"Galicia","country_id":207,"country_code":"ES","country_name":"Spain","latitude":"42.39996000","longitude":"-8.80698000","wikiDataId":"Q1645895"},{"id":37167,"Name":"Sarreaus","state_id":1167,"state_code":"GA","state_name":"Galicia","country_id":207,"country_code":"ES","country_name":"Spain","latitude":"42.08784000","longitude":"-7.60348000","wikiDataId":"Q1607778"},{"id":37168,"Name":"Sarria","state_id":1167,"state_code":"GA","state_name":"Galicia","country_id":207,"country_code":"ES","country_name":"Spain","latitude":"42.78148000","longitude":"-7.41431000","wikiDataId":"Q1607778"},{"id":37256,"Name":"Silleda","state_id":1167,"state_code":"GA","state_name":"Galicia","country_id":207,"country_code":"ES","country_name":"Spain","latitude":"42.69605000","longitude":"-8.24653000","wikiDataId":"Q1607540"},{"id":37270,"Name":"Sober","state_id":1167,"state_code":"GA","state_name":"Galicia","country_id":207,"country_code":"ES","country_name":"Spain","latitude":"42.46127000","longitude":"-7.58640000","wikiDataId":"Q1442183"},{"id":37271,"Name":"Sobradelo","state_id":1167,"state_code":"GA","state_name":"Galicia","country_id":207,"country_code":"ES","country_name":"Spain","latitude":"42.58333000","longitude":"-8.78333000","wikiDataId":"Q1442183"},{"id":37274,"Name":"Sobrado","state_id":1167,"state_code":"GA","state_name":"Galicia","country_id":207,"country_code":"ES","country_name":"Spain","latitude":"43.03882000","longitude":"-8.02784000","wikiDataId":"Q644626"},{"id":37289,"Name":"Somozas","state_id":1167,"state_code":"GA","state_name":"Galicia","country_id":207,"country_code":"ES","country_name":"Spain","latitude":"43.53333000","longitude":"-7.93333000","wikiDataId":"Q1442802"},{"id":37344,"Name":"Taboada","state_id":1167,"state_code":"GA","state_name":"Galicia","country_id":207,"country_code":"ES","country_name":"Spain","latitude":"42.69900000","longitude":"-7.82298000","wikiDataId":"Q23992081"},{"id":37345,"Name":"Taboadela","state_id":1167,"state_code":"GA","state_name":"Galicia","country_id":207,"country_code":"ES","country_name":"Spain","latitude":"42.24234000","longitude":"-7.82719000","wikiDataId":"Q970921"},{"id":37404,"Name":"Teo","state_id":1167,"state_code":"GA","state_name":"Galicia","country_id":207,"country_code":"ES","country_name":"Spain","latitude":"42.75000000","longitude":"-8.50000000","wikiDataId":"Q1635642"},{"id":37610,"Name":"Toén","state_id":1167,"state_code":"GA","state_name":"Galicia","country_id":207,"country_code":"ES","country_name":"Spain","latitude":"42.31765000","longitude":"-7.95435000","wikiDataId":"Q943030"},{"id":37451,"Name":"Tomiño","state_id":1167,"state_code":"GA","state_name":"Galicia","country_id":207,"country_code":"ES","country_name":"Spain","latitude":"41.98772000","longitude":"-8.75502000","wikiDataId":"Q820229"},{"id":37608,"Name":"Touro","state_id":1167,"state_code":"GA","state_name":"Galicia","country_id":207,"country_code":"ES","country_name":"Spain","latitude":"42.86812000","longitude":"-8.30764000","wikiDataId":"Q904203"},{"id":37611,"Name":"Trabada","state_id":1167,"state_code":"GA","state_name":"Galicia","country_id":207,"country_code":"ES","country_name":"Spain","latitude":"43.44475000","longitude":"-7.19527000","wikiDataId":"Q943030"},{"id":37620,"Name":"Trasmiras","state_id":1167,"state_code":"GA","state_name":"Galicia","country_id":207,"country_code":"ES","country_name":"Spain","latitude":"42.02540000","longitude":"-7.61735000","wikiDataId":"Q917185"},{"id":37624,"Name":"Trazo","state_id":1167,"state_code":"GA","state_name":"Galicia","country_id":207,"country_code":"ES","country_name":"Spain","latitude":"43.01667000","longitude":"-8.53333000","wikiDataId":"Q1616102"},{"id":37651,"Name":"Tui","state_id":1167,"state_code":"GA","state_name":"Galicia","country_id":207,"country_code":"ES","country_name":"Spain","latitude":"42.04713000","longitude":"-8.64435000","wikiDataId":"Q1646935"},{"id":37812,"Name":"Valdoviño","state_id":1167,"state_code":"GA","state_name":"Galicia","country_id":207,"country_code":"ES","country_name":"Spain","latitude":"43.60000000","longitude":"-8.13333000","wikiDataId":"Q1643797"},{"id":37828,"Name":"Valga","state_id":1167,"state_code":"GA","state_name":"Galicia","country_id":207,"country_code":"ES","country_name":"Spain","latitude":"42.69792000","longitude":"-8.63959000","wikiDataId":"Q1628179"},{"id":37902,"Name":"Vedra","state_id":1167,"state_code":"GA","state_name":"Galicia","country_id":207,"country_code":"ES","country_name":"Spain","latitude":"42.77817000","longitude":"-8.47636000","wikiDataId":"Q1616092"},{"id":37951,"Name":"Verea","state_id":1167,"state_code":"GA","state_name":"Galicia","country_id":207,"country_code":"ES","country_name":"Spain","latitude":"42.10653000","longitude":"-8.00092000","wikiDataId":"Q1628482"},{"id":37955,"Name":"Verín","state_id":1167,"state_code":"GA","state_name":"Galicia","country_id":207,"country_code":"ES","country_name":"Spain","latitude":"41.94149000","longitude":"-7.43809000","wikiDataId":"Q176504"},{"id":37970,"Name":"Vigo","state_id":1167,"state_code":"GA","state_name":"Galicia","country_id":207,"country_code":"ES","country_name":"Spain","latitude":"42.23282000","longitude":"-8.72264000","wikiDataId":"Q594134"},{"id":37985,"Name":"Vilagarcía de Arousa","state_id":1167,"state_code":"GA","state_name":"Galicia","country_id":207,"country_code":"ES","country_name":"Spain","latitude":"42.59631000","longitude":"-8.76426000","wikiDataId":"Q23991995"},{"id":37987,"Name":"Vilalba","state_id":1167,"state_code":"GA","state_name":"Galicia","country_id":207,"country_code":"ES","country_name":"Spain","latitude":"43.29806000","longitude":"-7.68130000","wikiDataId":"Q23991995"},{"id":37994,"Name":"Vilanova de Arousa","state_id":1167,"state_code":"GA","state_name":"Galicia","country_id":207,"country_code":"ES","country_name":"Spain","latitude":"42.56400000","longitude":"-8.82797000","wikiDataId":"Q1010284"},{"id":38002,"Name":"Vilasantar","state_id":1167,"state_code":"GA","state_name":"Galicia","country_id":207,"country_code":"ES","country_name":"Spain","latitude":"43.07106000","longitude":"-8.12163000","wikiDataId":"Q340094"},{"id":38005,"Name":"Vilaxoán","state_id":1167,"state_code":"GA","state_name":"Galicia","country_id":207,"country_code":"ES","country_name":"Spain","latitude":"42.58353000","longitude":"-8.79353000","wikiDataId":"Q340094"},{"id":38388,"Name":"Vimianzo","state_id":1167,"state_code":"GA","state_name":"Galicia","country_id":207,"country_code":"ES","country_name":"Spain","latitude":"43.10988000","longitude":"-9.03351000","wikiDataId":"Q1616162"},{"id":38403,"Name":"Viveiro","state_id":1167,"state_code":"GA","state_name":"Galicia","country_id":207,"country_code":"ES","country_name":"Spain","latitude":"43.66228000","longitude":"-7.59344000","wikiDataId":"Q24014671"},{"id":38422,"Name":"Xinzo de Limia","state_id":1167,"state_code":"GA","state_name":"Galicia","country_id":207,"country_code":"ES","country_name":"Spain","latitude":"42.06350000","longitude":"-7.72459000","wikiDataId":"Q918637"},{"id":38488,"Name":"Zas","state_id":1167,"state_code":"GA","state_name":"Galicia","country_id":207,"country_code":"ES","country_name":"Spain","latitude":"43.09885000","longitude":"-8.91558000","wikiDataId":"Q148174"}]