[{"id":131017,"Name":"Alberton","state_id":936,"state_code":"GP","state_name":"Gauteng","country_id":204,"country_code":"ZA","country_name":"South Africa","latitude":"-26.26786000","longitude":"28.12225000","wikiDataId":"Q1637702"},{"id":131032,"Name":"Benoni","state_id":936,"state_code":"GP","state_name":"Gauteng","country_id":204,"country_code":"ZA","country_name":"South Africa","latitude":"-26.18848000","longitude":"28.32078000","wikiDataId":"Q818106"},{"id":131042,"Name":"Boksburg","state_id":936,"state_code":"GP","state_name":"Gauteng","country_id":204,"country_code":"ZA","country_name":"South Africa","latitude":"-26.21197000","longitude":"28.25958000","wikiDataId":"Q891229"},{"id":131045,"Name":"Brakpan","state_id":936,"state_code":"GP","state_name":"Gauteng","country_id":204,"country_code":"ZA","country_name":"South Africa","latitude":"-26.23656000","longitude":"28.36938000","wikiDataId":"Q897489"},{"id":131051,"Name":"Bronkhorstspruit","state_id":936,"state_code":"GP","state_name":"Gauteng","country_id":204,"country_code":"ZA","country_name":"South Africa","latitude":"-25.81015000","longitude":"28.74248000","wikiDataId":"Q927671"},{"id":131062,"Name":"Carletonville","state_id":936,"state_code":"GP","state_name":"Gauteng","country_id":204,"country_code":"ZA","country_name":"South Africa","latitude":"-26.36094000","longitude":"27.39767000","wikiDataId":"Q536114"},{"id":131066,"Name":"Centurion","state_id":936,"state_code":"GP","state_name":"Gauteng","country_id":204,"country_code":"ZA","country_name":"South Africa","latitude":"-25.85891000","longitude":"28.18577000","wikiDataId":"Q1054450"},{"id":131071,"Name":"City of Johannesburg Metropolitan Municipality","state_id":936,"state_code":"GP","state_name":"Gauteng","country_id":204,"country_code":"ZA","country_name":"South Africa","latitude":"-26.17673000","longitude":"27.96353000","wikiDataId":"Q2346838"},{"id":131072,"Name":"City of Tshwane Metropolitan Municipality","state_id":936,"state_code":"GP","state_name":"Gauteng","country_id":204,"country_code":"ZA","country_name":"South Africa","latitude":"-25.65985000","longitude":"28.44343000","wikiDataId":"Q1094207"},{"id":131079,"Name":"Cullinan","state_id":936,"state_code":"GP","state_name":"Gauteng","country_id":204,"country_code":"ZA","country_name":"South Africa","latitude":"-25.67088000","longitude":"28.52364000","wikiDataId":"Q2450605"},{"id":131085,"Name":"Diepsloot","state_id":936,"state_code":"GP","state_name":"Gauteng","country_id":204,"country_code":"ZA","country_name":"South Africa","latitude":"-25.93312000","longitude":"28.01213000","wikiDataId":"Q1956442"},{"id":131094,"Name":"Eastleigh","state_id":936,"state_code":"GP","state_name":"Gauteng","country_id":204,"country_code":"ZA","country_name":"South Africa","latitude":"-26.12965000","longitude":"28.15541000","wikiDataId":"Q209537"},{"id":131096,"Name":"Eden Glen","state_id":936,"state_code":"GP","state_name":"Gauteng","country_id":204,"country_code":"ZA","country_name":"South Africa","latitude":"-26.13230000","longitude":"28.16859000","wikiDataId":"Q220249"},{"id":131097,"Name":"Eden Glen Ext 60","state_id":936,"state_code":"GP","state_name":"Gauteng","country_id":204,"country_code":"ZA","country_name":"South Africa","latitude":"-26.12593000","longitude":"28.16500000","wikiDataId":"Q220249"},{"id":131098,"Name":"Edenvale","state_id":936,"state_code":"GP","state_name":"Gauteng","country_id":204,"country_code":"ZA","country_name":"South Africa","latitude":"-26.14095000","longitude":"28.15247000","wikiDataId":"Q3643050"},{"id":131100,"Name":"Ekangala","state_id":936,"state_code":"GP","state_name":"Gauteng","country_id":204,"country_code":"ZA","country_name":"South Africa","latitude":"-25.69619000","longitude":"28.74918000","wikiDataId":"Q31913215"},{"id":131101,"Name":"Ekurhuleni Metropolitan Municipality","state_id":936,"state_code":"GP","state_name":"Gauteng","country_id":204,"country_code":"ZA","country_name":"South Africa","latitude":"-26.19890000","longitude":"28.31262000","wikiDataId":"Q326891"},{"id":131125,"Name":"Heidelberg","state_id":936,"state_code":"GP","state_name":"Gauteng","country_id":204,"country_code":"ZA","country_name":"South Africa","latitude":"-26.50476000","longitude":"28.35921000","wikiDataId":"Q1594009"},{"id":131136,"Name":"Johannesburg","state_id":936,"state_code":"GP","state_name":"Gauteng","country_id":204,"country_code":"ZA","country_name":"South Africa","latitude":"-26.20227000","longitude":"28.04363000","wikiDataId":"Q34647"},{"id":131151,"Name":"Krugersdorp","state_id":936,"state_code":"GP","state_name":"Gauteng","country_id":204,"country_code":"ZA","country_name":"South Africa","latitude":"-26.08577000","longitude":"27.77515000","wikiDataId":"Q644506"},{"id":131166,"Name":"Mabopane","state_id":936,"state_code":"GP","state_name":"Gauteng","country_id":204,"country_code":"ZA","country_name":"South Africa","latitude":"-25.49768000","longitude":"28.10065000","wikiDataId":"Q747507"},{"id":131176,"Name":"Midrand","state_id":936,"state_code":"GP","state_name":"Gauteng","country_id":204,"country_code":"ZA","country_name":"South Africa","latitude":"-25.98953000","longitude":"28.12843000","wikiDataId":"Q639518"},{"id":131177,"Name":"Midstream","state_id":936,"state_code":"GP","state_name":"Gauteng","country_id":204,"country_code":"ZA","country_name":"South Africa","latitude":"-25.91849000","longitude":"28.19881000","wikiDataId":"Q639518"},{"id":131179,"Name":"Modderfontein","state_id":936,"state_code":"GP","state_name":"Gauteng","country_id":204,"country_code":"ZA","country_name":"South Africa","latitude":"-26.08909000","longitude":"28.16534000","wikiDataId":"Q6888071"},{"id":131193,"Name":"Muldersdriseloop","state_id":936,"state_code":"GP","state_name":"Gauteng","country_id":204,"country_code":"ZA","country_name":"South Africa","latitude":"-26.03673000","longitude":"27.83798000","wikiDataId":"Q1013531"},{"id":131202,"Name":"Nigel","state_id":936,"state_code":"GP","state_name":"Gauteng","country_id":204,"country_code":"ZA","country_name":"South Africa","latitude":"-26.43138000","longitude":"28.47713000","wikiDataId":"Q1989529"},{"id":131207,"Name":"Orange Farm","state_id":936,"state_code":"GP","state_name":"Gauteng","country_id":204,"country_code":"ZA","country_name":"South Africa","latitude":"-26.48333000","longitude":"27.86667000","wikiDataId":"Q7099614"},{"id":131230,"Name":"Pretoria","state_id":936,"state_code":"GP","state_name":"Gauteng","country_id":204,"country_code":"ZA","country_name":"South Africa","latitude":"-25.74486000","longitude":"28.18783000","wikiDataId":"Q3926"},{"id":131235,"Name":"Randburg","state_id":936,"state_code":"GP","state_name":"Gauteng","country_id":204,"country_code":"ZA","country_name":"South Africa","latitude":"-26.09410000","longitude":"28.00123000","wikiDataId":"Q2296366"},{"id":131236,"Name":"Randfontein","state_id":936,"state_code":"GP","state_name":"Gauteng","country_id":204,"country_code":"ZA","country_name":"South Africa","latitude":"-26.18440000","longitude":"27.70203000","wikiDataId":"Q744437"},{"id":131245,"Name":"Roodepoort","state_id":936,"state_code":"GP","state_name":"Gauteng","country_id":204,"country_code":"ZA","country_name":"South Africa","latitude":"-26.16250000","longitude":"27.87250000","wikiDataId":"Q2166182"},{"id":131253,"Name":"Sedibeng District Municipality","state_id":936,"state_code":"GP","state_name":"Gauteng","country_id":204,"country_code":"ZA","country_name":"South Africa","latitude":"-26.56686000","longitude":"28.18277000","wikiDataId":"Q2038939"},{"id":131260,"Name":"Soweto","state_id":936,"state_code":"GP","state_name":"Gauteng","country_id":204,"country_code":"ZA","country_name":"South Africa","latitude":"-26.26781000","longitude":"27.85849000","wikiDataId":"Q217426"},{"id":131262,"Name":"Springs","state_id":936,"state_code":"GP","state_name":"Gauteng","country_id":204,"country_code":"ZA","country_name":"South Africa","latitude":"-26.25000000","longitude":"28.40000000","wikiDataId":"Q761408"},{"id":131270,"Name":"Tembisa","state_id":936,"state_code":"GP","state_name":"Gauteng","country_id":204,"country_code":"ZA","country_name":"South Africa","latitude":"-25.99636000","longitude":"28.22680000","wikiDataId":"Q1580709"},{"id":131284,"Name":"Vanderbijlpark","state_id":936,"state_code":"GP","state_name":"Gauteng","country_id":204,"country_code":"ZA","country_name":"South Africa","latitude":"-26.71171000","longitude":"27.83795000","wikiDataId":"Q989955"},{"id":131286,"Name":"Vereeniging","state_id":936,"state_code":"GP","state_name":"Gauteng","country_id":204,"country_code":"ZA","country_name":"South Africa","latitude":"-26.67313000","longitude":"27.92615000","wikiDataId":"Q503056"},{"id":131305,"Name":"West Rand District Municipality","state_id":936,"state_code":"GP","state_name":"Gauteng","country_id":204,"country_code":"ZA","country_name":"South Africa","latitude":"-26.24565000","longitude":"27.55538000","wikiDataId":"Q1789890"},{"id":131306,"Name":"Westonaria","state_id":936,"state_code":"GP","state_name":"Gauteng","country_id":204,"country_code":"ZA","country_name":"South Africa","latitude":"-26.31905000","longitude":"27.64860000","wikiDataId":"Q1789890"}]