[{"id":296,"Name":"Akunk’","state_id":2028,"state_code":"GR","state_name":"Gegharkunik Province","country_id":12,"country_code":"AM","country_name":"Armenia","latitude":"40.15886000","longitude":"45.72568000","wikiDataId":"Q590913"},{"id":336,"Name":"Astghadzor","state_id":2028,"state_code":"GR","state_name":"Gegharkunik Province","country_id":12,"country_code":"AM","country_name":"Armenia","latitude":"40.12231000","longitude":"45.35553000","wikiDataId":"Q2636216"},{"id":364,"Name":"Chambarak","state_id":2028,"state_code":"GR","state_name":"Gegharkunik Province","country_id":12,"country_code":"AM","country_name":"Armenia","latitude":"40.59655000","longitude":"45.35498000","wikiDataId":"Q1024822"},{"id":371,"Name":"Ddmashen","state_id":2028,"state_code":"GR","state_name":"Gegharkunik Province","country_id":12,"country_code":"AM","country_name":"Armenia","latitude":"40.57028000","longitude":"44.82295000","wikiDataId":"Q1528594"},{"id":375,"Name":"Drakhtik","state_id":2028,"state_code":"GR","state_name":"Gegharkunik Province","country_id":12,"country_code":"AM","country_name":"Armenia","latitude":"40.56497000","longitude":"45.23670000","wikiDataId":"Q1024548"},{"id":380,"Name":"Dzoragyugh","state_id":2028,"state_code":"GR","state_name":"Gegharkunik Province","country_id":12,"country_code":"AM","country_name":"Armenia","latitude":"40.16957000","longitude":"45.18337000","wikiDataId":"Q2636104"},{"id":384,"Name":"Gagarin","state_id":2028,"state_code":"GR","state_name":"Gegharkunik Province","country_id":12,"country_code":"AM","country_name":"Armenia","latitude":"40.54026000","longitude":"44.86962000","wikiDataId":"Q5516814"},{"id":385,"Name":"Gandzak","state_id":2028,"state_code":"GR","state_name":"Gegharkunik Province","country_id":12,"country_code":"AM","country_name":"Armenia","latitude":"40.31472000","longitude":"45.11139000","wikiDataId":"Q1528536"},{"id":387,"Name":"Gavarr","state_id":2028,"state_code":"GR","state_name":"Gegharkunik Province","country_id":12,"country_code":"AM","country_name":"Armenia","latitude":"40.35398000","longitude":"45.12386000","wikiDataId":"Q39565"},{"id":390,"Name":"Geghamasar","state_id":2028,"state_code":"GR","state_name":"Gegharkunik Province","country_id":12,"country_code":"AM","country_name":"Armenia","latitude":"40.31091000","longitude":"45.67924000","wikiDataId":"Q930125"},{"id":391,"Name":"Geghamavan","state_id":2028,"state_code":"GR","state_name":"Gegharkunik Province","country_id":12,"country_code":"AM","country_name":"Armenia","latitude":"40.56250000","longitude":"44.88892000","wikiDataId":"Q1528439"},{"id":427,"Name":"Karanlukh","state_id":2028,"state_code":"GR","state_name":"Gegharkunik Province","country_id":12,"country_code":"AM","country_name":"Armenia","latitude":"40.10444000","longitude":"45.28972000","wikiDataId":"Q2636125"},{"id":429,"Name":"Karchaghbyur","state_id":2028,"state_code":"GR","state_name":"Gegharkunik Province","country_id":12,"country_code":"AM","country_name":"Armenia","latitude":"40.17048000","longitude":"45.57785000","wikiDataId":"Q549736"},{"id":437,"Name":"Lanjaghbyur","state_id":2028,"state_code":"GR","state_name":"Gegharkunik Province","country_id":12,"country_code":"AM","country_name":"Armenia","latitude":"40.26947000","longitude":"45.14447000","wikiDataId":"Q1528076"},{"id":438,"Name":"Lchap’","state_id":2028,"state_code":"GR","state_name":"Gegharkunik Province","country_id":12,"country_code":"AM","country_name":"Armenia","latitude":"40.45569000","longitude":"45.07507000","wikiDataId":"Q1529772"},{"id":439,"Name":"Lchashen","state_id":2028,"state_code":"GR","state_name":"Gegharkunik Province","country_id":12,"country_code":"AM","country_name":"Armenia","latitude":"40.51947000","longitude":"44.93048000","wikiDataId":"Q1528531"},{"id":446,"Name":"Lichk’","state_id":2028,"state_code":"GR","state_name":"Gegharkunik Province","country_id":12,"country_code":"AM","country_name":"Armenia","latitude":"40.15933000","longitude":"45.23467000","wikiDataId":"Q2636159"},{"id":450,"Name":"Madina","state_id":2028,"state_code":"GR","state_name":"Gegharkunik Province","country_id":12,"country_code":"AM","country_name":"Armenia","latitude":"40.07637000","longitude":"45.25507000","wikiDataId":"Q2392033"},{"id":457,"Name":"Martuni","state_id":2028,"state_code":"GR","state_name":"Gegharkunik Province","country_id":12,"country_code":"AM","country_name":"Armenia","latitude":"40.08333000","longitude":"45.25000000","wikiDataId":"Q39603"},{"id":467,"Name":"Mets Masrik","state_id":2028,"state_code":"GR","state_name":"Gegharkunik Province","country_id":12,"country_code":"AM","country_name":"Armenia","latitude":"40.21948000","longitude":"45.76391000","wikiDataId":"Q2650143"},{"id":481,"Name":"Nerk’in Getashen","state_id":2028,"state_code":"GR","state_name":"Gegharkunik Province","country_id":12,"country_code":"AM","country_name":"Armenia","latitude":"40.14172000","longitude":"45.27087000","wikiDataId":"Q2670399"},{"id":492,"Name":"Noratus","state_id":2028,"state_code":"GR","state_name":"Gegharkunik Province","country_id":12,"country_code":"AM","country_name":"Armenia","latitude":"40.37793000","longitude":"45.18048000","wikiDataId":"Q1528182"},{"id":511,"Name":"Sarukhan","state_id":2028,"state_code":"GR","state_name":"Gegharkunik Province","country_id":12,"country_code":"AM","country_name":"Armenia","latitude":"40.29169000","longitude":"45.13068000","wikiDataId":"Q1528514"},{"id":514,"Name":"Sevan","state_id":2028,"state_code":"GR","state_name":"Gegharkunik Province","country_id":12,"country_code":"AM","country_name":"Armenia","latitude":"40.54730000","longitude":"44.94171000","wikiDataId":"Q39625"},{"id":541,"Name":"Tsovagyugh","state_id":2028,"state_code":"GR","state_name":"Gegharkunik Province","country_id":12,"country_code":"AM","country_name":"Armenia","latitude":"40.63348000","longitude":"44.96112000","wikiDataId":"Q1528222"},{"id":542,"Name":"Tsovak","state_id":2028,"state_code":"GR","state_name":"Gegharkunik Province","country_id":12,"country_code":"AM","country_name":"Armenia","latitude":"40.18254000","longitude":"45.63286000","wikiDataId":"Q2639716"},{"id":543,"Name":"Tsovasar","state_id":2028,"state_code":"GR","state_name":"Gegharkunik Province","country_id":12,"country_code":"AM","country_name":"Armenia","latitude":"40.13820000","longitude":"45.19096000","wikiDataId":"Q2639716"},{"id":544,"Name":"Tsovazard","state_id":2028,"state_code":"GR","state_name":"Gegharkunik Province","country_id":12,"country_code":"AM","country_name":"Armenia","latitude":"40.47510000","longitude":"45.05011000","wikiDataId":"Q1528427"},{"id":545,"Name":"Tsovinar","state_id":2028,"state_code":"GR","state_name":"Gegharkunik Province","country_id":12,"country_code":"AM","country_name":"Armenia","latitude":"40.15959000","longitude":"45.46786000","wikiDataId":"Q2636211"},{"id":550,"Name":"Vaghashen","state_id":2028,"state_code":"GR","state_name":"Gegharkunik Province","country_id":12,"country_code":"AM","country_name":"Armenia","latitude":"40.13611000","longitude":"45.33069000","wikiDataId":"Q2635853"},{"id":552,"Name":"Vahan","state_id":2028,"state_code":"GR","state_name":"Gegharkunik Province","country_id":12,"country_code":"AM","country_name":"Armenia","latitude":"40.57549000","longitude":"45.39769000","wikiDataId":"Q1024185"},{"id":556,"Name":"Vardenik","state_id":2028,"state_code":"GR","state_name":"Gegharkunik Province","country_id":12,"country_code":"AM","country_name":"Armenia","latitude":"40.13348000","longitude":"45.44311000","wikiDataId":"Q2636186"},{"id":557,"Name":"Vardenis","state_id":2028,"state_code":"GR","state_name":"Gegharkunik Province","country_id":12,"country_code":"AM","country_name":"Armenia","latitude":"40.18329000","longitude":"45.73053000","wikiDataId":"Q39542"},{"id":558,"Name":"Varser","state_id":2028,"state_code":"GR","state_name":"Gegharkunik Province","country_id":12,"country_code":"AM","country_name":"Armenia","latitude":"40.55548000","longitude":"44.90832000","wikiDataId":"Q1528210"},{"id":563,"Name":"Verin Getashen","state_id":2028,"state_code":"GR","state_name":"Gegharkunik Province","country_id":12,"country_code":"AM","country_name":"Armenia","latitude":"40.13068000","longitude":"45.25293000","wikiDataId":"Q1121968"},{"id":578,"Name":"Yeranos","state_id":2028,"state_code":"GR","state_name":"Gegharkunik Province","country_id":12,"country_code":"AM","country_name":"Armenia","latitude":"40.20428000","longitude":"45.19209000","wikiDataId":"Q2636149"}]