[{"id":68015,"Name":"Abasolo","state_id":3469,"state_code":"GUA","state_name":"Guanajuato","country_id":142,"country_code":"MX","country_name":"Mexico","latitude":"20.44997000","longitude":"-101.53073000","wikiDataId":"Q2991444"},{"id":68087,"Name":"Acámbaro","state_id":3469,"state_code":"GUA","state_name":"Guanajuato","country_id":142,"country_code":"MX","country_name":"Mexico","latitude":"20.03085000","longitude":"-100.72194000","wikiDataId":"Q947689"},{"id":68088,"Name":"Adjuntas del Río","state_id":3469,"state_code":"GUA","state_name":"Guanajuato","country_id":142,"country_code":"MX","country_name":"Mexico","latitude":"21.11667000","longitude":"-100.86806000","wikiDataId":"Q20205435"},{"id":68125,"Name":"Aguas Buenas","state_id":3469,"state_code":"GUA","state_name":"Guanajuato","country_id":142,"country_code":"MX","country_name":"Mexico","latitude":"20.97028000","longitude":"-101.37250000","wikiDataId":"Q20133038"},{"id":68181,"Name":"Alcocer","state_id":3469,"state_code":"GUA","state_name":"Guanajuato","country_id":142,"country_code":"MX","country_name":"Mexico","latitude":"20.86867000","longitude":"-100.70456000","wikiDataId":"Q20134076"},{"id":68185,"Name":"Aldama","state_id":3469,"state_code":"GUA","state_name":"Guanajuato","country_id":142,"country_code":"MX","country_name":"Mexico","latitude":"20.81641000","longitude":"-101.31467000","wikiDataId":"Q20205452"},{"id":68191,"Name":"Alfaro","state_id":3469,"state_code":"GUA","state_name":"Guanajuato","country_id":142,"country_code":"MX","country_name":"Mexico","latitude":"21.14941000","longitude":"-101.60611000","wikiDataId":"Q27796636"},{"id":68253,"Name":"Ameche","state_id":3469,"state_code":"GUA","state_name":"Guanajuato","country_id":142,"country_code":"MX","country_name":"Mexico","latitude":"20.55261000","longitude":"-100.58367000","wikiDataId":"Q4064121"},{"id":68296,"Name":"Apaseo el Alto","state_id":3469,"state_code":"GUA","state_name":"Guanajuato","country_id":142,"country_code":"MX","country_name":"Mexico","latitude":"20.45798000","longitude":"-100.62081000","wikiDataId":"Q2651599"},{"id":68297,"Name":"Apaseo el Grande","state_id":3469,"state_code":"GUA","state_name":"Guanajuato","country_id":142,"country_code":"MX","country_name":"Mexico","latitude":"20.54495000","longitude":"-100.68462000","wikiDataId":"Q2651604"},{"id":68329,"Name":"Arandas","state_id":3469,"state_code":"GUA","state_name":"Guanajuato","country_id":142,"country_code":"MX","country_name":"Mexico","latitude":"20.72468000","longitude":"-101.37296000","wikiDataId":"Q625719"},{"id":68392,"Name":"Atarjea","state_id":3469,"state_code":"GUA","state_name":"Guanajuato","country_id":142,"country_code":"MX","country_name":"Mexico","latitude":"21.26777000","longitude":"-99.71914000","wikiDataId":"Q2651750"},{"id":68505,"Name":"Bajío de Bonillas","state_id":3469,"state_code":"GUA","state_name":"Guanajuato","country_id":142,"country_code":"MX","country_name":"Mexico","latitude":"20.94944000","longitude":"-101.49528000","wikiDataId":"Q20140376"},{"id":68523,"Name":"Barretos","state_id":3469,"state_code":"GUA","state_name":"Guanajuato","country_id":142,"country_code":"MX","country_name":"Mexico","latitude":"20.93933000","longitude":"-101.64282000","wikiDataId":"Q20141424"},{"id":68543,"Name":"Barrio de Guadalupe del Mezquitillo","state_id":3469,"state_code":"GUA","state_name":"Guanajuato","country_id":142,"country_code":"MX","country_name":"Mexico","latitude":"20.94417000","longitude":"-101.80083000","wikiDataId":"Q20205514"},{"id":68562,"Name":"Barrón","state_id":3469,"state_code":"GUA","state_name":"Guanajuato","country_id":142,"country_code":"MX","country_name":"Mexico","latitude":"20.67667000","longitude":"-101.08423000","wikiDataId":"Q20274769"},{"id":68640,"Name":"Boquillas","state_id":3469,"state_code":"GUA","state_name":"Guanajuato","country_id":142,"country_code":"MX","country_name":"Mexico","latitude":"20.41642000","longitude":"-101.43333000","wikiDataId":"Q8250809"},{"id":68681,"Name":"Buenavista de Cortés","state_id":3469,"state_code":"GUA","state_name":"Guanajuato","country_id":142,"country_code":"MX","country_name":"Mexico","latitude":"20.37326000","longitude":"-101.87021000","wikiDataId":"Q20145986"},{"id":68733,"Name":"Caleras de Ameche","state_id":3469,"state_code":"GUA","state_name":"Guanajuato","country_id":142,"country_code":"MX","country_name":"Mexico","latitude":"20.56133000","longitude":"-100.56013000","wikiDataId":"Q20147578"},{"id":68754,"Name":"Calzada del Tepozán","state_id":3469,"state_code":"GUA","state_name":"Guanajuato","country_id":142,"country_code":"MX","country_name":"Mexico","latitude":"20.73762000","longitude":"-101.88299000","wikiDataId":"Q2656541"},{"id":68874,"Name":"Cañada de Bustos","state_id":3469,"state_code":"GUA","state_name":"Guanajuato","country_id":142,"country_code":"MX","country_name":"Mexico","latitude":"20.90436000","longitude":"-101.31260000","wikiDataId":"Q56605930"},{"id":68875,"Name":"Cañada de Caracheo","state_id":3469,"state_code":"GUA","state_name":"Guanajuato","country_id":142,"country_code":"MX","country_name":"Mexico","latitude":"20.37552000","longitude":"-100.94549000","wikiDataId":"Q20205614"},{"id":68879,"Name":"Cañada de Negros","state_id":3469,"state_code":"GUA","state_name":"Guanajuato","country_id":142,"country_code":"MX","country_name":"Mexico","latitude":"20.92636000","longitude":"-101.92115000","wikiDataId":"Q20205614"},{"id":68813,"Name":"Capulín de Bustos","state_id":3469,"state_code":"GUA","state_name":"Guanajuato","country_id":142,"country_code":"MX","country_name":"Mexico","latitude":"20.88242000","longitude":"-101.30680000","wikiDataId":"Q590948"},{"id":69660,"Name":"Cárdenas","state_id":3469,"state_code":"GUA","state_name":"Guanajuato","country_id":142,"country_code":"MX","country_name":"Mexico","latitude":"20.63012000","longitude":"-101.22040000","wikiDataId":"Q1962471"},{"id":68842,"Name":"Carrizal Grande","state_id":3469,"state_code":"GUA","state_name":"Guanajuato","country_id":142,"country_code":"MX","country_name":"Mexico","latitude":"20.70634000","longitude":"-101.30600000","wikiDataId":"Q3894268"},{"id":68891,"Name":"Celaya","state_id":3469,"state_code":"GUA","state_name":"Guanajuato","country_id":142,"country_code":"MX","country_name":"Mexico","latitude":"20.52353000","longitude":"-100.81570000","wikiDataId":"Q580649"},{"id":68899,"Name":"Centro Familiar la Soledad","state_id":3469,"state_code":"GUA","state_name":"Guanajuato","country_id":142,"country_code":"MX","country_name":"Mexico","latitude":"21.13500000","longitude":"-101.74972000","wikiDataId":"Q20205738"},{"id":68904,"Name":"Cerano","state_id":3469,"state_code":"GUA","state_name":"Guanajuato","country_id":142,"country_code":"MX","country_name":"Mexico","latitude":"20.10877000","longitude":"-101.38710000","wikiDataId":"Q978419"},{"id":68910,"Name":"Cerrito de Gasca","state_id":3469,"state_code":"GUA","state_name":"Guanajuato","country_id":142,"country_code":"MX","country_name":"Mexico","latitude":"20.61829000","longitude":"-101.06200000","wikiDataId":"Q20275367"},{"id":68915,"Name":"Cerritos","state_id":3469,"state_code":"GUA","state_name":"Guanajuato","country_id":142,"country_code":"MX","country_name":"Mexico","latitude":"20.88552000","longitude":"-100.59880000","wikiDataId":"Q20257423"},{"id":68923,"Name":"Cerro Colorado","state_id":3469,"state_code":"GUA","state_name":"Guanajuato","country_id":142,"country_code":"MX","country_name":"Mexico","latitude":"20.40111000","longitude":"-101.32451000","wikiDataId":"Q27772333"},{"id":68928,"Name":"Cerro Gordo","state_id":3469,"state_code":"GUA","state_name":"Guanajuato","country_id":142,"country_code":"MX","country_name":"Mexico","latitude":"20.59294000","longitude":"-101.12684000","wikiDataId":"Q20257879"},{"id":68971,"Name":"Chamácuaro","state_id":3469,"state_code":"GUA","state_name":"Guanajuato","country_id":142,"country_code":"MX","country_name":"Mexico","latitude":"20.10444000","longitude":"-100.82756000","wikiDataId":"Q1061542"},{"id":68997,"Name":"Charco de Pantoja","state_id":3469,"state_code":"GUA","state_name":"Guanajuato","country_id":142,"country_code":"MX","country_name":"Mexico","latitude":"20.38949000","longitude":"-101.35436000","wikiDataId":"Q20220502"},{"id":69029,"Name":"Chichimequillas","state_id":3469,"state_code":"GUA","state_name":"Guanajuato","country_id":142,"country_code":"MX","country_name":"Mexico","latitude":"21.03716000","longitude":"-101.44274000","wikiDataId":"Q2889052"},{"id":69094,"Name":"Chirimoya (Estación Chirimoya)","state_id":3469,"state_code":"GUA","state_name":"Guanajuato","country_id":142,"country_code":"MX","country_name":"Mexico","latitude":"21.59278000","longitude":"-101.09139000","wikiDataId":"Q20205833"},{"id":69124,"Name":"Churipitzeo","state_id":3469,"state_code":"GUA","state_name":"Guanajuato","country_id":142,"country_code":"MX","country_name":"Mexico","latitude":"20.41185000","longitude":"-101.74206000","wikiDataId":"Q10748091"},{"id":69129,"Name":"Cieneguilla","state_id":3469,"state_code":"GUA","state_name":"Guanajuato","country_id":142,"country_code":"MX","country_name":"Mexico","latitude":"21.24833000","longitude":"-100.27389000","wikiDataId":"Q20205838"},{"id":69168,"Name":"Ciudad Manuel Doblado","state_id":3469,"state_code":"GUA","state_name":"Guanajuato","country_id":142,"country_code":"MX","country_name":"Mexico","latitude":"20.72888000","longitude":"-101.95226000","wikiDataId":"Q18671878"},{"id":69205,"Name":"Coachiti","state_id":3469,"state_code":"GUA","state_name":"Guanajuato","country_id":142,"country_code":"MX","country_name":"Mexico","latitude":"20.55944000","longitude":"-100.58944000","wikiDataId":"Q20276075"},{"id":69264,"Name":"Colonia 18 de Marzo","state_id":3469,"state_code":"GUA","state_name":"Guanajuato","country_id":142,"country_code":"MX","country_name":"Mexico","latitude":"20.55556000","longitude":"-101.03556000","wikiDataId":"Q20205861"},{"id":69302,"Name":"Colonia Fraccionamiento el Puente","state_id":3469,"state_code":"GUA","state_name":"Guanajuato","country_id":142,"country_code":"MX","country_name":"Mexico","latitude":"20.52361000","longitude":"-100.89667000","wikiDataId":"Q20129124"},{"id":69304,"Name":"Colonia Francisco Javier Mina","state_id":3469,"state_code":"GUA","state_name":"Guanajuato","country_id":142,"country_code":"MX","country_name":"Mexico","latitude":"20.97944000","longitude":"-101.41639000","wikiDataId":"Q20276342"},{"id":69393,"Name":"Colonia la Calzada (La Olla)","state_id":3469,"state_code":"GUA","state_name":"Guanajuato","country_id":142,"country_code":"MX","country_name":"Mexico","latitude":"20.50278000","longitude":"-100.95889000","wikiDataId":"Q20205905"},{"id":69319,"Name":"Colonia Latinoamericana","state_id":3469,"state_code":"GUA","state_name":"Guanajuato","country_id":142,"country_code":"MX","country_name":"Mexico","latitude":"21.03028000","longitude":"-101.70583000","wikiDataId":"Q20276399"},{"id":69332,"Name":"Colonia Morelos","state_id":3469,"state_code":"GUA","state_name":"Guanajuato","country_id":142,"country_code":"MX","country_name":"Mexico","latitude":"20.36832000","longitude":"-101.89937000","wikiDataId":"Q20130901"},{"id":69336,"Name":"Colonia Morelos de Guadalupe de Rivera","state_id":3469,"state_code":"GUA","state_name":"Guanajuato","country_id":142,"country_code":"MX","country_name":"Mexico","latitude":"20.59556000","longitude":"-101.44833000","wikiDataId":"Q20205923"},{"id":69341,"Name":"Colonia Nuevo México","state_id":3469,"state_code":"GUA","state_name":"Guanajuato","country_id":142,"country_code":"MX","country_name":"Mexico","latitude":"20.98475000","longitude":"-101.48502000","wikiDataId":"Q20209086"},{"id":69345,"Name":"Colonia Padre Hidalgo","state_id":3469,"state_code":"GUA","state_name":"Guanajuato","country_id":142,"country_code":"MX","country_name":"Mexico","latitude":"21.17056000","longitude":"-100.93556000","wikiDataId":"Q20276453"},{"id":69349,"Name":"Colonia Patria Nueva","state_id":3469,"state_code":"GUA","state_name":"Guanajuato","country_id":142,"country_code":"MX","country_name":"Mexico","latitude":"20.52833000","longitude":"-100.87944000","wikiDataId":"Q20205933"},{"id":69350,"Name":"Colonia Pedro María Anaya","state_id":3469,"state_code":"GUA","state_name":"Guanajuato","country_id":142,"country_code":"MX","country_name":"Mexico","latitude":"20.52611000","longitude":"-100.87778000","wikiDataId":"Q20205935"},{"id":69353,"Name":"Colonia Rafael Corrales Ayala","state_id":3469,"state_code":"GUA","state_name":"Guanajuato","country_id":142,"country_code":"MX","country_name":"Mexico","latitude":"20.90194000","longitude":"-101.51611000","wikiDataId":"Q20205937"},{"id":69367,"Name":"Colonia San Luis Rey","state_id":3469,"state_code":"GUA","state_name":"Guanajuato","country_id":142,"country_code":"MX","country_name":"Mexico","latitude":"20.93556000","longitude":"-100.73611000","wikiDataId":"Q20205943"},{"id":69421,"Name":"Comanjilla","state_id":3469,"state_code":"GUA","state_name":"Guanajuato","country_id":142,"country_code":"MX","country_name":"Mexico","latitude":"21.06510000","longitude":"-101.47303000","wikiDataId":"Q20132978"},{"id":69428,"Name":"Comonfort","state_id":3469,"state_code":"GUA","state_name":"Guanajuato","country_id":142,"country_code":"MX","country_name":"Mexico","latitude":"20.72278000","longitude":"-100.75946000","wikiDataId":"Q2651278"},{"id":69482,"Name":"Coroneo","state_id":3469,"state_code":"GUA","state_name":"Guanajuato","country_id":142,"country_code":"MX","country_name":"Mexico","latitude":"20.20001000","longitude":"-100.36546000","wikiDataId":"Q2651332"},{"id":69488,"Name":"Corral de Piedras de Arriba","state_id":3469,"state_code":"GUA","state_name":"Guanajuato","country_id":142,"country_code":"MX","country_name":"Mexico","latitude":"20.97577000","longitude":"-100.59474000","wikiDataId":"Q20134517"},{"id":69490,"Name":"Corralejo de Arriba","state_id":3469,"state_code":"GUA","state_name":"Guanajuato","country_id":142,"country_code":"MX","country_name":"Mexico","latitude":"20.89667000","longitude":"-100.65444000","wikiDataId":"Q20134699"},{"id":69494,"Name":"Cortazar","state_id":3469,"state_code":"GUA","state_name":"Guanajuato","country_id":142,"country_code":"MX","country_name":"Mexico","latitude":"20.48362000","longitude":"-100.96237000","wikiDataId":"Q25425552"},{"id":69565,"Name":"Cuarta Brigada","state_id":3469,"state_code":"GUA","state_name":"Guanajuato","country_id":142,"country_code":"MX","country_name":"Mexico","latitude":"20.62194000","longitude":"-101.28001000","wikiDataId":"Q20205980"},{"id":69605,"Name":"Cuchicuato","state_id":3469,"state_code":"GUA","state_name":"Guanajuato","country_id":142,"country_code":"MX","country_name":"Mexico","latitude":"20.66092000","longitude":"-101.46203000","wikiDataId":"Q20205992"},{"id":69616,"Name":"Cuerámaro","state_id":3469,"state_code":"GUA","state_name":"Guanajuato","country_id":142,"country_code":"MX","country_name":"Mexico","latitude":"20.62546000","longitude":"-101.67242000","wikiDataId":"Q2651369"},{"id":69620,"Name":"Cuesta de Peñones","state_id":3469,"state_code":"GUA","state_name":"Guanajuato","country_id":142,"country_code":"MX","country_name":"Mexico","latitude":"21.08400000","longitude":"-100.23671000","wikiDataId":"Q20137970"},{"id":69642,"Name":"Cupareo","state_id":3469,"state_code":"GUA","state_name":"Guanajuato","country_id":142,"country_code":"MX","country_name":"Mexico","latitude":"20.22876000","longitude":"-101.01806000","wikiDataId":"Q5194433"},{"id":69670,"Name":"De Parral","state_id":3469,"state_code":"GUA","state_name":"Guanajuato","country_id":142,"country_code":"MX","country_name":"Mexico","latitude":"20.45611000","longitude":"-101.00778000","wikiDataId":"Q20138703"},{"id":69674,"Name":"Delgado de Abajo","state_id":3469,"state_code":"GUA","state_name":"Guanajuato","country_id":142,"country_code":"MX","country_name":"Mexico","latitude":"20.71749000","longitude":"-100.89338000","wikiDataId":"Q20269102"},{"id":69675,"Name":"Delgado de Arriba","state_id":3469,"state_code":"GUA","state_name":"Guanajuato","country_id":142,"country_code":"MX","country_name":"Mexico","latitude":"20.72222000","longitude":"-100.90080000","wikiDataId":"Q20269102"},{"id":69680,"Name":"Derramadero Segundo (Infiernillo)","state_id":3469,"state_code":"GUA","state_name":"Guanajuato","country_id":142,"country_code":"MX","country_name":"Mexico","latitude":"21.09750000","longitude":"-100.51417000","wikiDataId":"Q20276863"},{"id":69699,"Name":"Doctor Mora","state_id":3469,"state_code":"GUA","state_name":"Guanajuato","country_id":142,"country_code":"MX","country_name":"Mexico","latitude":"21.14246000","longitude":"-100.31966000","wikiDataId":"Q2448224"},{"id":69706,"Name":"Dolores Hidalgo Cuna de la Independencia Nacional","state_id":3469,"state_code":"GUA","state_name":"Guanajuato","country_id":142,"country_code":"MX","country_name":"Mexico","latitude":"21.15611000","longitude":"-100.93250000","wikiDataId":"Q17487868"},{"id":69710,"Name":"Don Diego","state_id":3469,"state_code":"GUA","state_name":"Guanajuato","country_id":142,"country_code":"MX","country_name":"Mexico","latitude":"20.69791000","longitude":"-100.90209000","wikiDataId":"Q20139549"},{"id":69711,"Name":"Don Francisco","state_id":3469,"state_code":"GUA","state_name":"Guanajuato","country_id":142,"country_code":"MX","country_name":"Mexico","latitude":"20.90281000","longitude":"-100.91873000","wikiDataId":"Q20139549"},{"id":69730,"Name":"Duarte","state_id":3469,"state_code":"GUA","state_name":"Guanajuato","country_id":142,"country_code":"MX","country_name":"Mexico","latitude":"21.08712000","longitude":"-101.52431000","wikiDataId":"Q20206023"},{"id":69769,"Name":"Ejido Jesús María","state_id":3469,"state_code":"GUA","state_name":"Guanajuato","country_id":142,"country_code":"MX","country_name":"Mexico","latitude":"21.14194000","longitude":"-100.91167000","wikiDataId":"Q20141362"},{"id":69814,"Name":"Ejido la Joya","state_id":3469,"state_code":"GUA","state_name":"Guanajuato","country_id":142,"country_code":"MX","country_name":"Mexico","latitude":"21.14325000","longitude":"-101.73922000","wikiDataId":"Q20141412"},{"id":69823,"Name":"El Acebuche","state_id":3469,"state_code":"GUA","state_name":"Guanajuato","country_id":142,"country_code":"MX","country_name":"Mexico","latitude":"20.22311000","longitude":"-100.74196000","wikiDataId":"Q1144317"},{"id":69860,"Name":"El Canario","state_id":3469,"state_code":"GUA","state_name":"Guanajuato","country_id":142,"country_code":"MX","country_name":"Mexico","latitude":"20.15694000","longitude":"-101.33556000","wikiDataId":"Q20147644"},{"id":69865,"Name":"El Capulín","state_id":3469,"state_code":"GUA","state_name":"Guanajuato","country_id":142,"country_code":"MX","country_name":"Mexico","latitude":"21.04043000","longitude":"-100.32220000","wikiDataId":"Q50012184"},{"id":69868,"Name":"El Caracol","state_id":3469,"state_code":"GUA","state_name":"Guanajuato","country_id":142,"country_code":"MX","country_name":"Mexico","latitude":"20.56718000","longitude":"-100.98290000","wikiDataId":"Q20262807"},{"id":69872,"Name":"El Carmen","state_id":3469,"state_code":"GUA","state_name":"Guanajuato","country_id":142,"country_code":"MX","country_name":"Mexico","latitude":"20.64009000","longitude":"-101.37259000","wikiDataId":"Q20262807"},{"id":69880,"Name":"El Carretón","state_id":3469,"state_code":"GUA","state_name":"Guanajuato","country_id":142,"country_code":"MX","country_name":"Mexico","latitude":"21.63045000","longitude":"-100.98064000","wikiDataId":"Q20277649"},{"id":69883,"Name":"El Carrizalito","state_id":3469,"state_code":"GUA","state_name":"Guanajuato","country_id":142,"country_code":"MX","country_name":"Mexico","latitude":"20.70371000","longitude":"-101.32439000","wikiDataId":"Q27767960"},{"id":69887,"Name":"El Castillo","state_id":3469,"state_code":"GUA","state_name":"Guanajuato","country_id":142,"country_code":"MX","country_name":"Mexico","latitude":"20.58072000","longitude":"-100.49297000","wikiDataId":"Q20222798"},{"id":69852,"Name":"El CERESO","state_id":3469,"state_code":"GUA","state_name":"Guanajuato","country_id":142,"country_code":"MX","country_name":"Mexico","latitude":"21.02222000","longitude":"-101.68917000","wikiDataId":"Q20277795"},{"id":69901,"Name":"El Chinaco (El Pujido)","state_id":3469,"state_code":"GUA","state_name":"Guanajuato","country_id":142,"country_code":"MX","country_name":"Mexico","latitude":"20.52222000","longitude":"-100.91972000","wikiDataId":"Q20206225"},{"id":69909,"Name":"El Coecillo","state_id":3469,"state_code":"GUA","state_name":"Guanajuato","country_id":142,"country_code":"MX","country_name":"Mexico","latitude":"20.97651000","longitude":"-101.45010000","wikiDataId":"Q20206482"},{"id":69925,"Name":"El Copalillo","state_id":3469,"state_code":"GUA","state_name":"Guanajuato","country_id":142,"country_code":"MX","country_name":"Mexico","latitude":"20.72745000","longitude":"-101.34570000","wikiDataId":"Q20278187"},{"id":69944,"Name":"El Divisador","state_id":3469,"state_code":"GUA","state_name":"Guanajuato","country_id":142,"country_code":"MX","country_name":"Mexico","latitude":"20.57722000","longitude":"-101.15806000","wikiDataId":"Q20206330"},{"id":69957,"Name":"El Escoplo","state_id":3469,"state_code":"GUA","state_name":"Guanajuato","country_id":142,"country_code":"MX","country_name":"Mexico","latitude":"20.91004000","longitude":"-101.51127000","wikiDataId":"Q20238057"},{"id":69959,"Name":"El Espejo","state_id":3469,"state_code":"GUA","state_name":"Guanajuato","country_id":142,"country_code":"MX","country_name":"Mexico","latitude":"20.44094000","longitude":"-100.55417000","wikiDataId":"Q20227835"},{"id":69968,"Name":"El Fresno","state_id":3469,"state_code":"GUA","state_name":"Guanajuato","country_id":142,"country_code":"MX","country_name":"Mexico","latitude":"20.27322000","longitude":"-100.49154000","wikiDataId":"Q20206608"},{"id":69975,"Name":"El Gallinero","state_id":3469,"state_code":"GUA","state_name":"Guanajuato","country_id":142,"country_code":"MX","country_name":"Mexico","latitude":"21.18208000","longitude":"-100.95996000","wikiDataId":"Q1324181"},{"id":69992,"Name":"El Huizache","state_id":3469,"state_code":"GUA","state_name":"Guanajuato","country_id":142,"country_code":"MX","country_name":"Mexico","latitude":"20.41934000","longitude":"-100.95978000","wikiDataId":"Q5822143"},{"id":69997,"Name":"El Jaguey","state_id":3469,"state_code":"GUA","state_name":"Guanajuato","country_id":142,"country_code":"MX","country_name":"Mexico","latitude":"20.91499000","longitude":"-101.63426000","wikiDataId":"Q20238098"},{"id":70020,"Name":"El Llanito","state_id":3469,"state_code":"GUA","state_name":"Guanajuato","country_id":142,"country_code":"MX","country_name":"Mexico","latitude":"21.12143000","longitude":"-100.95110000","wikiDataId":"Q20223530"},{"id":70029,"Name":"El Maguey","state_id":3469,"state_code":"GUA","state_name":"Guanajuato","country_id":142,"country_code":"MX","country_name":"Mexico","latitude":"20.98035000","longitude":"-101.84651000","wikiDataId":"Q20238120"},{"id":70036,"Name":"El Mezquitillo","state_id":3469,"state_code":"GUA","state_name":"Guanajuato","country_id":142,"country_code":"MX","country_name":"Mexico","latitude":"20.96213000","longitude":"-101.80857000","wikiDataId":"Q20206792"},{"id":70049,"Name":"El Moral","state_id":3469,"state_code":"GUA","state_name":"Guanajuato","country_id":142,"country_code":"MX","country_name":"Mexico","latitude":"20.13030000","longitude":"-101.28862000","wikiDataId":"Q20223726"},{"id":70053,"Name":"El Nacimiento","state_id":3469,"state_code":"GUA","state_name":"Guanajuato","country_id":142,"country_code":"MX","country_name":"Mexico","latitude":"20.53596000","longitude":"-100.61017000","wikiDataId":"Q20246282"},{"id":70054,"Name":"El Naranjillo","state_id":3469,"state_code":"GUA","state_name":"Guanajuato","country_id":142,"country_code":"MX","country_name":"Mexico","latitude":"20.71417000","longitude":"-101.00056000","wikiDataId":"Q20206594"},{"id":70102,"Name":"El Picacho","state_id":3469,"state_code":"GUA","state_name":"Guanajuato","country_id":142,"country_code":"MX","country_name":"Mexico","latitude":"20.71016000","longitude":"-100.63704000","wikiDataId":"Q4359610"},{"id":70141,"Name":"El Puesto","state_id":3469,"state_code":"GUA","state_name":"Guanajuato","country_id":142,"country_code":"MX","country_name":"Mexico","latitude":"20.46890000","longitude":"-100.82763000","wikiDataId":"Q20224156"},{"id":70149,"Name":"El Recuerdo de Ancón (Xoconoxtle de Arriba)","state_id":3469,"state_code":"GUA","state_name":"Guanajuato","country_id":142,"country_code":"MX","country_name":"Mexico","latitude":"20.63806000","longitude":"-101.12694000","wikiDataId":"Q20206785"},{"id":70156,"Name":"El Refugio de los Sauces","state_id":3469,"state_code":"GUA","state_name":"Guanajuato","country_id":142,"country_code":"MX","country_name":"Mexico","latitude":"21.01488000","longitude":"-101.53084000","wikiDataId":"Q20280633"},{"id":70181,"Name":"El Sabino","state_id":3469,"state_code":"GUA","state_name":"Guanajuato","country_id":142,"country_code":"MX","country_name":"Mexico","latitude":"20.28131000","longitude":"-101.00224000","wikiDataId":"Q1858643"},{"id":70192,"Name":"El Salto de Espejo","state_id":3469,"state_code":"GUA","state_name":"Guanajuato","country_id":142,"country_code":"MX","country_name":"Mexico","latitude":"20.45045000","longitude":"-100.50587000","wikiDataId":"Q20206883"},{"id":70195,"Name":"El Salvador (Ranchito San José del Carmen)","state_id":3469,"state_code":"GUA","state_name":"Guanajuato","country_id":142,"country_code":"MX","country_name":"Mexico","latitude":"20.28750000","longitude":"-100.87722000","wikiDataId":"Q20206889"},{"id":70201,"Name":"El Sauz (El Sauz de Villaseñor)","state_id":3469,"state_code":"GUA","state_name":"Guanajuato","country_id":142,"country_code":"MX","country_name":"Mexico","latitude":"20.41056000","longitude":"-100.79667000","wikiDataId":"Q20206915"},{"id":70212,"Name":"El Tecolote","state_id":3469,"state_code":"GUA","state_name":"Guanajuato","country_id":142,"country_code":"MX","country_name":"Mexico","latitude":"20.88407000","longitude":"-101.92432000","wikiDataId":"Q20207142"},{"id":70216,"Name":"El Tejocote (El Domingo)","state_id":3469,"state_code":"GUA","state_name":"Guanajuato","country_id":142,"country_code":"MX","country_name":"Mexico","latitude":"21.67611000","longitude":"-100.91500000","wikiDataId":"Q20257968"},{"id":70245,"Name":"El Tunal","state_id":3469,"state_code":"GUA","state_name":"Guanajuato","country_id":142,"country_code":"MX","country_name":"Mexico","latitude":"20.56944000","longitude":"-100.61995000","wikiDataId":"Q2990973"},{"id":70248,"Name":"El Varal","state_id":3469,"state_code":"GUA","state_name":"Guanajuato","country_id":142,"country_code":"MX","country_name":"Mexico","latitude":"20.34845000","longitude":"-101.60028000","wikiDataId":"Q20130874"},{"id":70257,"Name":"El Vicarlo","state_id":3469,"state_code":"GUA","state_name":"Guanajuato","country_id":142,"country_code":"MX","country_name":"Mexico","latitude":"20.58211000","longitude":"-100.67120000","wikiDataId":"Q20219114"},{"id":70261,"Name":"El Zapote","state_id":3469,"state_code":"GUA","state_name":"Guanajuato","country_id":142,"country_code":"MX","country_name":"Mexico","latitude":"21.73563000","longitude":"-101.04905000","wikiDataId":"Q20219114"},{"id":70299,"Name":"Empalme Escobedo","state_id":3469,"state_code":"GUA","state_name":"Guanajuato","country_id":142,"country_code":"MX","country_name":"Mexico","latitude":"20.67250000","longitude":"-100.74675000","wikiDataId":"Q20207060"},{"id":70341,"Name":"Estación Corralejo","state_id":3469,"state_code":"GUA","state_name":"Guanajuato","country_id":142,"country_code":"MX","country_name":"Mexico","latitude":"20.47000000","longitude":"-101.61639000","wikiDataId":"Q20281645"},{"id":70360,"Name":"Estación de San Francisco","state_id":3469,"state_code":"GUA","state_name":"Guanajuato","country_id":142,"country_code":"MX","country_name":"Mexico","latitude":"21.03722000","longitude":"-101.82472000","wikiDataId":"Q20135887"},{"id":70344,"Name":"Estación Joaquín","state_id":3469,"state_code":"GUA","state_name":"Guanajuato","country_id":142,"country_code":"MX","country_name":"Mexico","latitude":"20.56082000","longitude":"-101.51993000","wikiDataId":"Q20135893"},{"id":70361,"Name":"Estación la Piedad","state_id":3469,"state_code":"GUA","state_name":"Guanajuato","country_id":142,"country_code":"MX","country_name":"Mexico","latitude":"20.36750000","longitude":"-101.99806000","wikiDataId":"Q20207085"},{"id":70350,"Name":"Estación Pénjamo","state_id":3469,"state_code":"GUA","state_name":"Guanajuato","country_id":142,"country_code":"MX","country_name":"Mexico","latitude":"20.39470000","longitude":"-101.69188000","wikiDataId":"Q20259332"},{"id":70364,"Name":"Estancia del Llano","state_id":3469,"state_code":"GUA","state_name":"Guanajuato","country_id":142,"country_code":"MX","country_name":"Mexico","latitude":"20.51101000","longitude":"-100.72637000","wikiDataId":"Q20207085"},{"id":70367,"Name":"Estanzuela de Romero","state_id":3469,"state_code":"GUA","state_name":"Guanajuato","country_id":142,"country_code":"MX","country_name":"Mexico","latitude":"20.18477000","longitude":"-100.50448000","wikiDataId":"Q20259160"},{"id":70372,"Name":"Estrada","state_id":3469,"state_code":"GUA","state_name":"Guanajuato","country_id":142,"country_code":"MX","country_name":"Mexico","latitude":"20.52918000","longitude":"-100.86550000","wikiDataId":"Q27798278"},{"id":70384,"Name":"Ex-Hacienda del Copal","state_id":3469,"state_code":"GUA","state_name":"Guanajuato","country_id":142,"country_code":"MX","country_name":"Mexico","latitude":"20.74083000","longitude":"-101.33528000","wikiDataId":"Q20207099"},{"id":70499,"Name":"Fábrica de Melchor","state_id":3469,"state_code":"GUA","state_name":"Guanajuato","country_id":142,"country_code":"MX","country_name":"Mexico","latitude":"21.67223000","longitude":"-100.90171000","wikiDataId":"Q2445418"},{"id":70451,"Name":"Fraccionamiento la Mezquitera","state_id":3469,"state_code":"GUA","state_name":"Guanajuato","country_id":142,"country_code":"MX","country_name":"Mexico","latitude":"21.00972000","longitude":"-101.83472000","wikiDataId":"Q20207165"},{"id":70456,"Name":"Fraccionamiento las Liebres","state_id":3469,"state_code":"GUA","state_name":"Guanajuato","country_id":142,"country_code":"MX","country_name":"Mexico","latitude":"20.64750000","longitude":"-101.39556000","wikiDataId":"Q20139111"},{"id":70431,"Name":"Fraccionamiento Paraíso Real","state_id":3469,"state_code":"GUA","state_name":"Guanajuato","country_id":142,"country_code":"MX","country_name":"Mexico","latitude":"21.11250000","longitude":"-101.58083000","wikiDataId":"Q20282101"},{"id":70432,"Name":"Fraccionamiento Paseo de las Torres","state_id":3469,"state_code":"GUA","state_name":"Guanajuato","country_id":142,"country_code":"MX","country_name":"Mexico","latitude":"21.16833000","longitude":"-101.75806000","wikiDataId":"Q20207178"},{"id":70433,"Name":"Fraccionamiento Praderas de la Venta","state_id":3469,"state_code":"GUA","state_name":"Guanajuato","country_id":142,"country_code":"MX","country_name":"Mexico","latitude":"20.53611000","longitude":"-101.00000000","wikiDataId":"Q20207180"},{"id":70445,"Name":"Fraccionamiento Villa Jardín","state_id":3469,"state_code":"GUA","state_name":"Guanajuato","country_id":142,"country_code":"MX","country_name":"Mexico","latitude":"20.99167000","longitude":"-101.85194000","wikiDataId":"Q20139433"},{"id":70446,"Name":"Fraccionamiento Villas de Guanajuato","state_id":3469,"state_code":"GUA","state_name":"Guanajuato","country_id":142,"country_code":"MX","country_name":"Mexico","latitude":"20.96028000","longitude":"-101.29806000","wikiDataId":"Q20207186"},{"id":70485,"Name":"Franco","state_id":3469,"state_code":"GUA","state_name":"Guanajuato","country_id":142,"country_code":"MX","country_name":"Mexico","latitude":"20.94327000","longitude":"-101.46180000","wikiDataId":"Q5484072"},{"id":70486,"Name":"Franco Tavera","state_id":3469,"state_code":"GUA","state_name":"Guanajuato","country_id":142,"country_code":"MX","country_name":"Mexico","latitude":"20.60595000","longitude":"-100.92700000","wikiDataId":"Q20140081"},{"id":70495,"Name":"Frías","state_id":3469,"state_code":"GUA","state_name":"Guanajuato","country_id":142,"country_code":"MX","country_name":"Mexico","latitude":"20.79945000","longitude":"-101.99644000","wikiDataId":"Q1470224"},{"id":70505,"Name":"Gachupines","state_id":3469,"state_code":"GUA","state_name":"Guanajuato","country_id":142,"country_code":"MX","country_name":"Mexico","latitude":"21.76259000","longitude":"-101.56247000","wikiDataId":"Q20282296"},{"id":70513,"Name":"Galerade Panales","state_id":3469,"state_code":"GUA","state_name":"Guanajuato","country_id":142,"country_code":"MX","country_name":"Mexico","latitude":"20.29452000","longitude":"-100.81452000","wikiDataId":"Q2990972"},{"id":70521,"Name":"Gasca","state_id":3469,"state_code":"GUA","state_name":"Guanajuato","country_id":142,"country_code":"MX","country_name":"Mexico","latitude":"20.60444000","longitude":"-100.85639000","wikiDataId":"Q20140711"},{"id":70522,"Name":"Gavia de Rionda","state_id":3469,"state_code":"GUA","state_name":"Guanajuato","country_id":142,"country_code":"MX","country_name":"Mexico","latitude":"20.83357000","longitude":"-101.61647000","wikiDataId":"Q20140711"},{"id":70574,"Name":"Guadalupe","state_id":3469,"state_code":"GUA","state_name":"Guanajuato","country_id":142,"country_code":"MX","country_name":"Mexico","latitude":"21.71644000","longitude":"-100.97645000","wikiDataId":"Q938835"},{"id":70609,"Name":"Guadalupe de Paso Blanco","state_id":3469,"state_code":"GUA","state_name":"Guanajuato","country_id":142,"country_code":"MX","country_name":"Mexico","latitude":"20.75498000","longitude":"-101.40345000","wikiDataId":"Q20143066"},{"id":70610,"Name":"Guadalupe de Rivera","state_id":3469,"state_code":"GUA","state_name":"Guanajuato","country_id":142,"country_code":"MX","country_name":"Mexico","latitude":"20.60499000","longitude":"-101.46745000","wikiDataId":"Q20143066"},{"id":70611,"Name":"Guadalupe de Tambula","state_id":3469,"state_code":"GUA","state_name":"Guanajuato","country_id":142,"country_code":"MX","country_name":"Mexico","latitude":"20.86645000","longitude":"-100.57620000","wikiDataId":"Q20143066"},{"id":70612,"Name":"Guadalupe del Monte","state_id":3469,"state_code":"GUA","state_name":"Guanajuato","country_id":142,"country_code":"MX","country_name":"Mexico","latitude":"20.55688000","longitude":"-100.64064000","wikiDataId":"Q20143066"},{"id":70618,"Name":"Guanajuato","state_id":3469,"state_code":"GUA","state_name":"Guanajuato","country_id":142,"country_code":"MX","country_name":"Mexico","latitude":"21.01858000","longitude":"-101.25910000","wikiDataId":"Q61306"},{"id":70650,"Name":"Hacienda Arriba","state_id":3469,"state_code":"GUA","state_name":"Guanajuato","country_id":142,"country_code":"MX","country_name":"Mexico","latitude":"21.23366000","longitude":"-101.70393000","wikiDataId":"Q20227981"},{"id":70659,"Name":"Hacienda de la Bolsa","state_id":3469,"state_code":"GUA","state_name":"Guanajuato","country_id":142,"country_code":"MX","country_name":"Mexico","latitude":"20.37524000","longitude":"-101.10425000","wikiDataId":"Q20207402"},{"id":70658,"Name":"Hacienda de Márquez","state_id":3469,"state_code":"GUA","state_name":"Guanajuato","country_id":142,"country_code":"MX","country_name":"Mexico","latitude":"20.78037000","longitude":"-101.35979000","wikiDataId":"Q20207402"},{"id":70712,"Name":"Hoya de Cintora (La Hoya de Arriba)","state_id":3469,"state_code":"GUA","state_name":"Guanajuato","country_id":142,"country_code":"MX","country_name":"Mexico","latitude":"20.36444000","longitude":"-101.20833000","wikiDataId":"Q20207417"},{"id":70734,"Name":"Huanímaro","state_id":3469,"state_code":"GUA","state_name":"Guanajuato","country_id":142,"country_code":"MX","country_name":"Mexico","latitude":"20.36783000","longitude":"-101.49869000","wikiDataId":"Q2651183"},{"id":70803,"Name":"Huitzatarito","state_id":3469,"state_code":"GUA","state_name":"Guanajuato","country_id":142,"country_code":"MX","country_name":"Mexico","latitude":"20.49213000","longitude":"-101.57064000","wikiDataId":"Q27769233"},{"id":70832,"Name":"Ibarrilla","state_id":3469,"state_code":"GUA","state_name":"Guanajuato","country_id":142,"country_code":"MX","country_name":"Mexico","latitude":"21.18664000","longitude":"-101.64576000","wikiDataId":"Q20283240"},{"id":70880,"Name":"Irámuco","state_id":3469,"state_code":"GUA","state_name":"Guanajuato","country_id":142,"country_code":"MX","country_name":"Mexico","latitude":"19.96156000","longitude":"-100.92202000","wikiDataId":"Q11019532"},{"id":70876,"Name":"Irapuato","state_id":3469,"state_code":"GUA","state_name":"Guanajuato","country_id":142,"country_code":"MX","country_name":"Mexico","latitude":"20.67675000","longitude":"-101.35628000","wikiDataId":"Q816845"},{"id":70982,"Name":"Jalpilla","state_id":3469,"state_code":"GUA","state_name":"Guanajuato","country_id":142,"country_code":"MX","country_name":"Mexico","latitude":"20.73129000","longitude":"-100.72090000","wikiDataId":"Q6126975"},{"id":70995,"Name":"Jamaica","state_id":3469,"state_code":"GUA","state_name":"Guanajuato","country_id":142,"country_code":"MX","country_name":"Mexico","latitude":"21.14364000","longitude":"-100.73430000","wikiDataId":"Q20210485"},{"id":71004,"Name":"Jaral del Progreso","state_id":3469,"state_code":"GUA","state_name":"Guanajuato","country_id":142,"country_code":"MX","country_name":"Mexico","latitude":"20.37237000","longitude":"-101.06249000","wikiDataId":"Q2651205"},{"id":71013,"Name":"Jauregui","state_id":3469,"state_code":"GUA","state_name":"Guanajuato","country_id":142,"country_code":"MX","country_name":"Mexico","latitude":"20.59280000","longitude":"-100.71940000","wikiDataId":"Q20148773"},{"id":71021,"Name":"Jerécuaro","state_id":3469,"state_code":"GUA","state_name":"Guanajuato","country_id":142,"country_code":"MX","country_name":"Mexico","latitude":"20.15467000","longitude":"-100.50860000","wikiDataId":"Q2651217"},{"id":71038,"Name":"Jesús del Monte","state_id":3469,"state_code":"GUA","state_name":"Guanajuato","country_id":142,"country_code":"MX","country_name":"Mexico","latitude":"20.91504000","longitude":"-101.74129000","wikiDataId":"Q20149010"},{"id":71149,"Name":"Jícamas","state_id":3469,"state_code":"GUA","state_name":"Guanajuato","country_id":142,"country_code":"MX","country_name":"Mexico","latitude":"20.27602000","longitude":"-101.35916000","wikiDataId":"Q20230341"},{"id":71066,"Name":"Jocoqui","state_id":3469,"state_code":"GUA","state_name":"Guanajuato","country_id":142,"country_code":"MX","country_name":"Mexico","latitude":"20.58201000","longitude":"-100.69870000","wikiDataId":"Q20284346"},{"id":71123,"Name":"Juan Martín","state_id":3469,"state_code":"GUA","state_name":"Guanajuato","country_id":142,"country_code":"MX","country_name":"Mexico","latitude":"20.47301000","longitude":"-100.74691000","wikiDataId":"Q20269406"},{"id":71144,"Name":"Juventino Rosas","state_id":3469,"state_code":"GUA","state_name":"Guanajuato","country_id":142,"country_code":"MX","country_name":"Mexico","latitude":"20.64337000","longitude":"-100.99286000","wikiDataId":"Q20207490"},{"id":71170,"Name":"La Aldea","state_id":3469,"state_code":"GUA","state_name":"Guanajuato","country_id":142,"country_code":"MX","country_name":"Mexico","latitude":"20.90166000","longitude":"-101.47852000","wikiDataId":"Q20285593"},{"id":71174,"Name":"La Angostura","state_id":3469,"state_code":"GUA","state_name":"Guanajuato","country_id":142,"country_code":"MX","country_name":"Mexico","latitude":"20.27733000","longitude":"-101.11005000","wikiDataId":"Q20285739"},{"id":71178,"Name":"La Aurora","state_id":3469,"state_code":"GUA","state_name":"Guanajuato","country_id":142,"country_code":"MX","country_name":"Mexico","latitude":"20.62667000","longitude":"-100.75750000","wikiDataId":"Q20285931"},{"id":71189,"Name":"La Caja","state_id":3469,"state_code":"GUA","state_name":"Guanajuato","country_id":142,"country_code":"MX","country_name":"Mexico","latitude":"20.71146000","longitude":"-101.43769000","wikiDataId":"Q20286483"},{"id":71190,"Name":"La Calera","state_id":3469,"state_code":"GUA","state_name":"Guanajuato","country_id":142,"country_code":"MX","country_name":"Mexico","latitude":"20.80119000","longitude":"-101.33207000","wikiDataId":"Q20207583"},{"id":71203,"Name":"La Capilla","state_id":3469,"state_code":"GUA","state_name":"Guanajuato","country_id":142,"country_code":"MX","country_name":"Mexico","latitude":"20.55655000","longitude":"-101.30019000","wikiDataId":"Q20207631"},{"id":71216,"Name":"La Ciénega","state_id":3469,"state_code":"GUA","state_name":"Guanajuato","country_id":142,"country_code":"MX","country_name":"Mexico","latitude":"21.30050000","longitude":"-100.48027000","wikiDataId":"Q20219425"},{"id":71214,"Name":"La Cieneguita","state_id":3469,"state_code":"GUA","state_name":"Guanajuato","country_id":142,"country_code":"MX","country_name":"Mexico","latitude":"20.94630000","longitude":"-100.78966000","wikiDataId":"Q20264429"},{"id":71224,"Name":"La Compañía","state_id":3469,"state_code":"GUA","state_name":"Guanajuato","country_id":142,"country_code":"MX","country_name":"Mexico","latitude":"20.37760000","longitude":"-101.15852000","wikiDataId":"Q1798725"},{"id":71251,"Name":"La Cruz","state_id":3469,"state_code":"GUA","state_name":"Guanajuato","country_id":142,"country_code":"MX","country_name":"Mexico","latitude":"20.45694000","longitude":"-100.79583000","wikiDataId":"Q20207715"},{"id":71252,"Name":"La Cruz del Palmar","state_id":3469,"state_code":"GUA","state_name":"Guanajuato","country_id":142,"country_code":"MX","country_name":"Mexico","latitude":"20.96973000","longitude":"-100.84354000","wikiDataId":"Q20207715"},{"id":71255,"Name":"La Cuevita","state_id":3469,"state_code":"GUA","state_name":"Guanajuato","country_id":142,"country_code":"MX","country_name":"Mexico","latitude":"20.33872000","longitude":"-100.57891000","wikiDataId":"Q20269663"},{"id":71262,"Name":"La Ermita","state_id":3469,"state_code":"GUA","state_name":"Guanajuato","country_id":142,"country_code":"MX","country_name":"Mexico","latitude":"21.15194000","longitude":"-101.73306000","wikiDataId":"Q20207750"},{"id":71266,"Name":"La Escondida","state_id":3469,"state_code":"GUA","state_name":"Guanajuato","country_id":142,"country_code":"MX","country_name":"Mexico","latitude":"21.68723000","longitude":"-101.53446000","wikiDataId":"Q20228063"},{"id":71285,"Name":"La Estancia de San José del Carmen","state_id":3469,"state_code":"GUA","state_name":"Guanajuato","country_id":142,"country_code":"MX","country_name":"Mexico","latitude":"20.29555000","longitude":"-100.86083000","wikiDataId":"Q20289643"},{"id":71288,"Name":"La Estrella","state_id":3469,"state_code":"GUA","state_name":"Guanajuato","country_id":142,"country_code":"MX","country_name":"Mexico","latitude":"20.39050000","longitude":"-101.92109000","wikiDataId":"Q20289643"},{"id":71299,"Name":"La Gavia","state_id":3469,"state_code":"GUA","state_name":"Guanajuato","country_id":142,"country_code":"MX","country_name":"Mexico","latitude":"20.39431000","longitude":"-100.88122000","wikiDataId":"Q15241114"},{"id":71334,"Name":"La Joya de Calvillo","state_id":3469,"state_code":"GUA","state_name":"Guanajuato","country_id":142,"country_code":"MX","country_name":"Mexico","latitude":"20.74883000","longitude":"-101.60847000","wikiDataId":"Q20238842"},{"id":71338,"Name":"La Labor","state_id":3469,"state_code":"GUA","state_name":"Guanajuato","country_id":142,"country_code":"MX","country_name":"Mexico","latitude":"20.53388000","longitude":"-100.70200000","wikiDataId":"Q20251616"},{"id":71341,"Name":"La Laborcita","state_id":3469,"state_code":"GUA","state_name":"Guanajuato","country_id":142,"country_code":"MX","country_name":"Mexico","latitude":"21.10636000","longitude":"-101.55170000","wikiDataId":"Q20251621"},{"id":71350,"Name":"La Laja","state_id":3469,"state_code":"GUA","state_name":"Guanajuato","country_id":142,"country_code":"MX","country_name":"Mexico","latitude":"20.52946000","longitude":"-100.76170000","wikiDataId":"Q20226680"},{"id":71362,"Name":"La Lobera","state_id":3469,"state_code":"GUA","state_name":"Guanajuato","country_id":142,"country_code":"MX","country_name":"Mexico","latitude":"20.35815000","longitude":"-101.54030000","wikiDataId":"Q20246456"},{"id":71376,"Name":"La Luz","state_id":3469,"state_code":"GUA","state_name":"Guanajuato","country_id":142,"country_code":"MX","country_name":"Mexico","latitude":"20.55386000","longitude":"-101.18097000","wikiDataId":"Q20221430"},{"id":71402,"Name":"La Moncada","state_id":3469,"state_code":"GUA","state_name":"Guanajuato","country_id":142,"country_code":"MX","country_name":"Mexico","latitude":"20.28348000","longitude":"-100.80502000","wikiDataId":"Q4251713"},{"id":71409,"Name":"La Norita","state_id":3469,"state_code":"GUA","state_name":"Guanajuato","country_id":142,"country_code":"MX","country_name":"Mexico","latitude":"20.55409000","longitude":"-100.51660000","wikiDataId":"Q20264981"},{"id":71412,"Name":"La Ordeña","state_id":3469,"state_code":"GUA","state_name":"Guanajuato","country_id":142,"country_code":"MX","country_name":"Mexico","latitude":"20.68988000","longitude":"-101.11830000","wikiDataId":"Q20129072"},{"id":71415,"Name":"La Ortiga","state_id":3469,"state_code":"GUA","state_name":"Guanajuato","country_id":142,"country_code":"MX","country_name":"Mexico","latitude":"19.96222000","longitude":"-101.00056000","wikiDataId":"Q20129271"},{"id":71421,"Name":"La Palma","state_id":3469,"state_code":"GUA","state_name":"Guanajuato","country_id":142,"country_code":"MX","country_name":"Mexico","latitude":"20.51560000","longitude":"-100.69787000","wikiDataId":"Q20246488"},{"id":71429,"Name":"La Palmita (La Palmita de San Gabriel)","state_id":3469,"state_code":"GUA","state_name":"Guanajuato","country_id":142,"country_code":"MX","country_name":"Mexico","latitude":"20.49806000","longitude":"-100.87806000","wikiDataId":"Q20208146"},{"id":71470,"Name":"La Purísima","state_id":3469,"state_code":"GUA","state_name":"Guanajuato","country_id":142,"country_code":"MX","country_name":"Mexico","latitude":"20.51444000","longitude":"-100.67250000","wikiDataId":"Q20134250"},{"id":71481,"Name":"La Sabana","state_id":3469,"state_code":"GUA","state_name":"Guanajuato","country_id":142,"country_code":"MX","country_name":"Mexico","latitude":"21.19956000","longitude":"-100.68956000","wikiDataId":"Q20293754"},{"id":71484,"Name":"La Sardina","state_id":3469,"state_code":"GUA","state_name":"Guanajuato","country_id":142,"country_code":"MX","country_name":"Mexico","latitude":"20.88118000","longitude":"-101.66440000","wikiDataId":"Q20135754"},{"id":71485,"Name":"La Sauceda","state_id":3469,"state_code":"GUA","state_name":"Guanajuato","country_id":142,"country_code":"MX","country_name":"Mexico","latitude":"20.89831000","longitude":"-101.19124000","wikiDataId":"Q20135754"},{"id":71491,"Name":"La Soledad","state_id":3469,"state_code":"GUA","state_name":"Guanajuato","country_id":142,"country_code":"MX","country_name":"Mexico","latitude":"20.60792000","longitude":"-101.41558000","wikiDataId":"Q20264282"},{"id":71504,"Name":"La Tinaja","state_id":3469,"state_code":"GUA","state_name":"Guanajuato","country_id":142,"country_code":"MX","country_name":"Mexico","latitude":"20.49028000","longitude":"-101.21556000","wikiDataId":"Q20208282"},{"id":71511,"Name":"La Trinidad","state_id":3469,"state_code":"GUA","state_name":"Guanajuato","country_id":142,"country_code":"MX","country_name":"Mexico","latitude":"20.56333000","longitude":"-100.78361000","wikiDataId":"Q20137782"},{"id":71539,"Name":"Labor de Peralta","state_id":3469,"state_code":"GUA","state_name":"Guanajuato","country_id":142,"country_code":"MX","country_name":"Mexico","latitude":"20.40885000","longitude":"-101.40901000","wikiDataId":"Q20139688"},{"id":71544,"Name":"Ladrilleras del Refugio","state_id":3469,"state_code":"GUA","state_name":"Guanajuato","country_id":142,"country_code":"MX","country_name":"Mexico","latitude":"21.08472000","longitude":"-101.55361000","wikiDataId":"Q20139999"},{"id":71552,"Name":"Laguna de Guadalupe","state_id":3469,"state_code":"GUA","state_name":"Guanajuato","country_id":142,"country_code":"MX","country_name":"Mexico","latitude":"21.80046000","longitude":"-101.35689000","wikiDataId":"Q20227219"},{"id":71548,"Name":"Laguna Larga","state_id":3469,"state_code":"GUA","state_name":"Guanajuato","country_id":142,"country_code":"MX","country_name":"Mexico","latitude":"20.54131000","longitude":"-101.48451000","wikiDataId":"Q20227219"},{"id":71549,"Name":"Laguna Larga de Cortés","state_id":3469,"state_code":"GUA","state_name":"Guanajuato","country_id":142,"country_code":"MX","country_name":"Mexico","latitude":"20.39270000","longitude":"-101.94062000","wikiDataId":"Q20227219"},{"id":71570,"Name":"Landín","state_id":3469,"state_code":"GUA","state_name":"Guanajuato","country_id":142,"country_code":"MX","country_name":"Mexico","latitude":"20.75392000","longitude":"-100.90592000","wikiDataId":"Q3846402"},{"id":71657,"Name":"Las Ánimas","state_id":3469,"state_code":"GUA","state_name":"Guanajuato","country_id":142,"country_code":"MX","country_name":"Mexico","latitude":"20.39709000","longitude":"-101.79964000","wikiDataId":"Q20215030"},{"id":71584,"Name":"Las Cañas","state_id":3469,"state_code":"GUA","state_name":"Guanajuato","country_id":142,"country_code":"MX","country_name":"Mexico","latitude":"20.29586000","longitude":"-101.41823000","wikiDataId":"Q20142051"},{"id":71605,"Name":"Las Huertas Tercera Sección","state_id":3469,"state_code":"GUA","state_name":"Guanajuato","country_id":142,"country_code":"MX","country_name":"Mexico","latitude":"20.65278000","longitude":"-101.39306000","wikiDataId":"Q20295595"},{"id":71610,"Name":"Las Liebres","state_id":3469,"state_code":"GUA","state_name":"Guanajuato","country_id":142,"country_code":"MX","country_name":"Mexico","latitude":"20.83532000","longitude":"-101.47062000","wikiDataId":"Q20145836"},{"id":71620,"Name":"Las Masas (La Luz Masas)","state_id":3469,"state_code":"GUA","state_name":"Guanajuato","country_id":142,"country_code":"MX","country_name":"Mexico","latitude":"20.59917000","longitude":"-101.54278000","wikiDataId":"Q20208457"},{"id":71646,"Name":"Las Trojas","state_id":3469,"state_code":"GUA","state_name":"Guanajuato","country_id":142,"country_code":"MX","country_name":"Mexico","latitude":"20.71111000","longitude":"-100.78083000","wikiDataId":"Q20208516"},{"id":71666,"Name":"León","state_id":3469,"state_code":"GUA","state_name":"Guanajuato","country_id":142,"country_code":"MX","country_name":"Mexico","latitude":"21.09309000","longitude":"-101.64501000","wikiDataId":"Q9022143"},{"id":71668,"Name":"León de los Aldama","state_id":3469,"state_code":"GUA","state_name":"Guanajuato","country_id":142,"country_code":"MX","country_name":"Mexico","latitude":"21.12908000","longitude":"-101.67374000","wikiDataId":"Q189128"},{"id":71701,"Name":"Lo de Juárez","state_id":3469,"state_code":"GUA","state_name":"Guanajuato","country_id":142,"country_code":"MX","country_name":"Mexico","latitude":"20.76833000","longitude":"-101.34111000","wikiDataId":"Q20282632"},{"id":71735,"Name":"Loma de la Esperanza","state_id":3469,"state_code":"GUA","state_name":"Guanajuato","country_id":142,"country_code":"MX","country_name":"Mexico","latitude":"20.65927000","longitude":"-101.55670000","wikiDataId":"Q20208609"},{"id":71733,"Name":"Loma de Yerbabuena","state_id":3469,"state_code":"GUA","state_name":"Guanajuato","country_id":142,"country_code":"MX","country_name":"Mexico","latitude":"21.06056000","longitude":"-101.44944000","wikiDataId":"Q20208609"},{"id":71734,"Name":"Loma de Zempoala","state_id":3469,"state_code":"GUA","state_name":"Guanajuato","country_id":142,"country_code":"MX","country_name":"Mexico","latitude":"20.29182000","longitude":"-101.08023000","wikiDataId":"Q20208609"},{"id":71723,"Name":"Loma Pelada","state_id":3469,"state_code":"GUA","state_name":"Guanajuato","country_id":142,"country_code":"MX","country_name":"Mexico","latitude":"20.57222000","longitude":"-101.29417000","wikiDataId":"Q20128412"},{"id":71724,"Name":"Loma Tendida","state_id":3469,"state_code":"GUA","state_name":"Guanajuato","country_id":142,"country_code":"MX","country_name":"Mexico","latitude":"20.37560000","longitude":"-101.31057000","wikiDataId":"Q20128412"},{"id":71871,"Name":"Los Ángeles","state_id":3469,"state_code":"GUA","state_name":"Guanajuato","country_id":142,"country_code":"MX","country_name":"Mexico","latitude":"20.55361000","longitude":"-100.94167000","wikiDataId":"Q20208663"},{"id":71772,"Name":"Los Arcos","state_id":3469,"state_code":"GUA","state_name":"Guanajuato","country_id":142,"country_code":"MX","country_name":"Mexico","latitude":"21.04928000","longitude":"-101.68864000","wikiDataId":"Q20270237"},{"id":71796,"Name":"Los Desmontes","state_id":3469,"state_code":"GUA","state_name":"Guanajuato","country_id":142,"country_code":"MX","country_name":"Mexico","latitude":"19.95662000","longitude":"-100.73917000","wikiDataId":"Q20246588"},{"id":71798,"Name":"Los Dolores (Las Quince Letras)","state_id":3469,"state_code":"GUA","state_name":"Guanajuato","country_id":142,"country_code":"MX","country_name":"Mexico","latitude":"21.31778000","longitude":"-100.56583000","wikiDataId":"Q20208699"},{"id":71799,"Name":"Los Dulces Nombres","state_id":3469,"state_code":"GUA","state_name":"Guanajuato","country_id":142,"country_code":"MX","country_name":"Mexico","latitude":"20.64806000","longitude":"-100.96472000","wikiDataId":"Q20208702"},{"id":71801,"Name":"Los Fierros","state_id":3469,"state_code":"GUA","state_name":"Guanajuato","country_id":142,"country_code":"MX","country_name":"Mexico","latitude":"20.19353000","longitude":"-100.75941000","wikiDataId":"Q20208711"},{"id":71802,"Name":"Los Galvan","state_id":3469,"state_code":"GUA","state_name":"Guanajuato","country_id":142,"country_code":"MX","country_name":"Mexico","latitude":"21.06377000","longitude":"-100.80114000","wikiDataId":"Q20208711"},{"id":71812,"Name":"Los Lorenzos","state_id":3469,"state_code":"GUA","state_name":"Guanajuato","country_id":142,"country_code":"MX","country_name":"Mexico","latitude":"21.07229000","longitude":"-101.37580000","wikiDataId":"Q20137356"},{"id":71813,"Name":"Los Mancera","state_id":3469,"state_code":"GUA","state_name":"Guanajuato","country_id":142,"country_code":"MX","country_name":"Mexico","latitude":"20.47028000","longitude":"-100.80389000","wikiDataId":"Q20285155"},{"id":71815,"Name":"Los Medranos","state_id":3469,"state_code":"GUA","state_name":"Guanajuato","country_id":142,"country_code":"MX","country_name":"Mexico","latitude":"20.88283000","longitude":"-101.43640000","wikiDataId":"Q20270389"},{"id":71822,"Name":"Los Nicolases","state_id":3469,"state_code":"GUA","state_name":"Guanajuato","country_id":142,"country_code":"MX","country_name":"Mexico","latitude":"20.85806000","longitude":"-101.31750000","wikiDataId":"Q20285360"},{"id":71824,"Name":"Los Ocotes","state_id":3469,"state_code":"GUA","state_name":"Guanajuato","country_id":142,"country_code":"MX","country_name":"Mexico","latitude":"20.41560000","longitude":"-101.96108000","wikiDataId":"Q20285372"},{"id":71838,"Name":"Los Prietos","state_id":3469,"state_code":"GUA","state_name":"Guanajuato","country_id":142,"country_code":"MX","country_name":"Mexico","latitude":"20.57513000","longitude":"-101.26574000","wikiDataId":"Q20140826"},{"id":71841,"Name":"Los Ramírez","state_id":3469,"state_code":"GUA","state_name":"Guanajuato","country_id":142,"country_code":"MX","country_name":"Mexico","latitude":"21.01942000","longitude":"-101.64411000","wikiDataId":"Q3311869"},{"id":71843,"Name":"Los Remedios","state_id":3469,"state_code":"GUA","state_name":"Guanajuato","country_id":142,"country_code":"MX","country_name":"Mexico","latitude":"21.18492000","longitude":"-100.19919000","wikiDataId":"Q3311869"},{"id":71855,"Name":"Los Rodríguez","state_id":3469,"state_code":"GUA","state_name":"Guanajuato","country_id":142,"country_code":"MX","country_name":"Mexico","latitude":"21.04311000","longitude":"-100.64361000","wikiDataId":"Q992162"},{"id":71876,"Name":"Loza de Barrera","state_id":3469,"state_code":"GUA","state_name":"Guanajuato","country_id":142,"country_code":"MX","country_name":"Mexico","latitude":"20.98461000","longitude":"-101.52972000","wikiDataId":"Q20208663"},{"id":71877,"Name":"Loza de los Padres","state_id":3469,"state_code":"GUA","state_name":"Guanajuato","country_id":142,"country_code":"MX","country_name":"Mexico","latitude":"21.07181000","longitude":"-101.54603000","wikiDataId":"Q20208663"},{"id":71879,"Name":"Lucio Blanco (Los Gavilanes)","state_id":3469,"state_code":"GUA","state_name":"Guanajuato","country_id":142,"country_code":"MX","country_name":"Mexico","latitude":"21.11528000","longitude":"-101.55111000","wikiDataId":"Q20208864"},{"id":71933,"Name":"Magdalena de Araceo","state_id":3469,"state_code":"GUA","state_name":"Guanajuato","country_id":142,"country_code":"MX","country_name":"Mexico","latitude":"20.30935000","longitude":"-101.17861000","wikiDataId":"Q3891472"},{"id":71944,"Name":"Malagana (San Antonio del Monte)","state_id":3469,"state_code":"GUA","state_name":"Guanajuato","country_id":142,"country_code":"MX","country_name":"Mexico","latitude":"21.04670000","longitude":"-101.75350000","wikiDataId":"Q20286876"},{"id":71959,"Name":"Manuel Doblado","state_id":3469,"state_code":"GUA","state_name":"Guanajuato","country_id":142,"country_code":"MX","country_name":"Mexico","latitude":"20.72085000","longitude":"-101.85600000","wikiDataId":"Q2447549"},{"id":71980,"Name":"Maravatío del Encinal","state_id":3469,"state_code":"GUA","state_name":"Guanajuato","country_id":142,"country_code":"MX","country_name":"Mexico","latitude":"20.20513000","longitude":"-100.96211000","wikiDataId":"Q20145024"},{"id":71989,"Name":"Marfil","state_id":3469,"state_code":"GUA","state_name":"Guanajuato","country_id":142,"country_code":"MX","country_name":"Mexico","latitude":"20.99165000","longitude":"-101.28434000","wikiDataId":"Q20145219"},{"id":71999,"Name":"Marroquín","state_id":3469,"state_code":"GUA","state_name":"Guanajuato","country_id":142,"country_code":"MX","country_name":"Mexico","latitude":"20.51138000","longitude":"-100.55946000","wikiDataId":"Q1179985"},{"id":72065,"Name":"Medina","state_id":3469,"state_code":"GUA","state_name":"Guanajuato","country_id":142,"country_code":"MX","country_name":"Mexico","latitude":"21.14972000","longitude":"-101.62250000","wikiDataId":"Q20208919"},{"id":72066,"Name":"Medio Sitio","state_id":3469,"state_code":"GUA","state_name":"Guanajuato","country_id":142,"country_code":"MX","country_name":"Mexico","latitude":"20.86948000","longitude":"-101.35689000","wikiDataId":"Q20208922"},{"id":72074,"Name":"Menores","state_id":3469,"state_code":"GUA","state_name":"Guanajuato","country_id":142,"country_code":"MX","country_name":"Mexico","latitude":"20.92028000","longitude":"-101.39500000","wikiDataId":"Q20208924"},{"id":72078,"Name":"Merino","state_id":3469,"state_code":"GUA","state_name":"Guanajuato","country_id":142,"country_code":"MX","country_name":"Mexico","latitude":"20.49424000","longitude":"-100.88411000","wikiDataId":"Q1921059"},{"id":72101,"Name":"Mexicanos","state_id":3469,"state_code":"GUA","state_name":"Guanajuato","country_id":142,"country_code":"MX","country_name":"Mexico","latitude":"20.52903000","longitude":"-101.07064000","wikiDataId":"Q20252198"},{"id":72110,"Name":"Mezquite de Luna","state_id":3469,"state_code":"GUA","state_name":"Guanajuato","country_id":142,"country_code":"MX","country_name":"Mexico","latitude":"20.29765000","longitude":"-101.89260000","wikiDataId":"Q20287344"},{"id":72111,"Name":"Mezquite de Sotelo","state_id":3469,"state_code":"GUA","state_name":"Guanajuato","country_id":142,"country_code":"MX","country_name":"Mexico","latitude":"21.00825000","longitude":"-101.50287000","wikiDataId":"Q20287344"},{"id":72109,"Name":"Mezquite Gordo","state_id":3469,"state_code":"GUA","state_name":"Guanajuato","country_id":142,"country_code":"MX","country_name":"Mexico","latitude":"20.81463000","longitude":"-101.49277000","wikiDataId":"Q20148222"},{"id":72148,"Name":"Mineral de la Luz","state_id":3469,"state_code":"GUA","state_name":"Guanajuato","country_id":142,"country_code":"MX","country_name":"Mexico","latitude":"21.06456000","longitude":"-101.33806000","wikiDataId":"Q3844842"},{"id":72160,"Name":"Misión de Chichimecas","state_id":3469,"state_code":"GUA","state_name":"Guanajuato","country_id":142,"country_code":"MX","country_name":"Mexico","latitude":"21.28496000","longitude":"-100.48658000","wikiDataId":"Q20234895"},{"id":72185,"Name":"Molino de San José","state_id":3469,"state_code":"GUA","state_name":"Guanajuato","country_id":142,"country_code":"MX","country_name":"Mexico","latitude":"21.57083000","longitude":"-101.26389000","wikiDataId":"Q20149774"},{"id":72186,"Name":"Molino de Santa Ana","state_id":3469,"state_code":"GUA","state_name":"Guanajuato","country_id":142,"country_code":"MX","country_name":"Mexico","latitude":"20.82874000","longitude":"-101.34929000","wikiDataId":"Q20149774"},{"id":72197,"Name":"Monte Blanco","state_id":3469,"state_code":"GUA","state_name":"Guanajuato","country_id":142,"country_code":"MX","country_name":"Mexico","latitude":"20.35472000","longitude":"-101.52750000","wikiDataId":"Q20270673"},{"id":72209,"Name":"Monte del Coecillo","state_id":3469,"state_code":"GUA","state_name":"Guanajuato","country_id":142,"country_code":"MX","country_name":"Mexico","latitude":"20.97900000","longitude":"-101.43542000","wikiDataId":"Q20270682"},{"id":72201,"Name":"Monte Grande","state_id":3469,"state_code":"GUA","state_name":"Guanajuato","country_id":142,"country_code":"MX","country_name":"Mexico","latitude":"20.99806000","longitude":"-101.86333000","wikiDataId":"Q20253183"},{"id":72223,"Name":"Morales","state_id":3469,"state_code":"GUA","state_name":"Guanajuato","country_id":142,"country_code":"MX","country_name":"Mexico","latitude":"20.77821000","longitude":"-100.80932000","wikiDataId":"Q20209008"},{"id":72238,"Name":"Moroleón","state_id":3469,"state_code":"GUA","state_name":"Guanajuato","country_id":142,"country_code":"MX","country_name":"Mexico","latitude":"20.12571000","longitude":"-101.19208000","wikiDataId":"Q605127"},{"id":72314,"Name":"Neutla","state_id":3469,"state_code":"GUA","state_name":"Guanajuato","country_id":142,"country_code":"MX","country_name":"Mexico","latitude":"20.70800000","longitude":"-100.83957000","wikiDataId":"Q3947701"},{"id":72331,"Name":"Nigromante","state_id":3469,"state_code":"GUA","state_name":"Guanajuato","country_id":142,"country_code":"MX","country_name":"Mexico","latitude":"20.96194000","longitude":"-100.78028000","wikiDataId":"Q20209025"},{"id":72435,"Name":"Obrajuelo","state_id":3469,"state_code":"GUA","state_name":"Guanajuato","country_id":142,"country_code":"MX","country_name":"Mexico","latitude":"20.10820000","longitude":"-100.84950000","wikiDataId":"Q20209121"},{"id":72441,"Name":"Ocampo","state_id":3469,"state_code":"GUA","state_name":"Guanajuato","country_id":142,"country_code":"MX","country_name":"Mexico","latitude":"21.64653000","longitude":"-101.48012000","wikiDataId":"Q27783444"},{"id":72489,"Name":"Ojo de Agua de Ballesteros","state_id":3469,"state_code":"GUA","state_name":"Guanajuato","country_id":142,"country_code":"MX","country_name":"Mexico","latitude":"20.22821000","longitude":"-100.82424000","wikiDataId":"Q1030019"},{"id":72495,"Name":"Ojo de Agua de la Trinidad","state_id":3469,"state_code":"GUA","state_name":"Guanajuato","country_id":142,"country_code":"MX","country_name":"Mexico","latitude":"20.39356000","longitude":"-100.63255000","wikiDataId":"Q20289789"},{"id":72492,"Name":"Ojo de Agua de Mendoza","state_id":3469,"state_code":"GUA","state_name":"Guanajuato","country_id":142,"country_code":"MX","country_name":"Mexico","latitude":"20.16585000","longitude":"-100.56909000","wikiDataId":"Q1030019"},{"id":72496,"Name":"Ojo de Agua del Refugio","state_id":3469,"state_code":"GUA","state_name":"Guanajuato","country_id":142,"country_code":"MX","country_name":"Mexico","latitude":"21.01386000","longitude":"-100.31687000","wikiDataId":"Q20289789"},{"id":72483,"Name":"Ojo Seco","state_id":3469,"state_code":"GUA","state_name":"Guanajuato","country_id":142,"country_code":"MX","country_name":"Mexico","latitude":"20.38687000","longitude":"-100.79659000","wikiDataId":"Q20260103"},{"id":72517,"Name":"Orduña de Abajo","state_id":3469,"state_code":"GUA","state_name":"Guanajuato","country_id":142,"country_code":"MX","country_name":"Mexico","latitude":"20.75806000","longitude":"-100.78278000","wikiDataId":"Q20291218"},{"id":72518,"Name":"Orduña de Arriba","state_id":3469,"state_code":"GUA","state_name":"Guanajuato","country_id":142,"country_code":"MX","country_name":"Mexico","latitude":"20.76583000","longitude":"-100.79262000","wikiDataId":"Q20291218"},{"id":72537,"Name":"Otates","state_id":3469,"state_code":"GUA","state_name":"Guanajuato","country_id":142,"country_code":"MX","country_name":"Mexico","latitude":"20.40064000","longitude":"-101.48169000","wikiDataId":"Q27768276"},{"id":72601,"Name":"Palmillas de San Juan","state_id":3469,"state_code":"GUA","state_name":"Guanajuato","country_id":142,"country_code":"MX","country_name":"Mexico","latitude":"20.76873000","longitude":"-100.86432000","wikiDataId":"Q20291801"},{"id":72608,"Name":"Palo Colorado","state_id":3469,"state_code":"GUA","state_name":"Guanajuato","country_id":142,"country_code":"MX","country_name":"Mexico","latitude":"21.00836000","longitude":"-100.72917000","wikiDataId":"Q20209262"},{"id":72621,"Name":"Panales Jamaica (Cañones)","state_id":3469,"state_code":"GUA","state_name":"Guanajuato","country_id":142,"country_code":"MX","country_name":"Mexico","latitude":"20.29556000","longitude":"-100.82306000","wikiDataId":"Q7129907"},{"id":72663,"Name":"Parácuaro","state_id":3469,"state_code":"GUA","state_name":"Guanajuato","country_id":142,"country_code":"MX","country_name":"Mexico","latitude":"20.14381000","longitude":"-100.76352000","wikiDataId":"Q20209278"},{"id":72649,"Name":"Parangarico","state_id":3469,"state_code":"GUA","state_name":"Guanajuato","country_id":142,"country_code":"MX","country_name":"Mexico","latitude":"20.19232000","longitude":"-101.16550000","wikiDataId":"Q20292812"},{"id":72692,"Name":"Paso de Pirules","state_id":3469,"state_code":"GUA","state_name":"Guanajuato","country_id":142,"country_code":"MX","country_name":"Mexico","latitude":"20.95028000","longitude":"-101.29972000","wikiDataId":"Q20209300"},{"id":72716,"Name":"Paxtle","state_id":3469,"state_code":"GUA","state_name":"Guanajuato","country_id":142,"country_code":"MX","country_name":"Mexico","latitude":"21.05897000","longitude":"-101.40390000","wikiDataId":"Q20243657"},{"id":73011,"Name":"Pénjamo","state_id":3469,"state_code":"GUA","state_name":"Guanajuato","country_id":142,"country_code":"MX","country_name":"Mexico","latitude":"20.43108000","longitude":"-101.72261000","wikiDataId":"Q1962279"},{"id":72754,"Name":"Peñuelas","state_id":3469,"state_code":"GUA","state_name":"Guanajuato","country_id":142,"country_code":"MX","country_name":"Mexico","latitude":"20.71676000","longitude":"-101.29749000","wikiDataId":"Q3845591"},{"id":72731,"Name":"Peralta","state_id":3469,"state_code":"GUA","state_name":"Guanajuato","country_id":142,"country_code":"MX","country_name":"Mexico","latitude":"20.47350000","longitude":"-101.40811000","wikiDataId":"Q3888788"},{"id":72773,"Name":"Piedras de Lumbre","state_id":3469,"state_code":"GUA","state_name":"Guanajuato","country_id":142,"country_code":"MX","country_name":"Mexico","latitude":"20.25097000","longitude":"-100.59972000","wikiDataId":"Q1856408"},{"id":72771,"Name":"Piedras Negras","state_id":3469,"state_code":"GUA","state_name":"Guanajuato","country_id":142,"country_code":"MX","country_name":"Mexico","latitude":"20.43059000","longitude":"-101.39158000","wikiDataId":"Q20271428"},{"id":72792,"Name":"Piñícuaro","state_id":3469,"state_code":"GUA","state_name":"Guanajuato","country_id":142,"country_code":"MX","country_name":"Mexico","latitude":"20.04751000","longitude":"-101.24097000","wikiDataId":"Q2991688"},{"id":72800,"Name":"Plan de Ayala","state_id":3469,"state_code":"GUA","state_name":"Guanajuato","country_id":142,"country_code":"MX","country_name":"Mexico","latitude":"21.07209000","longitude":"-101.72165000","wikiDataId":"Q20295585"},{"id":72794,"Name":"Plan Guanajuato (La Sandía)","state_id":3469,"state_code":"GUA","state_name":"Guanajuato","country_id":142,"country_code":"MX","country_name":"Mexico","latitude":"20.92167000","longitude":"-101.69694000","wikiDataId":"Q20209361"},{"id":72805,"Name":"Plancarte","state_id":3469,"state_code":"GUA","state_name":"Guanajuato","country_id":142,"country_code":"MX","country_name":"Mexico","latitude":"20.58681000","longitude":"-100.79620000","wikiDataId":"Q20271516"},{"id":72864,"Name":"Potrerillos (Guanajal)","state_id":3469,"state_code":"GUA","state_name":"Guanajuato","country_id":142,"country_code":"MX","country_name":"Mexico","latitude":"21.08154000","longitude":"-101.86986000","wikiDataId":"Q20209379"},{"id":72874,"Name":"Pozos","state_id":3469,"state_code":"GUA","state_name":"Guanajuato","country_id":142,"country_code":"MX","country_name":"Mexico","latitude":"20.62003000","longitude":"-100.89560000","wikiDataId":"Q20221982"},{"id":72883,"Name":"Prados del Rosario","state_id":3469,"state_code":"GUA","state_name":"Guanajuato","country_id":142,"country_code":"MX","country_name":"Mexico","latitude":"21.02194000","longitude":"-100.39250000","wikiDataId":"Q20296920"},{"id":72887,"Name":"Presa Blanca","state_id":3469,"state_code":"GUA","state_name":"Guanajuato","country_id":142,"country_code":"MX","country_name":"Mexico","latitude":"20.64146000","longitude":"-100.79241000","wikiDataId":"Q20266054"},{"id":72896,"Name":"Primera Fracción de Crespo","state_id":3469,"state_code":"GUA","state_name":"Guanajuato","country_id":142,"country_code":"MX","country_name":"Mexico","latitude":"20.49638000","longitude":"-100.85150000","wikiDataId":"Q20297094"},{"id":72922,"Name":"Providencia","state_id":3469,"state_code":"GUA","state_name":"Guanajuato","country_id":142,"country_code":"MX","country_name":"Mexico","latitude":"20.35439000","longitude":"-101.01895000","wikiDataId":"Q27949082"},{"id":72923,"Name":"Providencia de Nápoles","state_id":3469,"state_code":"GUA","state_name":"Guanajuato","country_id":142,"country_code":"MX","country_name":"Mexico","latitude":"21.02297000","longitude":"-101.45775000","wikiDataId":"Q27949082"},{"id":72941,"Name":"Pueblo Nuevo","state_id":3469,"state_code":"GUA","state_name":"Guanajuato","country_id":142,"country_code":"MX","country_name":"Mexico","latitude":"20.52516000","longitude":"-101.37196000","wikiDataId":"Q27781567"},{"id":72959,"Name":"Puentecillas","state_id":3469,"state_code":"GUA","state_name":"Guanajuato","country_id":142,"country_code":"MX","country_name":"Mexico","latitude":"20.93187000","longitude":"-101.27873000","wikiDataId":"Q6091388"},{"id":72963,"Name":"Puerta del Monte","state_id":3469,"state_code":"GUA","state_name":"Guanajuato","country_id":142,"country_code":"MX","country_name":"Mexico","latitude":"20.25853000","longitude":"-101.02597000","wikiDataId":"Q20234619"},{"id":72996,"Name":"Purísima de Bustos","state_id":3469,"state_code":"GUA","state_name":"Guanajuato","country_id":142,"country_code":"MX","country_name":"Mexico","latitude":"21.03150000","longitude":"-101.87833000","wikiDataId":"Q49998444"},{"id":72997,"Name":"Purísima de Covarrubias","state_id":3469,"state_code":"GUA","state_name":"Guanajuato","country_id":142,"country_code":"MX","country_name":"Mexico","latitude":"20.61932000","longitude":"-101.48340000","wikiDataId":"Q49998444"},{"id":72999,"Name":"Purísima del Progreso","state_id":3469,"state_code":"GUA","state_name":"Guanajuato","country_id":142,"country_code":"MX","country_name":"Mexico","latitude":"20.79333000","longitude":"-101.33028000","wikiDataId":"Q20209598"},{"id":73000,"Name":"Purísima del Rincón","state_id":3469,"state_code":"GUA","state_name":"Guanajuato","country_id":142,"country_code":"MX","country_name":"Mexico","latitude":"20.94704000","longitude":"-101.90939000","wikiDataId":"Q948895"},{"id":72989,"Name":"Puroagua","state_id":3469,"state_code":"GUA","state_name":"Guanajuato","country_id":142,"country_code":"MX","country_name":"Mexico","latitude":"20.07913000","longitude":"-100.45291000","wikiDataId":"Q20271772"},{"id":73078,"Name":"Rancho de Guadalupe","state_id":3469,"state_code":"GUA","state_name":"Guanajuato","country_id":142,"country_code":"MX","country_name":"Mexico","latitude":"21.21639000","longitude":"-101.01000000","wikiDataId":"Q20209654"},{"id":73068,"Name":"Rancho Nuevo de la Cruz","state_id":3469,"state_code":"GUA","state_name":"Guanajuato","country_id":142,"country_code":"MX","country_name":"Mexico","latitude":"20.65105000","longitude":"-101.51786000","wikiDataId":"Q20222184"},{"id":73069,"Name":"Rancho Nuevo de la Luz","state_id":3469,"state_code":"GUA","state_name":"Guanajuato","country_id":142,"country_code":"MX","country_name":"Mexico","latitude":"20.96246000","longitude":"-101.64573000","wikiDataId":"Q20222184"},{"id":73070,"Name":"Rancho Nuevo del Llanito","state_id":3469,"state_code":"GUA","state_name":"Guanajuato","country_id":142,"country_code":"MX","country_name":"Mexico","latitude":"20.82361000","longitude":"-101.36861000","wikiDataId":"Q20209794"},{"id":73074,"Name":"Rancho Viejo","state_id":3469,"state_code":"GUA","state_name":"Guanajuato","country_id":142,"country_code":"MX","country_name":"Mexico","latitude":"21.02091000","longitude":"-100.77142000","wikiDataId":"Q20219583"},{"id":73124,"Name":"Rincón de Cano","state_id":3469,"state_code":"GUA","state_name":"Guanajuato","country_id":142,"country_code":"MX","country_name":"Mexico","latitude":"21.05519000","longitude":"-100.24196000","wikiDataId":"Q20272150"},{"id":73132,"Name":"Rincón de Parangueo","state_id":3469,"state_code":"GUA","state_name":"Guanajuato","country_id":142,"country_code":"MX","country_name":"Mexico","latitude":"20.42193000","longitude":"-101.25101000","wikiDataId":"Q20285479"},{"id":73134,"Name":"Rincón de Tamayo","state_id":3469,"state_code":"GUA","state_name":"Guanajuato","country_id":142,"country_code":"MX","country_name":"Mexico","latitude":"20.42344000","longitude":"-100.75470000","wikiDataId":"Q7334633"},{"id":73137,"Name":"Rincón del Centeno","state_id":3469,"state_code":"GUA","state_name":"Guanajuato","country_id":142,"country_code":"MX","country_name":"Mexico","latitude":"20.66076000","longitude":"-100.88532000","wikiDataId":"Q20128492"},{"id":73115,"Name":"Rinconadas del Bosque","state_id":3469,"state_code":"GUA","state_name":"Guanajuato","country_id":142,"country_code":"MX","country_name":"Mexico","latitude":"20.08528000","longitude":"-101.19833000","wikiDataId":"Q20129167"},{"id":73180,"Name":"Río Laja","state_id":3469,"state_code":"GUA","state_name":"Guanajuato","country_id":142,"country_code":"MX","country_name":"Mexico","latitude":"21.20326000","longitude":"-100.92339000","wikiDataId":"Q6115313"},{"id":73144,"Name":"Rizos de la Joya (Rizos del Saucillo)","state_id":3469,"state_code":"GUA","state_name":"Guanajuato","country_id":142,"country_code":"MX","country_name":"Mexico","latitude":"21.14861000","longitude":"-101.76194000","wikiDataId":"Q20209908"},{"id":73156,"Name":"Romita","state_id":3469,"state_code":"GUA","state_name":"Guanajuato","country_id":142,"country_code":"MX","country_name":"Mexico","latitude":"20.87127000","longitude":"-101.51683000","wikiDataId":"Q2651353"},{"id":73157,"Name":"Roque","state_id":3469,"state_code":"GUA","state_name":"Guanajuato","country_id":142,"country_code":"MX","country_name":"Mexico","latitude":"20.58228000","longitude":"-100.83727000","wikiDataId":"Q20209915"},{"id":73209,"Name":"Salamanca","state_id":3469,"state_code":"GUA","state_name":"Guanajuato","country_id":142,"country_code":"MX","country_name":"Mexico","latitude":"20.57196000","longitude":"-101.19154000","wikiDataId":"Q1801321"},{"id":73220,"Name":"Salitrillo","state_id":3469,"state_code":"GUA","state_name":"Guanajuato","country_id":142,"country_code":"MX","country_name":"Mexico","latitude":"21.03629000","longitude":"-101.45650000","wikiDataId":"Q20286817"},{"id":73231,"Name":"Salvatierra","state_id":3469,"state_code":"GUA","state_name":"Guanajuato","country_id":142,"country_code":"MX","country_name":"Mexico","latitude":"20.21322000","longitude":"-100.88023000","wikiDataId":"Q2447267"},{"id":73258,"Name":"San Agustín de las Flores","state_id":3469,"state_code":"GUA","state_name":"Guanajuato","country_id":142,"country_code":"MX","country_name":"Mexico","latitude":"21.00727000","longitude":"-101.43710000","wikiDataId":"Q1193972"},{"id":73279,"Name":"San Andrés Enguaro","state_id":3469,"state_code":"GUA","state_name":"Guanajuato","country_id":142,"country_code":"MX","country_name":"Mexico","latitude":"20.19472000","longitude":"-101.23639000","wikiDataId":"Q20133225"},{"id":74512,"Name":"San Ángel","state_id":3469,"state_code":"GUA","state_name":"Guanajuato","country_id":142,"country_code":"MX","country_name":"Mexico","latitude":"20.90193000","longitude":"-101.91895000","wikiDataId":"Q20295679"},{"id":73327,"Name":"San Antonio Calichar","state_id":3469,"state_code":"GUA","state_name":"Guanajuato","country_id":142,"country_code":"MX","country_name":"Mexico","latitude":"20.49669000","longitude":"-100.51775000","wikiDataId":"Q20287325"},{"id":73364,"Name":"San Antonio de Corrales","state_id":3469,"state_code":"GUA","state_name":"Guanajuato","country_id":142,"country_code":"MX","country_name":"Mexico","latitude":"20.74556000","longitude":"-100.96361000","wikiDataId":"Q20134058"},{"id":73375,"Name":"San Antonio de los Morales","state_id":3469,"state_code":"GUA","state_name":"Guanajuato","country_id":142,"country_code":"MX","country_name":"Mexico","latitude":"20.58055000","longitude":"-100.91020000","wikiDataId":"Q20134232"},{"id":73377,"Name":"San Antonio de los Tepetates","state_id":3469,"state_code":"GUA","state_name":"Guanajuato","country_id":142,"country_code":"MX","country_name":"Mexico","latitude":"21.04472000","longitude":"-101.67611000","wikiDataId":"Q20209988"},{"id":73366,"Name":"San Antonio de Romerillo","state_id":3469,"state_code":"GUA","state_name":"Guanajuato","country_id":142,"country_code":"MX","country_name":"Mexico","latitude":"20.60784000","longitude":"-100.94854000","wikiDataId":"Q20134058"},{"id":73383,"Name":"San Antonio el Chico","state_id":3469,"state_code":"GUA","state_name":"Guanajuato","country_id":142,"country_code":"MX","country_name":"Mexico","latitude":"20.62798000","longitude":"-101.28373000","wikiDataId":"Q20134455"},{"id":73387,"Name":"San Antonio el Rico","state_id":3469,"state_code":"GUA","state_name":"Guanajuato","country_id":142,"country_code":"MX","country_name":"Mexico","latitude":"20.82308000","longitude":"-101.37161000","wikiDataId":"Q20243891"},{"id":73332,"Name":"San Antonio Eménguaro","state_id":3469,"state_code":"GUA","state_name":"Guanajuato","country_id":142,"country_code":"MX","country_name":"Mexico","latitude":"20.13997000","longitude":"-100.87874000","wikiDataId":"Q20133984"},{"id":73334,"Name":"San Antonio Gallardo","state_id":3469,"state_code":"GUA","state_name":"Guanajuato","country_id":142,"country_code":"MX","country_name":"Mexico","latitude":"20.62833000","longitude":"-100.76778000","wikiDataId":"Q20209997"},{"id":73345,"Name":"San Antonio Primero","state_id":3469,"state_code":"GUA","state_name":"Guanajuato","country_id":142,"country_code":"MX","country_name":"Mexico","latitude":"21.09417000","longitude":"-100.52844000","wikiDataId":"Q20231554"},{"id":73355,"Name":"San Antonio Texas","state_id":3469,"state_code":"GUA","state_name":"Guanajuato","country_id":142,"country_code":"MX","country_name":"Mexico","latitude":"20.98556000","longitude":"-101.49000000","wikiDataId":"Q20287801"},{"id":73411,"Name":"San Bartolo de Berrios","state_id":3469,"state_code":"GUA","state_name":"Guanajuato","country_id":142,"country_code":"MX","country_name":"Mexico","latitude":"21.61240000","longitude":"-101.06845000","wikiDataId":"Q27796601"},{"id":73419,"Name":"San Bartolomé Aguas Calientes","state_id":3469,"state_code":"GUA","state_name":"Guanajuato","country_id":142,"country_code":"MX","country_name":"Mexico","latitude":"20.49556000","longitude":"-100.54833000","wikiDataId":"Q20136079"},{"id":73438,"Name":"San Bernardo","state_id":3469,"state_code":"GUA","state_name":"Guanajuato","country_id":142,"country_code":"MX","country_name":"Mexico","latitude":"20.96764000","longitude":"-101.86972000","wikiDataId":"Q7413455"},{"id":73442,"Name":"San Bernardo Peña Blanca","state_id":3469,"state_code":"GUA","state_name":"Guanajuato","country_id":142,"country_code":"MX","country_name":"Mexico","latitude":"20.46167000","longitude":"-101.48250000","wikiDataId":"Q20136219"},{"id":73465,"Name":"San Cayetano","state_id":3469,"state_code":"GUA","state_name":"Guanajuato","country_id":142,"country_code":"MX","country_name":"Mexico","latitude":"20.60357000","longitude":"-100.82021000","wikiDataId":"Q3846926"},{"id":73472,"Name":"San Cristóbal","state_id":3469,"state_code":"GUA","state_name":"Guanajuato","country_id":142,"country_code":"MX","country_name":"Mexico","latitude":"20.65787000","longitude":"-101.47683000","wikiDataId":"Q20288570"},{"id":73489,"Name":"San Diego","state_id":3469,"state_code":"GUA","state_name":"Guanajuato","country_id":142,"country_code":"MX","country_name":"Mexico","latitude":"20.88838000","longitude":"-101.40973000","wikiDataId":"Q20136860"},{"id":73495,"Name":"San Diego de Alcalá","state_id":3469,"state_code":"GUA","state_name":"Guanajuato","country_id":142,"country_code":"MX","country_name":"Mexico","latitude":"20.03062000","longitude":"-100.86350000","wikiDataId":"Q20288618"},{"id":73496,"Name":"San Diego de la Unión","state_id":3469,"state_code":"GUA","state_name":"Guanajuato","country_id":142,"country_code":"MX","country_name":"Mexico","latitude":"21.46749000","longitude":"-100.87310000","wikiDataId":"Q2651955"},{"id":73505,"Name":"San Elías","state_id":3469,"state_code":"GUA","state_name":"Guanajuato","country_id":142,"country_code":"MX","country_name":"Mexico","latitude":"20.63529000","longitude":"-100.84120000","wikiDataId":"Q558469"},{"id":73511,"Name":"San Felipe","state_id":3469,"state_code":"GUA","state_name":"Guanajuato","country_id":142,"country_code":"MX","country_name":"Mexico","latitude":"21.47831000","longitude":"-101.21566000","wikiDataId":"Q2651377"},{"id":73521,"Name":"San Felipe Quiriceo","state_id":3469,"state_code":"GUA","state_name":"Guanajuato","country_id":142,"country_code":"MX","country_name":"Mexico","latitude":"20.44303000","longitude":"-101.28960000","wikiDataId":"Q20288838"},{"id":73542,"Name":"San Francisco","state_id":3469,"state_code":"GUA","state_name":"Guanajuato","country_id":142,"country_code":"MX","country_name":"Mexico","latitude":"21.63387000","longitude":"-101.05884000","wikiDataId":"Q20289530"},{"id":73546,"Name":"San Francisco (Baños de Agua Caliente)","state_id":3469,"state_code":"GUA","state_name":"Guanajuato","country_id":142,"country_code":"MX","country_name":"Mexico","latitude":"21.07389000","longitude":"-101.47278000","wikiDataId":"Q20210071"},{"id":73611,"Name":"San Francisco de Durán","state_id":3469,"state_code":"GUA","state_name":"Guanajuato","country_id":142,"country_code":"MX","country_name":"Mexico","latitude":"21.00513000","longitude":"-101.61990000","wikiDataId":"Q2466659"},{"id":73621,"Name":"San Francisco del Rincón","state_id":3469,"state_code":"GUA","state_name":"Guanajuato","country_id":142,"country_code":"MX","country_name":"Mexico","latitude":"21.01843000","longitude":"-101.85515000","wikiDataId":"Q2384255"},{"id":73625,"Name":"San Gabriel","state_id":3469,"state_code":"GUA","state_name":"Guanajuato","country_id":142,"country_code":"MX","country_name":"Mexico","latitude":"21.12949000","longitude":"-100.83496000","wikiDataId":"Q20137671"},{"id":73633,"Name":"San Gabriel y San Ignacio","state_id":3469,"state_code":"GUA","state_name":"Guanajuato","country_id":142,"country_code":"MX","country_name":"Mexico","latitude":"20.44028000","longitude":"-101.60816000","wikiDataId":"Q20138857"},{"id":73640,"Name":"San Gregorio","state_id":3469,"state_code":"GUA","state_name":"Guanajuato","country_id":142,"country_code":"MX","country_name":"Mexico","latitude":"20.54694000","longitude":"-101.62847000","wikiDataId":"Q50024814"},{"id":73651,"Name":"San Ignacio","state_id":3469,"state_code":"GUA","state_name":"Guanajuato","country_id":142,"country_code":"MX","country_name":"Mexico","latitude":"21.28194000","longitude":"-100.53722000","wikiDataId":"Q20210090"},{"id":73654,"Name":"San Ignacio de Hidalgo","state_id":3469,"state_code":"GUA","state_name":"Guanajuato","country_id":142,"country_code":"MX","country_name":"Mexico","latitude":"20.91167000","longitude":"-101.86056000","wikiDataId":"Q20139219"},{"id":73655,"Name":"San Ignacio de Rivera (Ojo de Agua)","state_id":3469,"state_code":"GUA","state_name":"Guanajuato","country_id":142,"country_code":"MX","country_name":"Mexico","latitude":"20.55926000","longitude":"-101.46127000","wikiDataId":"Q20289811"},{"id":73656,"Name":"San Ignacio de San José Parangueo","state_id":3469,"state_code":"GUA","state_name":"Guanajuato","country_id":142,"country_code":"MX","country_name":"Mexico","latitude":"20.41473000","longitude":"-101.29780000","wikiDataId":"Q20289811"},{"id":73686,"Name":"San Isidro de Gamboa","state_id":3469,"state_code":"GUA","state_name":"Guanajuato","country_id":142,"country_code":"MX","country_name":"Mexico","latitude":"20.39501000","longitude":"-100.52705000","wikiDataId":"Q20272402"},{"id":73687,"Name":"San Isidro de la Concepción","state_id":3469,"state_code":"GUA","state_name":"Guanajuato","country_id":142,"country_code":"MX","country_name":"Mexico","latitude":"20.62776000","longitude":"-100.78570000","wikiDataId":"Q20272402"},{"id":73688,"Name":"San Isidro de la Estacada","state_id":3469,"state_code":"GUA","state_name":"Guanajuato","country_id":142,"country_code":"MX","country_name":"Mexico","latitude":"21.14746000","longitude":"-100.68473000","wikiDataId":"Q20139538"},{"id":73689,"Name":"San Isidro de los Sauces","state_id":3469,"state_code":"GUA","state_name":"Guanajuato","country_id":142,"country_code":"MX","country_name":"Mexico","latitude":"21.02103000","longitude":"-101.53724000","wikiDataId":"Q20139538"},{"id":73697,"Name":"San Javier","state_id":3469,"state_code":"GUA","state_name":"Guanajuato","country_id":142,"country_code":"MX","country_name":"Mexico","latitude":"20.66729000","longitude":"-101.42940000","wikiDataId":"Q1193686"},{"id":73724,"Name":"San Jerónimo de Araceo","state_id":3469,"state_code":"GUA","state_name":"Guanajuato","country_id":142,"country_code":"MX","country_name":"Mexico","latitude":"20.32507000","longitude":"-101.18195000","wikiDataId":"Q20140755"},{"id":73807,"Name":"San José de Agua Azul","state_id":3469,"state_code":"GUA","state_name":"Guanajuato","country_id":142,"country_code":"MX","country_name":"Mexico","latitude":"20.48662000","longitude":"-100.65587000","wikiDataId":"Q20272442"},{"id":73809,"Name":"San José de Ayala","state_id":3469,"state_code":"GUA","state_name":"Guanajuato","country_id":142,"country_code":"MX","country_name":"Mexico","latitude":"20.38709000","longitude":"-101.44143000","wikiDataId":"Q20290911"},{"id":73811,"Name":"San José de Bernalejo (El Guayabo)","state_id":3469,"state_code":"GUA","state_name":"Guanajuato","country_id":142,"country_code":"MX","country_name":"Mexico","latitude":"20.64000000","longitude":"-101.40139000","wikiDataId":"Q20210141"},{"id":73813,"Name":"San José de Cervera","state_id":3469,"state_code":"GUA","state_name":"Guanajuato","country_id":142,"country_code":"MX","country_name":"Mexico","latitude":"20.96778000","longitude":"-101.30250000","wikiDataId":"Q20210142"},{"id":73814,"Name":"San José de Durán (Los Troncoso)","state_id":3469,"state_code":"GUA","state_name":"Guanajuato","country_id":142,"country_code":"MX","country_name":"Mexico","latitude":"21.06306000","longitude":"-101.67417000","wikiDataId":"Q20141489"},{"id":73820,"Name":"San José de Guanajuato","state_id":3469,"state_code":"GUA","state_name":"Guanajuato","country_id":142,"country_code":"MX","country_name":"Mexico","latitude":"20.55601000","longitude":"-100.89277000","wikiDataId":"Q3850526"},{"id":73831,"Name":"San José de la Montaña","state_id":3469,"state_code":"GUA","state_name":"Guanajuato","country_id":142,"country_code":"MX","country_name":"Mexico","latitude":"20.60037000","longitude":"-101.07228000","wikiDataId":"Q20141628"},{"id":73833,"Name":"San José de las Pilas","state_id":3469,"state_code":"GUA","state_name":"Guanajuato","country_id":142,"country_code":"MX","country_name":"Mexico","latitude":"20.65227000","longitude":"-101.04523000","wikiDataId":"Q20141628"},{"id":73822,"Name":"San José de Llanos","state_id":3469,"state_code":"GUA","state_name":"Guanajuato","country_id":142,"country_code":"MX","country_name":"Mexico","latitude":"20.85568000","longitude":"-101.30897000","wikiDataId":"Q3850526"},{"id":73823,"Name":"San José de Mendoza","state_id":3469,"state_code":"GUA","state_name":"Guanajuato","country_id":142,"country_code":"MX","country_name":"Mexico","latitude":"20.68965000","longitude":"-101.21353000","wikiDataId":"Q3850526"},{"id":73824,"Name":"San José de Rancho Nuevo (Los Arrieros)","state_id":3469,"state_code":"GUA","state_name":"Guanajuato","country_id":142,"country_code":"MX","country_name":"Mexico","latitude":"21.59639000","longitude":"-101.00389000","wikiDataId":"Q20210189"},{"id":73835,"Name":"San José del Cerrito de Camargo","state_id":3469,"state_code":"GUA","state_name":"Guanajuato","country_id":142,"country_code":"MX","country_name":"Mexico","latitude":"20.41917000","longitude":"-101.04222000","wikiDataId":"Q20210201"},{"id":73837,"Name":"San José del Potrero","state_id":3469,"state_code":"GUA","state_name":"Guanajuato","country_id":142,"country_code":"MX","country_name":"Mexico","latitude":"21.12815000","longitude":"-101.59737000","wikiDataId":"Q20142142"},{"id":73842,"Name":"San José del Rodeo","state_id":3469,"state_code":"GUA","state_name":"Guanajuato","country_id":142,"country_code":"MX","country_name":"Mexico","latitude":"20.92083000","longitude":"-101.21639000","wikiDataId":"Q20291320"},{"id":73845,"Name":"San José del Torreón","state_id":3469,"state_code":"GUA","state_name":"Guanajuato","country_id":142,"country_code":"MX","country_name":"Mexico","latitude":"21.47444000","longitude":"-101.47056000","wikiDataId":"Q20291331"},{"id":73850,"Name":"San José el Nuevo","state_id":3469,"state_code":"GUA","state_name":"Guanajuato","country_id":142,"country_code":"MX","country_name":"Mexico","latitude":"20.44389000","longitude":"-100.77194000","wikiDataId":"Q20210223"},{"id":73769,"Name":"San José Iturbide","state_id":3469,"state_code":"GUA","state_name":"Guanajuato","country_id":142,"country_code":"MX","country_name":"Mexico","latitude":"21.00153000","longitude":"-100.38416000","wikiDataId":"Q2651304"},{"id":73786,"Name":"San José Temascatío","state_id":3469,"state_code":"GUA","state_name":"Guanajuato","country_id":142,"country_code":"MX","country_name":"Mexico","latitude":"20.69183000","longitude":"-101.26028000","wikiDataId":"Q20142914"},{"id":73798,"Name":"San José Viborillas","state_id":3469,"state_code":"GUA","state_name":"Guanajuato","country_id":142,"country_code":"MX","country_name":"Mexico","latitude":"20.56778000","longitude":"-100.63361000","wikiDataId":"Q20142990"},{"id":73871,"Name":"San Juan Bautista Cacalote","state_id":3469,"state_code":"GUA","state_name":"Guanajuato","country_id":142,"country_code":"MX","country_name":"Mexico","latitude":"20.34806000","longitude":"-100.78833000","wikiDataId":"Q20143475"},{"id":73959,"Name":"San Juan de Abajo","state_id":3469,"state_code":"GUA","state_name":"Guanajuato","country_id":142,"country_code":"MX","country_name":"Mexico","latitude":"21.05623000","longitude":"-101.63544000","wikiDataId":"Q20264084"},{"id":73966,"Name":"San Juan de la Vega","state_id":3469,"state_code":"GUA","state_name":"Guanajuato","country_id":142,"country_code":"MX","country_name":"Mexico","latitude":"20.62521000","longitude":"-100.76141000","wikiDataId":"Q7414639"},{"id":73962,"Name":"San Juan de Otates","state_id":3469,"state_code":"GUA","state_name":"Guanajuato","country_id":142,"country_code":"MX","country_name":"Mexico","latitude":"21.11562000","longitude":"-101.55773000","wikiDataId":"Q3844941"},{"id":73974,"Name":"San Juan del Llanito","state_id":3469,"state_code":"GUA","state_name":"Guanajuato","country_id":142,"country_code":"MX","country_name":"Mexico","latitude":"20.51369000","longitude":"-100.53980000","wikiDataId":"Q1656559"},{"id":73893,"Name":"San Juan Grande","state_id":3469,"state_code":"GUA","state_name":"Guanajuato","country_id":142,"country_code":"MX","country_name":"Mexico","latitude":"20.37627000","longitude":"-101.52677000","wikiDataId":"Q20272500"},{"id":73903,"Name":"San Juan Jaripeo","state_id":3469,"state_code":"GUA","state_name":"Guanajuato","country_id":142,"country_code":"MX","country_name":"Mexico","latitude":"20.00601000","longitude":"-100.76052000","wikiDataId":"Q20240175"},{"id":73914,"Name":"San Juan Pan de Arriba","state_id":3469,"state_code":"GUA","state_name":"Guanajuato","country_id":142,"country_code":"MX","country_name":"Mexico","latitude":"21.47151000","longitude":"-100.92021000","wikiDataId":"Q3888616"},{"id":73991,"Name":"San Lorenzo","state_id":3469,"state_code":"GUA","state_name":"Guanajuato","country_id":142,"country_code":"MX","country_name":"Mexico","latitude":"20.46687000","longitude":"-100.71970000","wikiDataId":"Q3890961"},{"id":74023,"Name":"San Lucas","state_id":3469,"state_code":"GUA","state_name":"Guanajuato","country_id":142,"country_code":"MX","country_name":"Mexico","latitude":"20.29341000","longitude":"-100.55238000","wikiDataId":"Q3294614"},{"id":74060,"Name":"San Luis de la Paz","state_id":3469,"state_code":"GUA","state_name":"Guanajuato","country_id":142,"country_code":"MX","country_name":"Mexico","latitude":"21.29771000","longitude":"-100.51736000","wikiDataId":"Q20292996"},{"id":74228,"Name":"San Miguel de Allende","state_id":3469,"state_code":"GUA","state_name":"Guanajuato","country_id":142,"country_code":"MX","country_name":"Mexico","latitude":"20.91528000","longitude":"-100.74389000","wikiDataId":"Q753891"},{"id":74233,"Name":"San Miguel del Arenal","state_id":3469,"state_code":"GUA","state_name":"Guanajuato","country_id":142,"country_code":"MX","country_name":"Mexico","latitude":"20.99083000","longitude":"-101.48556000","wikiDataId":"Q20210287"},{"id":74176,"Name":"San Miguel Eménguaro","state_id":3469,"state_code":"GUA","state_name":"Guanajuato","country_id":142,"country_code":"MX","country_name":"Mexico","latitude":"20.16402000","longitude":"-100.88596000","wikiDataId":"Q3890953"},{"id":74191,"Name":"San Miguel Octopan","state_id":3469,"state_code":"GUA","state_name":"Guanajuato","country_id":142,"country_code":"MX","country_name":"Mexico","latitude":"20.57428000","longitude":"-100.74780000","wikiDataId":"Q20147160"},{"id":74270,"Name":"San Nicolás de la Condesa","state_id":3469,"state_code":"GUA","state_name":"Guanajuato","country_id":142,"country_code":"MX","country_name":"Mexico","latitude":"20.23259000","longitude":"-100.78108000","wikiDataId":"Q9073655"},{"id":74272,"Name":"San Nicolás de los Agustinos","state_id":3469,"state_code":"GUA","state_name":"Guanajuato","country_id":142,"country_code":"MX","country_name":"Mexico","latitude":"20.24614000","longitude":"-100.96679000","wikiDataId":"Q20147758"},{"id":74275,"Name":"San Nicolás del Cármen","state_id":3469,"state_code":"GUA","state_name":"Guanajuato","country_id":142,"country_code":"MX","country_name":"Mexico","latitude":"21.27405000","longitude":"-100.55032000","wikiDataId":"Q549962"},{"id":74258,"Name":"San Nicolás Parangueo","state_id":3469,"state_code":"GUA","state_name":"Guanajuato","country_id":142,"country_code":"MX","country_name":"Mexico","latitude":"20.39356000","longitude":"-101.25364000","wikiDataId":"Q20147741"},{"id":74263,"Name":"San Nicolás Temascatío","state_id":3469,"state_code":"GUA","state_name":"Guanajuato","country_id":142,"country_code":"MX","country_name":"Mexico","latitude":"20.72486000","longitude":"-101.24874000","wikiDataId":"Q20147816"},{"id":74298,"Name":"San Pablo Pejo","state_id":3469,"state_code":"GUA","state_name":"Guanajuato","country_id":142,"country_code":"MX","country_name":"Mexico","latitude":"20.03375000","longitude":"-100.93763000","wikiDataId":"Q284128"},{"id":74404,"Name":"San Pedro de Ibarra","state_id":3469,"state_code":"GUA","state_name":"Guanajuato","country_id":142,"country_code":"MX","country_name":"Mexico","latitude":"21.48320000","longitude":"-101.54046000","wikiDataId":"Q20240295"},{"id":74409,"Name":"San Pedro de los Naranjos","state_id":3469,"state_code":"GUA","state_name":"Guanajuato","country_id":142,"country_code":"MX","country_name":"Mexico","latitude":"20.22716000","longitude":"-100.93782000","wikiDataId":"Q20294630"},{"id":74378,"Name":"San Pedro Tenango","state_id":3469,"state_code":"GUA","state_name":"Guanajuato","country_id":142,"country_code":"MX","country_name":"Mexico","latitude":"20.50769000","longitude":"-100.63247000","wikiDataId":"Q20231859"},{"id":74440,"Name":"San Roque","state_id":3469,"state_code":"GUA","state_name":"Guanajuato","country_id":142,"country_code":"MX","country_name":"Mexico","latitude":"20.59966000","longitude":"-101.34182000","wikiDataId":"Q4497283"},{"id":74442,"Name":"San Roque de Montes","state_id":3469,"state_code":"GUA","state_name":"Guanajuato","country_id":142,"country_code":"MX","country_name":"Mexico","latitude":"21.01000000","longitude":"-101.81083000","wikiDataId":"Q20295297"},{"id":74443,"Name":"San Roque de Torres","state_id":3469,"state_code":"GUA","state_name":"Guanajuato","country_id":142,"country_code":"MX","country_name":"Mexico","latitude":"20.97138000","longitude":"-101.85290000","wikiDataId":"Q20210343"},{"id":74450,"Name":"San Salvador Torrecillas","state_id":3469,"state_code":"GUA","state_name":"Guanajuato","country_id":142,"country_code":"MX","country_name":"Mexico","latitude":"20.55981000","longitude":"-100.95784000","wikiDataId":"Q20295356"},{"id":74478,"Name":"San Sebastián de Salitre","state_id":3469,"state_code":"GUA","state_name":"Guanajuato","country_id":142,"country_code":"MX","country_name":"Mexico","latitude":"21.10278000","longitude":"-100.48086000","wikiDataId":"Q20231890"},{"id":74494,"Name":"San Vicente","state_id":3469,"state_code":"GUA","state_name":"Guanajuato","country_id":142,"country_code":"MX","country_name":"Mexico","latitude":"20.82864000","longitude":"-101.34130000","wikiDataId":"Q20295752"},{"id":74507,"Name":"San Vicente de Flores","state_id":3469,"state_code":"GUA","state_name":"Guanajuato","country_id":142,"country_code":"MX","country_name":"Mexico","latitude":"20.62172000","longitude":"-101.25296000","wikiDataId":"Q20295627"},{"id":74523,"Name":"Santa Ana","state_id":3469,"state_code":"GUA","state_name":"Guanajuato","country_id":142,"country_code":"MX","country_name":"Mexico","latitude":"21.05917000","longitude":"-101.67583000","wikiDataId":"Q20296010"},{"id":74544,"Name":"Santa Ana Pacueco","state_id":3469,"state_code":"GUA","state_name":"Guanajuato","country_id":142,"country_code":"MX","country_name":"Mexico","latitude":"20.34722000","longitude":"-102.01583000","wikiDataId":"Q6120236"},{"id":74558,"Name":"Santa Anita","state_id":3469,"state_code":"GUA","state_name":"Guanajuato","country_id":142,"country_code":"MX","country_name":"Mexico","latitude":"20.47028000","longitude":"-100.81500000","wikiDataId":"Q20296094"},