[{"id":103004,"Name":"Ankarsrum","state_id":1544,"state_code":"H","state_name":"Kalmar County","country_id":213,"country_code":"SE","country_name":"Sweden","latitude":"57.69896000","longitude":"16.33407000","wikiDataId":"Q556590"},{"id":103035,"Name":"Bergkvara","state_id":1544,"state_code":"H","state_name":"Kalmar County","country_id":213,"country_code":"SE","country_name":"Sweden","latitude":"56.39063000","longitude":"16.07274000","wikiDataId":"Q2570136"},{"id":103059,"Name":"Blomstermåla","state_id":1544,"state_code":"H","state_name":"Kalmar County","country_id":213,"country_code":"SE","country_name":"Sweden","latitude":"56.98333000","longitude":"16.33333000","wikiDataId":"Q2861150"},{"id":103073,"Name":"Borgholm","state_id":1544,"state_code":"H","state_name":"Kalmar County","country_id":213,"country_code":"SE","country_name":"Sweden","latitude":"56.87930000","longitude":"16.65634000","wikiDataId":"Q893554"},{"id":103140,"Name":"Emmaboda","state_id":1544,"state_code":"H","state_name":"Kalmar County","country_id":213,"country_code":"SE","country_name":"Sweden","latitude":"56.63268000","longitude":"15.53648000","wikiDataId":"Q1338169"},{"id":103194,"Name":"Färjestaden","state_id":1544,"state_code":"H","state_name":"Kalmar County","country_id":213,"country_code":"SE","country_name":"Sweden","latitude":"56.64990000","longitude":"16.46859000","wikiDataId":"Q1478888"},{"id":103201,"Name":"Gamleby","state_id":1544,"state_code":"H","state_name":"Kalmar County","country_id":213,"country_code":"SE","country_name":"Sweden","latitude":"57.89485000","longitude":"16.40508000","wikiDataId":"Q2670538"},{"id":103234,"Name":"Gunnebo","state_id":1544,"state_code":"H","state_name":"Kalmar County","country_id":213,"country_code":"SE","country_name":"Sweden","latitude":"57.71667000","longitude":"16.53333000","wikiDataId":"Q2239257"},{"id":103331,"Name":"Högsby","state_id":1544,"state_code":"H","state_name":"Kalmar County","country_id":213,"country_code":"SE","country_name":"Sweden","latitude":"57.16597000","longitude":"16.02562000","wikiDataId":"Q1572742"},{"id":103307,"Name":"Hultsfred","state_id":1544,"state_code":"H","state_name":"Kalmar County","country_id":213,"country_code":"SE","country_name":"Sweden","latitude":"57.48815000","longitude":"15.84357000","wikiDataId":"Q1636399"},{"id":103372,"Name":"Kalmar","state_id":1544,"state_code":"H","state_name":"Kalmar County","country_id":213,"country_code":"SE","country_name":"Sweden","latitude":"56.66157000","longitude":"16.36163000","wikiDataId":"Q26345"},{"id":103413,"Name":"Kristdala","state_id":1544,"state_code":"H","state_name":"Kalmar County","country_id":213,"country_code":"SE","country_name":"Sweden","latitude":"57.40070000","longitude":"16.20496000","wikiDataId":"Q3353573"},{"id":103473,"Name":"Lindsdal","state_id":1544,"state_code":"H","state_name":"Kalmar County","country_id":213,"country_code":"SE","country_name":"Sweden","latitude":"56.73333000","longitude":"16.30000000","wikiDataId":"Q1826326"},{"id":103481,"Name":"Ljungbyholm","state_id":1544,"state_code":"H","state_name":"Kalmar County","country_id":213,"country_code":"SE","country_name":"Sweden","latitude":"56.63333000","longitude":"16.16667000","wikiDataId":"Q2376187"},{"id":103559,"Name":"Målilla","state_id":1544,"state_code":"H","state_name":"Kalmar County","country_id":213,"country_code":"SE","country_name":"Sweden","latitude":"57.38773000","longitude":"15.80675000","wikiDataId":"Q1957597"},{"id":103565,"Name":"Mönsterås","state_id":1544,"state_code":"H","state_name":"Kalmar County","country_id":213,"country_code":"SE","country_name":"Sweden","latitude":"57.04134000","longitude":"16.44463000","wikiDataId":"Q599114"},{"id":103568,"Name":"Mörbylånga","state_id":1544,"state_code":"H","state_name":"Kalmar County","country_id":213,"country_code":"SE","country_name":"Sweden","latitude":"56.52480000","longitude":"16.37877000","wikiDataId":"Q1641531"},{"id":103593,"Name":"Nybro","state_id":1544,"state_code":"H","state_name":"Kalmar County","country_id":213,"country_code":"SE","country_name":"Sweden","latitude":"56.74461000","longitude":"15.90714000","wikiDataId":"Q930238"},{"id":103623,"Name":"Oskarshamn","state_id":1544,"state_code":"H","state_name":"Kalmar County","country_id":213,"country_code":"SE","country_name":"Sweden","latitude":"57.26455000","longitude":"16.44837000","wikiDataId":"Q654268"},{"id":104056,"Name":"Överum","state_id":1544,"state_code":"H","state_name":"Kalmar County","country_id":213,"country_code":"SE","country_name":"Sweden","latitude":"57.98856000","longitude":"16.31390000","wikiDataId":"Q3131205"},{"id":103641,"Name":"Påskallavik","state_id":1544,"state_code":"H","state_name":"Kalmar County","country_id":213,"country_code":"SE","country_name":"Sweden","latitude":"57.16667000","longitude":"16.45000000","wikiDataId":"Q2443421"},{"id":103649,"Name":"Rinkabyholm","state_id":1544,"state_code":"H","state_name":"Kalmar County","country_id":213,"country_code":"SE","country_name":"Sweden","latitude":"56.64972000","longitude":"16.26667000","wikiDataId":"Q3353656"},{"id":103727,"Name":"Smedby","state_id":1544,"state_code":"H","state_name":"Kalmar County","country_id":213,"country_code":"SE","country_name":"Sweden","latitude":"56.67413000","longitude":"16.24320000","wikiDataId":"Q2490965"},{"id":103827,"Name":"Södra Sandby","state_id":1544,"state_code":"H","state_name":"Kalmar County","country_id":213,"country_code":"SE","country_name":"Sweden","latitude":"56.56667000","longitude":"16.61667000","wikiDataId":"Q569800"},{"id":103829,"Name":"Södra Vi","state_id":1544,"state_code":"H","state_name":"Kalmar County","country_id":213,"country_code":"SE","country_name":"Sweden","latitude":"57.73993000","longitude":"15.79391000","wikiDataId":"Q2104311"},{"id":103762,"Name":"Storebro","state_id":1544,"state_code":"H","state_name":"Kalmar County","country_id":213,"country_code":"SE","country_name":"Sweden","latitude":"57.58333000","longitude":"15.85000000","wikiDataId":"Q933517"},{"id":103849,"Name":"Timmernabben","state_id":1544,"state_code":"H","state_name":"Kalmar County","country_id":213,"country_code":"SE","country_name":"Sweden","latitude":"56.96667000","longitude":"16.43333000","wikiDataId":"Q2557336"},{"id":103866,"Name":"Torsås","state_id":1544,"state_code":"H","state_name":"Kalmar County","country_id":213,"country_code":"SE","country_name":"Sweden","latitude":"56.41251000","longitude":"15.99844000","wikiDataId":"Q28154"},{"id":103873,"Name":"Trekanten","state_id":1544,"state_code":"H","state_name":"Kalmar County","country_id":213,"country_code":"SE","country_name":"Sweden","latitude":"56.70000000","longitude":"16.11667000","wikiDataId":"Q3354211"},{"id":103970,"Name":"Västervik","state_id":1544,"state_code":"H","state_name":"Kalmar County","country_id":213,"country_code":"SE","country_name":"Sweden","latitude":"57.75840000","longitude":"16.63733000","wikiDataId":"Q54764"},{"id":103947,"Name":"Vimmerby","state_id":1544,"state_code":"H","state_name":"Kalmar County","country_id":213,"country_code":"SE","country_name":"Sweden","latitude":"57.66588000","longitude":"15.85515000","wikiDataId":"Q634231"},{"id":103956,"Name":"Virserum","state_id":1544,"state_code":"H","state_name":"Kalmar County","country_id":213,"country_code":"SE","country_name":"Sweden","latitude":"57.31667000","longitude":"15.58333000","wikiDataId":"Q254017"}]