[{"id":19290,"Name":"Anyang","state_id":2259,"state_code":"HA","state_name":"Henan","country_id":45,"country_code":"CN","country_name":"China","latitude":"36.09600000","longitude":"114.38278000","wikiDataId":"Q486149"},{"id":19291,"Name":"Anyang Shi","state_id":2259,"state_code":"HA","state_name":"Henan","country_id":45,"country_code":"CN","country_name":"China","latitude":"36.13639000","longitude":"114.33667000","wikiDataId":"Q324293"},{"id":19342,"Name":"Binhe","state_id":2259,"state_code":"HA","state_name":"Henan","country_id":45,"country_code":"CN","country_name":"China","latitude":"32.68833000","longitude":"112.82750000","wikiDataId":"Q486319"},{"id":19388,"Name":"Chengguan","state_id":2259,"state_code":"HA","state_name":"Henan","country_id":45,"country_code":"CN","country_name":"China","latitude":"35.45861000","longitude":"113.79778000","wikiDataId":"Q1207058"},{"id":19390,"Name":"Chengjiao","state_id":2259,"state_code":"HA","state_name":"Henan","country_id":45,"country_code":"CN","country_name":"China","latitude":"35.40495000","longitude":"114.06043000","wikiDataId":"Q1344805"},{"id":19428,"Name":"Daokou","state_id":2259,"state_code":"HA","state_name":"Henan","country_id":45,"country_code":"CN","country_name":"China","latitude":"35.56389000","longitude":"114.50583000","wikiDataId":"Q75110"},{"id":19456,"Name":"Dingcheng","state_id":2259,"state_code":"HA","state_name":"Henan","country_id":45,"country_code":"CN","country_name":"China","latitude":"32.12722000","longitude":"115.03944000","wikiDataId":"Q162880"},{"id":19594,"Name":"Hancheng","state_id":2259,"state_code":"HA","state_name":"Henan","country_id":45,"country_code":"CN","country_name":"China","latitude":"32.51861000","longitude":"112.35222000","wikiDataId":"Q286266"},{"id":19602,"Name":"Hebi","state_id":2259,"state_code":"HA","state_name":"Henan","country_id":45,"country_code":"CN","country_name":"China","latitude":"35.89917000","longitude":"114.19250000","wikiDataId":"Q404301"},{"id":19638,"Name":"Huaidian","state_id":2259,"state_code":"HA","state_name":"Henan","country_id":45,"country_code":"CN","country_name":"China","latitude":"33.43333000","longitude":"115.03333000","wikiDataId":"Q360268"},{"id":19670,"Name":"Huazhou","state_id":2259,"state_code":"HA","state_name":"Henan","country_id":45,"country_code":"CN","country_name":"China","latitude":"32.68222000","longitude":"112.08194000","wikiDataId":"Q1187144"},{"id":19671,"Name":"Huichang","state_id":2259,"state_code":"HA","state_name":"Henan","country_id":45,"country_code":"CN","country_name":"China","latitude":"34.90376000","longitude":"112.78426000","wikiDataId":"Q1198787"},{"id":19708,"Name":"Jianshe","state_id":2259,"state_code":"HA","state_name":"Henan","country_id":45,"country_code":"CN","country_name":"China","latitude":"34.21750000","longitude":"113.76889000","wikiDataId":"Q1062018"},{"id":19712,"Name":"Jiaozuo","state_id":2259,"state_code":"HA","state_name":"Henan","country_id":45,"country_code":"CN","country_name":"China","latitude":"35.23972000","longitude":"113.23306000","wikiDataId":"Q404429"},{"id":19754,"Name":"Jishui","state_id":2259,"state_code":"HA","state_name":"Henan","country_id":45,"country_code":"CN","country_name":"China","latitude":"33.73333000","longitude":"115.40000000","wikiDataId":"Q28996"},{"id":19761,"Name":"Jiyuan","state_id":2259,"state_code":"HA","state_name":"Henan","country_id":45,"country_code":"CN","country_name":"China","latitude":"35.09000000","longitude":"112.58000000","wikiDataId":"Q997623"},{"id":19766,"Name":"Kaifeng","state_id":2259,"state_code":"HA","state_name":"Henan","country_id":45,"country_code":"CN","country_name":"China","latitude":"34.79860000","longitude":"114.30742000","wikiDataId":"Q208471"},{"id":19769,"Name":"Kaiyuan","state_id":2259,"state_code":"HA","state_name":"Henan","country_id":45,"country_code":"CN","country_name":"China","latitude":"36.06813000","longitude":"113.82209000","wikiDataId":"Q1198639"},{"id":19839,"Name":"Lingbao Chengguanzhen","state_id":2259,"state_code":"HA","state_name":"Henan","country_id":45,"country_code":"CN","country_name":"China","latitude":"34.51972000","longitude":"110.86444000","wikiDataId":"Q1198819"},{"id":19883,"Name":"Luohe","state_id":2259,"state_code":"HA","state_name":"Henan","country_id":45,"country_code":"CN","country_name":"China","latitude":"33.56394000","longitude":"114.04272000","wikiDataId":"Q404599"},{"id":19884,"Name":"Luohe Shi","state_id":2259,"state_code":"HA","state_name":"Henan","country_id":45,"country_code":"CN","country_name":"China","latitude":"33.68806000","longitude":"113.91306000","wikiDataId":"Q404599"},{"id":19889,"Name":"Luoyang","state_id":2259,"state_code":"HA","state_name":"Henan","country_id":45,"country_code":"CN","country_name":"China","latitude":"34.68361000","longitude":"112.45361000","wikiDataId":"Q187136"},{"id":19918,"Name":"Minggang","state_id":2259,"state_code":"HA","state_name":"Henan","country_id":45,"country_code":"CN","country_name":"China","latitude":"32.45861000","longitude":"114.04861000","wikiDataId":"Q426130"},{"id":19950,"Name":"Nanyang","state_id":2259,"state_code":"HA","state_name":"Henan","country_id":45,"country_code":"CN","country_name":"China","latitude":"32.99472000","longitude":"112.53278000","wikiDataId":"Q404763"},{"id":19977,"Name":"Pingdingshan","state_id":2259,"state_code":"HA","state_name":"Henan","country_id":45,"country_code":"CN","country_name":"China","latitude":"33.73847000","longitude":"113.30119000","wikiDataId":"Q404116"},{"id":20000,"Name":"Puyang Chengguanzhen","state_id":2259,"state_code":"HA","state_name":"Henan","country_id":45,"country_code":"CN","country_name":"China","latitude":"35.70506000","longitude":"115.01409000","wikiDataId":"Q404484"},{"id":20001,"Name":"Puyang Shi","state_id":2259,"state_code":"HA","state_name":"Henan","country_id":45,"country_code":"CN","country_name":"China","latitude":"35.81333000","longitude":"115.15500000","wikiDataId":"Q404484"},{"id":20021,"Name":"Qingping","state_id":2259,"state_code":"HA","state_name":"Henan","country_id":45,"country_code":"CN","country_name":"China","latitude":"34.53656000","longitude":"113.37526000","wikiDataId":"Q1337399"},{"id":20045,"Name":"Runing","state_id":2259,"state_code":"HA","state_name":"Henan","country_id":45,"country_code":"CN","country_name":"China","latitude":"33.00111000","longitude":"114.35417000","wikiDataId":"Q1023796"},{"id":20048,"Name":"Ruzhou","state_id":2259,"state_code":"HA","state_name":"Henan","country_id":45,"country_code":"CN","country_name":"China","latitude":"34.16167000","longitude":"112.82972000","wikiDataId":"Q1207131"},{"id":20066,"Name":"Shangqiu","state_id":2259,"state_code":"HA","state_name":"Henan","country_id":45,"country_code":"CN","country_name":"China","latitude":"34.45000000","longitude":"115.65000000","wikiDataId":"Q404817"},{"id":20137,"Name":"Songyang","state_id":2259,"state_code":"HA","state_name":"Henan","country_id":45,"country_code":"CN","country_name":"China","latitude":"34.45528000","longitude":"113.02806000","wikiDataId":"Q877609"},{"id":20147,"Name":"Suohe","state_id":2259,"state_code":"HA","state_name":"Henan","country_id":45,"country_code":"CN","country_name":"China","latitude":"34.78722000","longitude":"113.35806000","wikiDataId":"Q1360089"},{"id":20166,"Name":"Tanbei","state_id":2259,"state_code":"HA","state_name":"Henan","country_id":45,"country_code":"CN","country_name":"China","latitude":"35.08806000","longitude":"112.93944000","wikiDataId":"Q1359226"},{"id":20205,"Name":"Wacheng","state_id":2259,"state_code":"HA","state_name":"Henan","country_id":45,"country_code":"CN","country_name":"China","latitude":"33.78333000","longitude":"114.51667000","wikiDataId":"Q335040"},{"id":20254,"Name":"Xiangcheng Chengguanzhen","state_id":2259,"state_code":"HA","state_name":"Henan","country_id":45,"country_code":"CN","country_name":"China","latitude":"33.84703000","longitude":"113.47780000","wikiDataId":"Q68744"},{"id":20289,"Name":"Xincheng","state_id":2259,"state_code":"HA","state_name":"Henan","country_id":45,"country_code":"CN","country_name":"China","latitude":"33.63333000","longitude":"115.18333000","wikiDataId":"Q1209464"},{"id":20298,"Name":"Xinhualu","state_id":2259,"state_code":"HA","state_name":"Henan","country_id":45,"country_code":"CN","country_name":"China","latitude":"34.39633000","longitude":"113.72466000","wikiDataId":"Q1024662"},{"id":20308,"Name":"Xinxiang","state_id":2259,"state_code":"HA","state_name":"Henan","country_id":45,"country_code":"CN","country_name":"China","latitude":"35.19033000","longitude":"113.80151000","wikiDataId":"Q404362"},{"id":20309,"Name":"Xinxiang Shi","state_id":2259,"state_code":"HA","state_name":"Henan","country_id":45,"country_code":"CN","country_name":"China","latitude":"35.30861000","longitude":"114.05111000","wikiDataId":"Q404362"},{"id":20311,"Name":"Xinyang","state_id":2259,"state_code":"HA","state_name":"Henan","country_id":45,"country_code":"CN","country_name":"China","latitude":"32.12278000","longitude":"114.06556000","wikiDataId":"Q404873"},{"id":20327,"Name":"Xixiang","state_id":2259,"state_code":"HA","state_name":"Henan","country_id":45,"country_code":"CN","country_name":"China","latitude":"35.16278000","longitude":"112.86500000","wikiDataId":"Q1359319"},{"id":20331,"Name":"Xuchang","state_id":2259,"state_code":"HA","state_name":"Henan","country_id":45,"country_code":"CN","country_name":"China","latitude":"34.03189000","longitude":"113.86299000","wikiDataId":"Q404529"},{"id":20332,"Name":"Xuchang Shi","state_id":2259,"state_code":"HA","state_name":"Henan","country_id":45,"country_code":"CN","country_name":"China","latitude":"34.14778000","longitude":"113.71472000","wikiDataId":"Q404529"},{"id":20338,"Name":"Yakou","state_id":2259,"state_code":"HA","state_name":"Henan","country_id":45,"country_code":"CN","country_name":"China","latitude":"33.29649000","longitude":"113.52351000","wikiDataId":"Q1296644"},{"id":20354,"Name":"Yanshi Chengguanzhen","state_id":2259,"state_code":"HA","state_name":"Henan","country_id":45,"country_code":"CN","country_name":"China","latitude":"34.71601000","longitude":"112.79568000","wikiDataId":"Q1337479"},{"id":20371,"Name":"Yigou","state_id":2259,"state_code":"HA","state_name":"Henan","country_id":45,"country_code":"CN","country_name":"China","latitude":"35.81139000","longitude":"114.31667000","wikiDataId":"Q349976"},{"id":20373,"Name":"Yima","state_id":2259,"state_code":"HA","state_name":"Henan","country_id":45,"country_code":"CN","country_name":"China","latitude":"34.73806000","longitude":"111.88389000","wikiDataId":"Q1311267"},{"id":20376,"Name":"Yingchuan","state_id":2259,"state_code":"HA","state_name":"Henan","country_id":45,"country_code":"CN","country_name":"China","latitude":"34.16278000","longitude":"113.46389000","wikiDataId":"Q1344848"},{"id":20403,"Name":"Yunyang","state_id":2259,"state_code":"HA","state_name":"Henan","country_id":45,"country_code":"CN","country_name":"China","latitude":"33.44743000","longitude":"112.71422000","wikiDataId":"Q59233"},{"id":20439,"Name":"Zhengzhou","state_id":2259,"state_code":"HA","state_name":"Henan","country_id":45,"country_code":"CN","country_name":"China","latitude":"34.75778000","longitude":"113.64861000","wikiDataId":"Q30340"},{"id":20460,"Name":"Zhoukou","state_id":2259,"state_code":"HA","state_name":"Henan","country_id":45,"country_code":"CN","country_name":"China","latitude":"33.63333000","longitude":"114.63333000","wikiDataId":"Q198061"},{"id":20470,"Name":"Zhumadian","state_id":2259,"state_code":"HA","state_name":"Henan","country_id":45,"country_code":"CN","country_name":"China","latitude":"32.97944000","longitude":"114.02944000","wikiDataId":"Q198222"},{"id":20471,"Name":"Zhumadian Shi","state_id":2259,"state_code":"HA","state_name":"Henan","country_id":45,"country_code":"CN","country_name":"China","latitude":"32.99417000","longitude":"114.06167000","wikiDataId":"Q198240"},{"id":20480,"Name":"Zijinglu","state_id":2259,"state_code":"HA","state_name":"Henan","country_id":45,"country_code":"CN","country_name":"China","latitude":"34.76000000","longitude":"112.97139000","wikiDataId":"Q1359997"}]