[{"id":65583,"Name":"Ar Rumaythīyah","state_id":973,"state_code":"HA","state_name":"Hawalli Governorate","country_id":117,"country_code":"KW","country_name":"Kuwait","latitude":"29.31167000","longitude":"48.07417000","wikiDataId":"Q27347097"},{"id":65585,"Name":"As Sālimīyah","state_id":973,"state_code":"HA","state_name":"Hawalli Governorate","country_id":117,"country_code":"KW","country_name":"Kuwait","latitude":"29.33389000","longitude":"48.07611000","wikiDataId":"Q3505782"},{"id":65588,"Name":"Bayān","state_id":973,"state_code":"HA","state_name":"Hawalli Governorate","country_id":117,"country_code":"KW","country_name":"Kuwait","latitude":"29.30320000","longitude":"48.04881000","wikiDataId":"Q3505782"},{"id":65593,"Name":"Ḩawallī","state_id":973,"state_code":"HA","state_name":"Hawalli Governorate","country_id":117,"country_code":"KW","country_name":"Kuwait","latitude":"29.33278000","longitude":"48.02861000","wikiDataId":"Q3235220"},{"id":65591,"Name":"Salwá","state_id":973,"state_code":"HA","state_name":"Hawalli Governorate","country_id":117,"country_code":"KW","country_name":"Kuwait","latitude":"29.29583000","longitude":"48.07861000","wikiDataId":"Q1179881"}]