[{"id":19282,"Name":"Anlu","state_id":2274,"state_code":"HB","state_name":"Hubei","country_id":45,"country_code":"CN","country_name":"China","latitude":"31.25750000","longitude":"113.67833000","wikiDataId":"Q557934"},{"id":19353,"Name":"Buhe","state_id":2274,"state_code":"HB","state_name":"Hubei","country_id":45,"country_code":"CN","country_name":"China","latitude":"30.28757000","longitude":"112.22979000","wikiDataId":"Q360769"},{"id":19355,"Name":"Caidian","state_id":2274,"state_code":"HB","state_name":"Hubei","country_id":45,"country_code":"CN","country_name":"China","latitude":"30.58333000","longitude":"114.03333000","wikiDataId":"Q360769"},{"id":19359,"Name":"Caohe","state_id":2274,"state_code":"HB","state_name":"Hubei","country_id":45,"country_code":"CN","country_name":"China","latitude":"30.22970000","longitude":"115.43346000","wikiDataId":"Q58695"},{"id":19396,"Name":"Chengzhong","state_id":2274,"state_code":"HB","state_name":"Hubei","country_id":45,"country_code":"CN","country_name":"China","latitude":"30.94454000","longitude":"113.55284000","wikiDataId":"Q61985"},{"id":19425,"Name":"Danjiangkou","state_id":2274,"state_code":"HB","state_name":"Hubei","country_id":45,"country_code":"CN","country_name":"China","latitude":"32.54278000","longitude":"111.50861000","wikiDataId":"Q75110"},{"id":19440,"Name":"Daye","state_id":2274,"state_code":"HB","state_name":"Hubei","country_id":45,"country_code":"CN","country_name":"China","latitude":"30.08333000","longitude":"114.95000000","wikiDataId":"Q1179105"},{"id":19486,"Name":"Duobao","state_id":2274,"state_code":"HB","state_name":"Hubei","country_id":45,"country_code":"CN","country_name":"China","latitude":"30.67000000","longitude":"112.68952000","wikiDataId":"Q713307"},{"id":19491,"Name":"Enshi","state_id":2274,"state_code":"HB","state_name":"Hubei","country_id":45,"country_code":"CN","country_name":"China","latitude":"30.30000000","longitude":"109.48333000","wikiDataId":"Q1028110"},{"id":19492,"Name":"Enshi Tujiazu Miaozu Zizhizhou","state_id":2274,"state_code":"HB","state_name":"Hubei","country_id":45,"country_code":"CN","country_name":"China","latitude":"30.19810000","longitude":"109.67555000","wikiDataId":"Q71415"},{"id":19495,"Name":"Ezhou","state_id":2274,"state_code":"HB","state_name":"Hubei","country_id":45,"country_code":"CN","country_name":"China","latitude":"30.40000000","longitude":"114.83333000","wikiDataId":"Q1001036"},{"id":19496,"Name":"Ezhou Shi","state_id":2274,"state_code":"HB","state_name":"Hubei","country_id":45,"country_code":"CN","country_name":"China","latitude":"30.48832000","longitude":"114.77979000","wikiDataId":"Q71305"},{"id":19507,"Name":"Fengkou","state_id":2274,"state_code":"HB","state_name":"Hubei","country_id":45,"country_code":"CN","country_name":"China","latitude":"30.08268000","longitude":"113.33346000","wikiDataId":"Q1362431"},{"id":19560,"Name":"Guangshui","state_id":2274,"state_code":"HB","state_name":"Hubei","country_id":45,"country_code":"CN","country_name":"China","latitude":"31.61990000","longitude":"113.99780000","wikiDataId":"Q1004248"},{"id":19567,"Name":"Gucheng Chengguanzhen","state_id":2274,"state_code":"HB","state_name":"Hubei","country_id":45,"country_code":"CN","country_name":"China","latitude":"32.26604000","longitude":"111.63476000","wikiDataId":"Q1025444"},{"id":19596,"Name":"Hanchuan","state_id":2274,"state_code":"HB","state_name":"Hubei","country_id":45,"country_code":"CN","country_name":"China","latitude":"30.65000000","longitude":"113.76667000","wikiDataId":"Q577415"},{"id":19647,"Name":"Huanggang","state_id":2274,"state_code":"HB","state_name":"Hubei","country_id":45,"country_code":"CN","country_name":"China","latitude":"30.45143000","longitude":"114.87035000","wikiDataId":"Q71355"},{"id":19651,"Name":"Huangmei","state_id":2274,"state_code":"HB","state_name":"Hubei","country_id":45,"country_code":"CN","country_name":"China","latitude":"30.19235000","longitude":"116.02496000","wikiDataId":"Q71355"},{"id":19654,"Name":"Huangpi","state_id":2274,"state_code":"HB","state_name":"Hubei","country_id":45,"country_code":"CN","country_name":"China","latitude":"30.88453000","longitude":"114.37789000","wikiDataId":"Q130023"},{"id":19658,"Name":"Huangshi","state_id":2274,"state_code":"HB","state_name":"Hubei","country_id":45,"country_code":"CN","country_name":"China","latitude":"30.24706000","longitude":"115.04814000","wikiDataId":"Q71204"},{"id":19663,"Name":"Huangzhou","state_id":2274,"state_code":"HB","state_name":"Hubei","country_id":45,"country_code":"CN","country_name":"China","latitude":"30.45000000","longitude":"114.80000000","wikiDataId":"Q71204"},{"id":19735,"Name":"Jingling","state_id":2274,"state_code":"HB","state_name":"Hubei","country_id":45,"country_code":"CN","country_name":"China","latitude":"30.65000000","longitude":"113.10000000","wikiDataId":"Q428587"},{"id":19736,"Name":"Jingmen","state_id":2274,"state_code":"HB","state_name":"Hubei","country_id":45,"country_code":"CN","country_name":"China","latitude":"31.03361000","longitude":"112.20472000","wikiDataId":"Q71323"},{"id":19737,"Name":"Jingmen Shi","state_id":2274,"state_code":"HB","state_name":"Hubei","country_id":45,"country_code":"CN","country_name":"China","latitude":"31.11244000","longitude":"112.64310000","wikiDataId":"Q71323"},{"id":19738,"Name":"Jingzhou","state_id":2274,"state_code":"HB","state_name":"Hubei","country_id":45,"country_code":"CN","country_name":"China","latitude":"30.35028000","longitude":"112.19028000","wikiDataId":"Q71247"},{"id":19805,"Name":"Laohekou","state_id":2274,"state_code":"HB","state_name":"Hubei","country_id":45,"country_code":"CN","country_name":"China","latitude":"32.38583000","longitude":"111.66778000","wikiDataId":"Q1359204"},{"id":19834,"Name":"Lichuan","state_id":2274,"state_code":"HB","state_name":"Hubei","country_id":45,"country_code":"CN","country_name":"China","latitude":"30.30000000","longitude":"108.85000000","wikiDataId":"Q1365505"},{"id":19900,"Name":"Macheng","state_id":2274,"state_code":"HB","state_name":"Hubei","country_id":45,"country_code":"CN","country_name":"China","latitude":"31.18013000","longitude":"115.02213000","wikiDataId":"Q73186"},{"id":19951,"Name":"Nanzhang Chengguanzhen","state_id":2274,"state_code":"HB","state_name":"Hubei","country_id":45,"country_code":"CN","country_name":"China","latitude":"31.78394000","longitude":"111.82752000","wikiDataId":"Q404763"},{"id":19997,"Name":"Puqi","state_id":2274,"state_code":"HB","state_name":"Hubei","country_id":45,"country_code":"CN","country_name":"China","latitude":"29.71667000","longitude":"113.88333000","wikiDataId":"Q1346536"},{"id":20008,"Name":"Qianjiang","state_id":2274,"state_code":"HB","state_name":"Hubei","country_id":45,"country_code":"CN","country_name":"China","latitude":"30.42100000","longitude":"112.89190000","wikiDataId":"Q71489"},{"id":20022,"Name":"Qingquan","state_id":2274,"state_code":"HB","state_name":"Hubei","country_id":45,"country_code":"CN","country_name":"China","latitude":"30.45113000","longitude":"115.25593000","wikiDataId":"Q1337399"},{"id":20085,"Name":"Shashi","state_id":2274,"state_code":"HB","state_name":"Hubei","country_id":45,"country_code":"CN","country_name":"China","latitude":"30.30722000","longitude":"112.24472000","wikiDataId":"Q777171"},{"id":20089,"Name":"Shennongjia","state_id":2274,"state_code":"HB","state_name":"Hubei","country_id":45,"country_code":"CN","country_name":"China","latitude":"31.58339000","longitude":"110.49720000","wikiDataId":"Q1359055"},{"id":20109,"Name":"Shiyan","state_id":2274,"state_code":"HB","state_name":"Hubei","country_id":45,"country_code":"CN","country_name":"China","latitude":"32.64750000","longitude":"110.77806000","wikiDataId":"Q71227"},{"id":20145,"Name":"Suizhou","state_id":2274,"state_code":"HB","state_name":"Hubei","country_id":45,"country_code":"CN","country_name":"China","latitude":"31.71111000","longitude":"113.36306000","wikiDataId":"Q71401"},{"id":20233,"Name":"Wuhan","state_id":2274,"state_code":"HB","state_name":"Hubei","country_id":45,"country_code":"CN","country_name":"China","latitude":"30.58333000","longitude":"114.26667000","wikiDataId":"Q11746"},{"id":20240,"Name":"Wuxue","state_id":2274,"state_code":"HB","state_name":"Hubei","country_id":45,"country_code":"CN","country_name":"China","latitude":"29.85058000","longitude":"115.55250000","wikiDataId":"Q1367949"},{"id":20258,"Name":"Xiangyang","state_id":2274,"state_code":"HB","state_name":"Hubei","country_id":45,"country_code":"CN","country_name":"China","latitude":"32.04220000","longitude":"112.14479000","wikiDataId":"Q71284"},{"id":20261,"Name":"Xianning","state_id":2274,"state_code":"HB","state_name":"Hubei","country_id":45,"country_code":"CN","country_name":"China","latitude":"29.84347000","longitude":"114.32201000","wikiDataId":"Q71284"},{"id":20262,"Name":"Xianning Prefecture","state_id":2274,"state_code":"HB","state_name":"Hubei","country_id":45,"country_code":"CN","country_name":"China","latitude":"29.66609000","longitude":"114.26389000","wikiDataId":"Q71373"},{"id":20266,"Name":"Xiantao","state_id":2274,"state_code":"HB","state_name":"Hubei","country_id":45,"country_code":"CN","country_name":"China","latitude":"30.37080000","longitude":"113.44294000","wikiDataId":"Q71455"},{"id":20269,"Name":"Xiaogan","state_id":2274,"state_code":"HB","state_name":"Hubei","country_id":45,"country_code":"CN","country_name":"China","latitude":"30.92689000","longitude":"113.92221000","wikiDataId":"Q71339"},{"id":20282,"Name":"Xihe","state_id":2274,"state_code":"HB","state_name":"Hubei","country_id":45,"country_code":"CN","country_name":"China","latitude":"31.68635000","longitude":"113.46585000","wikiDataId":"Q224603"},{"id":20290,"Name":"Xindi","state_id":2274,"state_code":"HB","state_name":"Hubei","country_id":45,"country_code":"CN","country_name":"China","latitude":"29.81667000","longitude":"113.46667000","wikiDataId":"Q1209464"},{"id":20305,"Name":"Xinshi","state_id":2274,"state_code":"HB","state_name":"Hubei","country_id":45,"country_code":"CN","country_name":"China","latitude":"31.04704000","longitude":"113.14098000","wikiDataId":"Q1362055"},{"id":20317,"Name":"Xinzhou","state_id":2274,"state_code":"HB","state_name":"Hubei","country_id":45,"country_code":"CN","country_name":"China","latitude":"30.86667000","longitude":"114.80000000","wikiDataId":"Q362959"},{"id":20323,"Name":"Xiulin","state_id":2274,"state_code":"HB","state_name":"Hubei","country_id":45,"country_code":"CN","country_name":"China","latitude":"29.71667000","longitude":"112.40000000","wikiDataId":"Q1359319"},{"id":20366,"Name":"Yichang","state_id":2274,"state_code":"HB","state_name":"Hubei","country_id":45,"country_code":"CN","country_name":"China","latitude":"30.71444000","longitude":"111.28472000","wikiDataId":"Q71266"},{"id":20367,"Name":"Yicheng","state_id":2274,"state_code":"HB","state_name":"Hubei","country_id":45,"country_code":"CN","country_name":"China","latitude":"31.70472000","longitude":"112.25611000","wikiDataId":"Q71266"},{"id":20402,"Name":"Yunmeng Chengguanzhen","state_id":2274,"state_code":"HB","state_name":"Hubei","country_id":45,"country_code":"CN","country_name":"China","latitude":"31.06251000","longitude":"113.76545000","wikiDataId":"Q59233"},{"id":20414,"Name":"Zaoyang","state_id":2274,"state_code":"HB","state_name":"Hubei","country_id":45,"country_code":"CN","country_name":"China","latitude":"32.12722000","longitude":"112.75417000","wikiDataId":"Q147171"},{"id":20445,"Name":"Zhicheng","state_id":2274,"state_code":"HB","state_name":"Hubei","country_id":45,"country_code":"CN","country_name":"China","latitude":"30.29556000","longitude":"111.50472000","wikiDataId":"Q1375588"},{"id":20446,"Name":"Zhijiang","state_id":2274,"state_code":"HB","state_name":"Hubei","country_id":45,"country_code":"CN","country_name":"China","latitude":"30.42139000","longitude":"111.75333000","wikiDataId":"Q197789"},{"id":20455,"Name":"Zhongxiang","state_id":2274,"state_code":"HB","state_name":"Hubei","country_id":45,"country_code":"CN","country_name":"China","latitude":"31.16611000","longitude":"112.58306000","wikiDataId":"Q197919"}]