[{"id":89871,"Name":"1 Decembrie","state_id":4725,"state_code":"IF","state_name":"Ilfov County","country_id":181,"country_code":"RO","country_name":"Romania","latitude":"44.29083000","longitude":"26.05806000","wikiDataId":"Q12719730"},{"id":89891,"Name":"Afumaţi","state_id":4725,"state_code":"IF","state_name":"Ilfov County","country_id":181,"country_code":"RO","country_name":"Romania","latitude":"44.51667000","longitude":"26.26667000","wikiDataId":"Q5060100"},{"id":89943,"Name":"Alunișu","state_id":4725,"state_code":"IF","state_name":"Ilfov County","country_id":181,"country_code":"RO","country_name":"Romania","latitude":"44.33883000","longitude":"26.05837000","wikiDataId":"Q12077791"},{"id":90521,"Name":"Bălăceanca","state_id":4725,"state_code":"IF","state_name":"Ilfov County","country_id":181,"country_code":"RO","country_name":"Romania","latitude":"44.39249000","longitude":"26.29009000","wikiDataId":"Q12081747"},{"id":90045,"Name":"Baloteşti","state_id":4725,"state_code":"IF","state_name":"Ilfov County","country_id":181,"country_code":"RO","country_name":"Romania","latitude":"44.61667000","longitude":"26.11667000","wikiDataId":"Q12080685"},{"id":90099,"Name":"Berceni","state_id":4725,"state_code":"IF","state_name":"Ilfov County","country_id":181,"country_code":"RO","country_name":"Romania","latitude":"44.31417000","longitude":"26.18556000","wikiDataId":"Q2090150"},{"id":90264,"Name":"Bragadiru","state_id":4725,"state_code":"IF","state_name":"Ilfov County","country_id":181,"country_code":"RO","country_name":"Romania","latitude":"44.37111000","longitude":"25.97750000","wikiDataId":"Q16898362"},{"id":90337,"Name":"Brăneşti","state_id":4725,"state_code":"IF","state_name":"Ilfov County","country_id":181,"country_code":"RO","country_name":"Romania","latitude":"44.45000000","longitude":"26.33333000","wikiDataId":"Q12084774"},{"id":90352,"Name":"Buciumeni","state_id":4725,"state_code":"IF","state_name":"Ilfov County","country_id":181,"country_code":"RO","country_name":"Romania","latitude":"44.54975000","longitude":"25.96419000","wikiDataId":"Q12086081"},{"id":90391,"Name":"Buftea","state_id":4725,"state_code":"IF","state_name":"Ilfov County","country_id":181,"country_code":"RO","country_name":"Romania","latitude":"44.56139000","longitude":"25.94889000","wikiDataId":"Q16898370"},{"id":90416,"Name":"Buriaș","state_id":4725,"state_code":"IF","state_name":"Ilfov County","country_id":181,"country_code":"RO","country_name":"Romania","latitude":"44.73304000","longitude":"25.98053000","wikiDataId":"Q12085879"},{"id":93824,"Name":"Căciulați","state_id":4725,"state_code":"IF","state_name":"Ilfov County","country_id":181,"country_code":"RO","country_name":"Romania","latitude":"44.62741000","longitude":"26.17255000","wikiDataId":"Q12109753"},{"id":93833,"Name":"Căldăraru","state_id":4725,"state_code":"IF","state_name":"Ilfov County","country_id":181,"country_code":"RO","country_name":"Romania","latitude":"44.41307000","longitude":"26.26313000","wikiDataId":"Q12109448"},{"id":93886,"Name":"Cățelu","state_id":4725,"state_code":"IF","state_name":"Ilfov County","country_id":181,"country_code":"RO","country_name":"Romania","latitude":"44.40292000","longitude":"26.21975000","wikiDataId":"Q12109742"},{"id":90635,"Name":"Cernica","state_id":4725,"state_code":"IF","state_name":"Ilfov County","country_id":181,"country_code":"RO","country_name":"Romania","latitude":"44.41667000","longitude":"26.28333000","wikiDataId":"Q2349589"},{"id":90662,"Name":"Chiajna","state_id":4725,"state_code":"IF","state_name":"Ilfov County","country_id":181,"country_code":"RO","country_name":"Romania","latitude":"44.46000000","longitude":"25.97333000","wikiDataId":"Q12116357"},{"id":90684,"Name":"Chitila","state_id":4725,"state_code":"IF","state_name":"Ilfov County","country_id":181,"country_code":"RO","country_name":"Romania","latitude":"44.50806000","longitude":"25.98222000","wikiDataId":"Q1067664"},{"id":90717,"Name":"Ciofliceni","state_id":4725,"state_code":"IF","state_name":"Ilfov County","country_id":181,"country_code":"RO","country_name":"Romania","latitude":"44.68122000","longitude":"26.11923000","wikiDataId":"Q12170676"},{"id":90720,"Name":"Ciolpani","state_id":4725,"state_code":"IF","state_name":"Ilfov County","country_id":181,"country_code":"RO","country_name":"Romania","latitude":"44.73333000","longitude":"26.08333000","wikiDataId":"Q12170439"},{"id":90726,"Name":"Ciorogârla","state_id":4725,"state_code":"IF","state_name":"Ilfov County","country_id":181,"country_code":"RO","country_name":"Romania","latitude":"44.44250000","longitude":"25.88333000","wikiDataId":"Q12170626"},{"id":90767,"Name":"Clinceni","state_id":4725,"state_code":"IF","state_name":"Ilfov County","country_id":181,"country_code":"RO","country_name":"Romania","latitude":"44.37333000","longitude":"25.95472000","wikiDataId":"Q12110632"},{"id":90816,"Name":"Comuna 1 Decembrie","state_id":4725,"state_code":"IF","state_name":"Ilfov County","country_id":181,"country_code":"RO","country_name":"Romania","latitude":"44.28869000","longitude":"26.06178000","wikiDataId":"Q1076455"},{"id":90828,"Name":"Comuna Afumaţi","state_id":4725,"state_code":"IF","state_name":"Ilfov County","country_id":181,"country_code":"RO","country_name":"Romania","latitude":"44.52501000","longitude":"26.24943000","wikiDataId":"Q2486305"},{"id":90927,"Name":"Comuna Baloteşti","state_id":4725,"state_code":"IF","state_name":"Ilfov County","country_id":181,"country_code":"RO","country_name":"Romania","latitude":"44.62026000","longitude":"26.08664000","wikiDataId":"Q2102634"},{"id":90961,"Name":"Comuna Berceni","state_id":4725,"state_code":"IF","state_name":"Ilfov County","country_id":181,"country_code":"RO","country_name":"Romania","latitude":"44.30887000","longitude":"26.19051000","wikiDataId":"Q12724532"},{"id":91123,"Name":"Comuna Brăneşti","state_id":4725,"state_code":"IF","state_name":"Ilfov County","country_id":181,"country_code":"RO","country_name":"Romania","latitude":"44.45362000","longitude":"26.34995000","wikiDataId":"Q1945915"},{"id":91293,"Name":"Comuna Cernica","state_id":4725,"state_code":"IF","state_name":"Ilfov County","country_id":181,"country_code":"RO","country_name":"Romania","latitude":"44.39343000","longitude":"26.28992000","wikiDataId":"Q5069842"},{"id":91311,"Name":"Comuna Chiajna","state_id":4725,"state_code":"IF","state_name":"Ilfov County","country_id":181,"country_code":"RO","country_name":"Romania","latitude":"44.45499000","longitude":"25.99345000","wikiDataId":"Q375699"},{"id":91350,"Name":"Comuna Ciolpani","state_id":4725,"state_code":"IF","state_name":"Ilfov County","country_id":181,"country_code":"RO","country_name":"Romania","latitude":"44.72603000","longitude":"26.10193000","wikiDataId":"Q617805"},{"id":91354,"Name":"Comuna Ciorogârla","state_id":4725,"state_code":"IF","state_name":"Ilfov County","country_id":181,"country_code":"RO","country_name":"Romania","latitude":"44.43222000","longitude":"25.87861000","wikiDataId":"Q513643"},{"id":91381,"Name":"Comuna Clinceni","state_id":4725,"state_code":"IF","state_name":"Ilfov County","country_id":181,"country_code":"RO","country_name":"Romania","latitude":"44.37639000","longitude":"25.92445000","wikiDataId":"Q1186391"},{"id":91420,"Name":"Comuna Copăceni","state_id":4725,"state_code":"IF","state_name":"Ilfov County","country_id":181,"country_code":"RO","country_name":"Romania","latitude":"44.26297000","longitude":"26.09374000","wikiDataId":"Q16426842"},{"id":91423,"Name":"Comuna Corbeanca","state_id":4725,"state_code":"IF","state_name":"Ilfov County","country_id":181,"country_code":"RO","country_name":"Romania","latitude":"44.59671000","longitude":"26.03241000","wikiDataId":"Q1573016"},{"id":91437,"Name":"Comuna Cornetu","state_id":4725,"state_code":"IF","state_name":"Ilfov County","country_id":181,"country_code":"RO","country_name":"Romania","latitude":"44.34286000","longitude":"25.92489000","wikiDataId":"Q1572924"},{"id":91746,"Name":"Comuna Dărăşti-Ilfov","state_id":4725,"state_code":"IF","state_name":"Ilfov County","country_id":181,"country_code":"RO","country_name":"Romania","latitude":"44.30912000","longitude":"26.02139000","wikiDataId":"Q16426849"},{"id":91605,"Name":"Comuna Dascălu Creaţa","state_id":4725,"state_code":"IF","state_name":"Ilfov County","country_id":181,"country_code":"RO","country_name":"Romania","latitude":"44.60008000","longitude":"26.24201000","wikiDataId":"Q16426845"},{"id":91658,"Name":"Comuna Domneşti","state_id":4725,"state_code":"IF","state_name":"Ilfov County","country_id":181,"country_code":"RO","country_name":"Romania","latitude":"44.39058000","longitude":"25.89492000","wikiDataId":"Q1653593"},{"id":91675,"Name":"Comuna Dragomireşti-Vale","state_id":4725,"state_code":"IF","state_name":"Ilfov County","country_id":181,"country_code":"RO","country_name":"Romania","latitude":"44.47555000","longitude":"25.93164000","wikiDataId":"Q3235782"},{"id":91801,"Name":"Comuna Fundeni-Dobroeşti","state_id":4725,"state_code":"IF","state_name":"Ilfov County","country_id":181,"country_code":"RO","country_name":"Romania","latitude":"44.45455000","longitude":"26.18368000","wikiDataId":"Q1653578"},{"id":91985,"Name":"Comuna Găneasa","state_id":4725,"state_code":"IF","state_name":"Ilfov County","country_id":181,"country_code":"RO","country_name":"Romania","latitude":"44.49447000","longitude":"26.29923000","wikiDataId":"Q2470085"},{"id":91880,"Name":"Comuna Glina","state_id":4725,"state_code":"IF","state_name":"Ilfov County","country_id":181,"country_code":"RO","country_name":"Romania","latitude":"44.38546000","longitude":"26.24582000","wikiDataId":"Q12096256"},{"id":91938,"Name":"Comuna Grădiştea","state_id":4725,"state_code":"IF","state_name":"Ilfov County","country_id":181,"country_code":"RO","country_name":"Romania","latitude":"44.66557000","longitude":"26.31448000","wikiDataId":"Q1653616"},{"id":91931,"Name":"Comuna Gruiu","state_id":4725,"state_code":"IF","state_name":"Ilfov County","country_id":181,"country_code":"RO","country_name":"Romania","latitude":"44.72648000","longitude":"26.22133000","wikiDataId":"Q1655321"},{"id":92123,"Name":"Comuna Jilava","state_id":4725,"state_code":"IF","state_name":"Ilfov County","country_id":181,"country_code":"RO","country_name":"Romania","latitude":"44.32863000","longitude":"26.07754000","wikiDataId":"Q1654950"},{"id":92313,"Name":"Comuna Moara Vlãsiei","state_id":4725,"state_code":"IF","state_name":"Ilfov County","country_id":181,"country_code":"RO","country_name":"Romania","latitude":"44.63416000","longitude":"26.18935000","wikiDataId":"Q1655134"},{"id":92321,"Name":"Comuna Mogoşoaia","state_id":4725,"state_code":"IF","state_name":"Ilfov County","country_id":181,"country_code":"RO","country_name":"Romania","latitude":"44.52903000","longitude":"26.00178000","wikiDataId":"Q1655392"},{"id":92455,"Name":"Comuna Nuci","state_id":4725,"state_code":"IF","state_name":"Ilfov County","country_id":181,"country_code":"RO","country_name":"Romania","latitude":"44.70910000","longitude":"26.31770000","wikiDataId":"Q2740633"},{"id":92553,"Name":"Comuna Periş","state_id":4725,"state_code":"IF","state_name":"Ilfov County","country_id":181,"country_code":"RO","country_name":"Romania","latitude":"44.70859000","longitude":"26.01472000","wikiDataId":"Q1656754"},{"id":92569,"Name":"Comuna Petrăchioaia","state_id":4725,"state_code":"IF","state_name":"Ilfov County","country_id":181,"country_code":"RO","country_name":"Romania","latitude":"44.57953000","longitude":"26.31114000","wikiDataId":"Q1703719"},{"id":92967,"Name":"Comuna Snagov","state_id":4725,"state_code":"IF","state_name":"Ilfov County","country_id":181,"country_code":"RO","country_name":"Romania","latitude":"44.68481000","longitude":"26.12384000","wikiDataId":"Q1682269"},{"id":93554,"Name":"Comuna Ştefãneştii De Jos","state_id":4725,"state_code":"IF","state_name":"Ilfov County","country_id":181,"country_code":"RO","country_name":"Romania","latitude":"44.53333000","longitude":"26.18333000","wikiDataId":"Q1999075"},{"id":93207,"Name":"Comuna Tunari","state_id":4725,"state_code":"IF","state_name":"Ilfov County","country_id":181,"country_code":"RO","country_name":"Romania","latitude":"44.56797000","longitude":"26.13908000","wikiDataId":"Q2490329"},{"id":93355,"Name":"Comuna Vidra","state_id":4725,"state_code":"IF","state_name":"Ilfov County","country_id":181,"country_code":"RO","country_name":"Romania","latitude":"44.28107000","longitude":"26.14310000","wikiDataId":"Q1707053"},{"id":93607,"Name":"Copăceni","state_id":4725,"state_code":"IF","state_name":"Ilfov County","country_id":181,"country_code":"RO","country_name":"Romania","latitude":"44.26297000","longitude":"26.09374000","wikiDataId":"Q1524225"},{"id":93612,"Name":"Corbeanca","state_id":4725,"state_code":"IF","state_name":"Ilfov County","country_id":181,"country_code":"RO","country_name":"Romania","latitude":"44.60000000","longitude":"26.05000000","wikiDataId":"Q12112765"},{"id":93633,"Name":"Cornetu","state_id":4725,"state_code":"IF","state_name":"Ilfov County","country_id":181,"country_code":"RO","country_name":"Romania","latitude":"44.34167000","longitude":"25.94083000","wikiDataId":"Q12112989"},{"id":93714,"Name":"Crețești","state_id":4725,"state_code":"IF","state_name":"Ilfov County","country_id":181,"country_code":"RO","country_name":"Romania","latitude":"44.28238000","longitude":"26.13530000","wikiDataId":"Q12114598"},{"id":94134,"Name":"Dărăşti-Ilfov","state_id":4725,"state_code":"IF","state_name":"Ilfov County","country_id":181,"country_code":"RO","country_name":"Romania","latitude":"44.30889000","longitude":"26.01833000","wikiDataId":"Q1653572"},{"id":94112,"Name":"Dârvari","state_id":4725,"state_code":"IF","state_name":"Ilfov County","country_id":181,"country_code":"RO","country_name":"Romania","latitude":"44.42108000","longitude":"25.87989000","wikiDataId":"Q12101155"},{"id":93897,"Name":"Dascălu","state_id":4725,"state_code":"IF","state_name":"Ilfov County","country_id":181,"country_code":"RO","country_name":"Romania","latitude":"44.60000000","longitude":"26.23333000","wikiDataId":"Q1653912"},{"id":93961,"Name":"Dobroeşti","state_id":4725,"state_code":"IF","state_name":"Ilfov County","country_id":181,"country_code":"RO","country_name":"Romania","latitude":"44.45000000","longitude":"26.18333000","wikiDataId":"Q12101557"},{"id":93991,"Name":"Domnești","state_id":4725,"state_code":"IF","state_name":"Ilfov County","country_id":181,"country_code":"RO","country_name":"Romania","latitude":"44.39919000","longitude":"25.91618000","wikiDataId":"Q12101936"},{"id":93990,"Name":"Domneşti-Sârbi","state_id":4725,"state_code":"IF","state_name":"Ilfov County","country_id":181,"country_code":"RO","country_name":"Romania","latitude":"44.38333000","longitude":"25.91667000","wikiDataId":"Q2348407"},{"id":94020,"Name":"Dragomirești-Deal","state_id":4725,"state_code":"IF","state_name":"Ilfov County","country_id":181,"country_code":"RO","country_name":"Romania","latitude":"44.46240000","longitude":"25.94478000","wikiDataId":"Q12102288"},{"id":94019,"Name":"Dragomireşti-Vale","state_id":4725,"state_code":"IF","state_name":"Ilfov County","country_id":181,"country_code":"RO","country_name":"Romania","latitude":"44.47500000","longitude":"25.93500000","wikiDataId":"Q1654023"},{"id":94226,"Name":"Fundeni","state_id":4725,"state_code":"IF","state_name":"Ilfov County","country_id":181,"country_code":"RO","country_name":"Romania","latitude":"44.45892000","longitude":"26.16565000","wikiDataId":"Q12166351"},{"id":94510,"Name":"Găneasa","state_id":4725,"state_code":"IF","state_name":"Ilfov County","country_id":181,"country_code":"RO","country_name":"Romania","latitude":"44.48333000","longitude":"26.28333000","wikiDataId":"Q1656427"},{"id":94309,"Name":"Ghermănești","state_id":4725,"state_code":"IF","state_name":"Ilfov County","country_id":181,"country_code":"RO","country_name":"Romania","latitude":"44.68829000","longitude":"26.14962000","wikiDataId":"Q12095840"},{"id":94358,"Name":"Glina","state_id":4725,"state_code":"IF","state_name":"Ilfov County","country_id":181,"country_code":"RO","country_name":"Romania","latitude":"44.38333000","longitude":"26.25000000","wikiDataId":"Q2605914"},{"id":94438,"Name":"Grădiştea","state_id":4725,"state_code":"IF","state_name":"Ilfov County","country_id":181,"country_code":"RO","country_name":"Romania","latitude":"44.66667000","longitude":"26.28333000","wikiDataId":"Q12097564"},{"id":94430,"Name":"Gruiu","state_id":4725,"state_code":"IF","state_name":"Ilfov County","country_id":181,"country_code":"RO","country_name":"Romania","latitude":"44.73333000","longitude":"26.23333000","wikiDataId":"Q12729584"},{"id":94690,"Name":"Islaz","state_id":4725,"state_code":"IF","state_name":"Ilfov County","country_id":181,"country_code":"RO","country_name":"Romania","latitude":"44.46117000","longitude":"26.38724000","wikiDataId":"Q12075057"},{"id":94736,"Name":"Jilava","state_id":4725,"state_code":"IF","state_name":"Ilfov County","country_id":181,"country_code":"RO","country_name":"Romania","latitude":"44.33333000","longitude":"26.07806000","wikiDataId":"Q1019174"},{"id":94800,"Name":"Lipia","state_id":4725,"state_code":"IF","state_name":"Ilfov County","country_id":181,"country_code":"RO","country_name":"Romania","latitude":"44.71003000","longitude":"26.26445000","wikiDataId":"Q12119795"},{"id":95243,"Name":"Măgurele","state_id":4725,"state_code":"IF","state_name":"Ilfov County","country_id":181,"country_code":"RO","country_name":"Romania","latitude":"44.35000000","longitude":"26.03333000","wikiDataId":"Q1161795"},{"id":94958,"Name":"Merii Petchii","state_id":4725,"state_code":"IF","state_name":"Ilfov County","country_id":181,"country_code":"RO","country_name":"Romania","latitude":"44.73532000","longitude":"26.30054000","wikiDataId":"Q12122795"},{"id":95043,"Name":"Moara Vlăsiei","state_id":4725,"state_code":"IF","state_name":"Ilfov County","country_id":181,"country_code":"RO","country_name":"Romania","latitude":"44.64090000","longitude":"26.20616000","wikiDataId":"Q1939409"},{"id":95055,"Name":"Mogoşoaia","state_id":4725,"state_code":"IF","state_name":"Ilfov County","country_id":181,"country_code":"RO","country_name":"Romania","latitude":"44.52917000","longitude":"26.00000000","wikiDataId":"Q2198143"},{"id":95361,"Name":"Nuci","state_id":4725,"state_code":"IF","state_name":"Ilfov County","country_id":181,"country_code":"RO","country_name":"Romania","latitude":"44.71667000","longitude":"26.30000000","wikiDataId":"Q1656404"},{"id":95431,"Name":"Olteni","state_id":4725,"state_code":"IF","state_name":"Ilfov County","country_id":181,"country_code":"RO","country_name":"Romania","latitude":"44.39307000","longitude":"25.95021000","wikiDataId":"Q12135765"},{"id":95469,"Name":"Oraş Bragadiru","state_id":4725,"state_code":"IF","state_name":"Ilfov County","country_id":181,"country_code":"RO","country_name":"Romania","latitude":"44.36998000","longitude":"25.97871000","wikiDataId":"Q168921"},{"id":95475,"Name":"Oraş Buftea","state_id":4725,"state_code":"IF","state_name":"Ilfov County","country_id":181,"country_code":"RO","country_name":"Romania","latitude":"44.55475000","longitude":"25.95628000","wikiDataId":"Q217131"},{"id":95491,"Name":"Oraş Chitila","state_id":4725,"state_code":"IF","state_name":"Ilfov County","country_id":181,"country_code":"RO","country_name":"Romania","latitude":"44.49053000","longitude":"25.97847000","wikiDataId":"Q169127"},{"id":95546,"Name":"Oraş Mãgurele","state_id":4725,"state_code":"IF","state_name":"Ilfov County","country_id":181,"country_code":"RO","country_name":"Romania","latitude":"44.33925000","longitude":"26.01403000","wikiDataId":"Q2198771"},{"id":95561,"Name":"Oraş Otopeni","state_id":4725,"state_code":"IF","state_name":"Ilfov County","country_id":181,"country_code":"RO","country_name":"Romania","latitude":"44.54217000","longitude":"26.06526000","wikiDataId":"Q727421"},{"id":95565,"Name":"Oraş Pantelimon","state_id":4725,"state_code":"IF","state_name":"Ilfov County","country_id":181,"country_code":"RO","country_name":"Romania","latitude":"44.45235000","longitude":"26.20684000","wikiDataId":"Q169135"},{"id":95571,"Name":"Oraş Popeşti Leordeni","state_id":4725,"state_code":"IF","state_name":"Ilfov County","country_id":181,"country_code":"RO","country_name":"Romania","latitude":"44.38005000","longitude":"26.17134000","wikiDataId":"Q926163"},{"id":95684,"Name":"Otopeni","state_id":4725,"state_code":"IF","state_name":"Ilfov County","country_id":181,"country_code":"RO","country_name":"Romania","latitude":"44.55000000","longitude":"26.06667000","wikiDataId":"Q1857158"},{"id":95706,"Name":"Pantelimon","state_id":4725,"state_code":"IF","state_name":"Ilfov County","country_id":181,"country_code":"RO","country_name":"Romania","latitude":"44.45000000","longitude":"26.20000000","wikiDataId":"Q12138707"},{"id":95735,"Name":"Periş","state_id":4725,"state_code":"IF","state_name":"Ilfov County","country_id":181,"country_code":"RO","country_name":"Romania","latitude":"44.68472000","longitude":"26.01389000","wikiDataId":"Q2294074"},{"id":95758,"Name":"Petrăchioaia","state_id":4725,"state_code":"IF","state_name":"Ilfov County","country_id":181,"country_code":"RO","country_name":"Romania","latitude":"44.58099000","longitude":"26.31269000","wikiDataId":"Q12140124"},{"id":95802,"Name":"Piteasca","state_id":4725,"state_code":"IF","state_name":"Ilfov County","country_id":181,"country_code":"RO","country_name":"Romania","latitude":"44.49339000","longitude":"26.33025000","wikiDataId":"Q12146394"},{"id":95912,"Name":"Popeşti-Leordeni","state_id":4725,"state_code":"IF","state_name":"Ilfov County","country_id":181,"country_code":"RO","country_name":"Romania","latitude":"44.38333000","longitude":"26.16667000","wikiDataId":"Q16898374"},{"id":96142,"Name":"Roșu","state_id":4725,"state_code":"IF","state_name":"Ilfov County","country_id":181,"country_code":"RO","country_name":"Romania","latitude":"44.45025000","longitude":"26.01122000","wikiDataId":"Q12148972"},{"id":96146,"Name":"Rudeni","state_id":4725,"state_code":"IF","state_name":"Ilfov County","country_id":181,"country_code":"RO","country_name":"Romania","latitude":"44.47242000","longitude":"25.97325000","wikiDataId":"Q12149116"},{"id":96345,"Name":"Siliștea Snagovului","state_id":4725,"state_code":"IF","state_name":"Ilfov County","country_id":181,"country_code":"RO","country_name":"Romania","latitude":"44.73920000","longitude":"26.17942000","wikiDataId":"Q12159369"},{"id":96357,"Name":"Sintești","state_id":4725,"state_code":"IF","state_name":"Ilfov County","country_id":181,"country_code":"RO","country_name":"Romania","latitude":"44.30046000","longitude":"26.12126000","wikiDataId":"Q12159463"},{"id":96393,"Name":"Snagov","state_id":4725,"state_code":"IF","state_name":"Ilfov County","country_id":181,"country_code":"RO","country_name":"Romania","latitude":"44.70000000","longitude":"26.18333000","wikiDataId":"Q914849"},{"id":97087,"Name":"Ştefăneştii de Jos","state_id":4725,"state_code":"IF","state_name":"Ilfov County","country_id":181,"country_code":"RO","country_name":"Romania","latitude":"44.53333000","longitude":"26.20000000","wikiDataId":"Q1706296"},{"id":106056,"Name":"Tamași","state_id":4725,"state_code":"IF","state_name":"Ilfov County","country_id":181,"country_code":"RO","country_name":"Romania","latitude":"44.58438000","longitude":"26.00724000","wikiDataId":"Q12159855"},{"id":96578,"Name":"Tânganu","state_id":4725,"state_code":"IF","state_name":"Ilfov County","country_id":181,"country_code":"RO","country_name":"Romania","latitude":"44.40628000","longitude":"26.31262000","wikiDataId":"Q12161265"},{"id":96548,"Name":"Tunari","state_id":4725,"state_code":"IF","state_name":"Ilfov County","country_id":181,"country_code":"RO","country_name":"Romania","latitude":"44.55000000","longitude":"26.15000000","wikiDataId":"Q1707028"},{"id":96943,"Name":"Vârteju","state_id":4725,"state_code":"IF","state_name":"Ilfov County","country_id":181,"country_code":"RO","country_name":"Romania","latitude":"44.35606000","longitude":"25.99183000","wikiDataId":"Q13570124"},{"id":96809,"Name":"Vidra","state_id":4725,"state_code":"IF","state_name":"Ilfov County","country_id":181,"country_code":"RO","country_name":"Romania","latitude":"44.26056000","longitude":"26.16972000","wikiDataId":"Q3827776"},{"id":96889,"Name":"Voluntari","state_id":4725,"state_code":"IF","state_name":"Ilfov County","country_id":181,"country_code":"RO","country_name":"Romania","latitude":"44.49002000","longitude":"26.17338000","wikiDataId":"Q1195081"},{"id":96890,"Name":"Voluntari City","state_id":4725,"state_code":"IF","state_name":"Ilfov County","country_id":181,"country_code":"RO","country_name":"Romania","latitude":"44.49023000","longitude":"26.18439000","wikiDataId":"Q639520"}]