[{"id":89926,"Name":"Alexandru I. Cuza","state_id":4735,"state_code":"IS","state_name":"Iași County","country_id":181,"country_code":"RO","country_name":"Romania","latitude":"47.13333000","longitude":"26.85000000","wikiDataId":"Q2621245"},{"id":89958,"Name":"Andrieşeni","state_id":4735,"state_code":"IS","state_name":"Iași County","country_id":181,"country_code":"RO","country_name":"Romania","latitude":"47.53333000","longitude":"27.28333000","wikiDataId":"Q2621145"},{"id":89997,"Name":"Aroneanu","state_id":4735,"state_code":"IS","state_name":"Iași County","country_id":181,"country_code":"RO","country_name":"Romania","latitude":"47.20000000","longitude":"27.60000000","wikiDataId":"Q777836"},{"id":90480,"Name":"Bădeni","state_id":4735,"state_code":"IS","state_name":"Iași County","country_id":181,"country_code":"RO","country_name":"Romania","latitude":"47.40581000","longitude":"26.94898000","wikiDataId":"Q12081462"},{"id":90052,"Name":"Balș","state_id":4735,"state_code":"IS","state_name":"Iași County","country_id":181,"country_code":"RO","country_name":"Romania","latitude":"47.29628000","longitude":"26.97856000","wikiDataId":"Q2717370"},{"id":90526,"Name":"Bălţaţi","state_id":4735,"state_code":"IS","state_name":"Iași County","country_id":181,"country_code":"RO","country_name":"Romania","latitude":"47.21667000","longitude":"27.15000000","wikiDataId":"Q2607552"},{"id":90453,"Name":"Bârnova","state_id":4735,"state_code":"IS","state_name":"Iași County","country_id":181,"country_code":"RO","country_name":"Romania","latitude":"47.06667000","longitude":"27.61667000","wikiDataId":"Q2621250"},{"id":90084,"Name":"Belceşti","state_id":4735,"state_code":"IS","state_name":"Iași County","country_id":181,"country_code":"RO","country_name":"Romania","latitude":"47.30000000","longitude":"27.08333000","wikiDataId":"Q792228"},{"id":90152,"Name":"Bivolari","state_id":4735,"state_code":"IS","state_name":"Iași County","country_id":181,"country_code":"RO","country_name":"Romania","latitude":"47.53333000","longitude":"27.43333000","wikiDataId":"Q2467888"},{"id":90201,"Name":"Bohotin","state_id":4735,"state_code":"IS","state_name":"Iași County","country_id":181,"country_code":"RO","country_name":"Romania","latitude":"46.93914000","longitude":"27.97782000","wikiDataId":"Q12084417"},{"id":90232,"Name":"Borosoaia","state_id":4735,"state_code":"IS","state_name":"Iași County","country_id":181,"country_code":"RO","country_name":"Romania","latitude":"47.46300000","longitude":"27.09862000","wikiDataId":"Q12084218"},{"id":90241,"Name":"Bosia","state_id":4735,"state_code":"IS","state_name":"Iași County","country_id":181,"country_code":"RO","country_name":"Romania","latitude":"47.21696000","longitude":"27.76707000","wikiDataId":"Q12084346"},{"id":90251,"Name":"Boureni","state_id":4735,"state_code":"IS","state_name":"Iași County","country_id":181,"country_code":"RO","country_name":"Romania","latitude":"47.26497000","longitude":"26.97672000","wikiDataId":"Q12084402"},{"id":90325,"Name":"Brădicești","state_id":4735,"state_code":"IS","state_name":"Iași County","country_id":181,"country_code":"RO","country_name":"Romania","latitude":"46.84810000","longitude":"27.90270000","wikiDataId":"Q12084745"},{"id":90329,"Name":"Brăeşti","state_id":4735,"state_code":"IS","state_name":"Iași County","country_id":181,"country_code":"RO","country_name":"Romania","latitude":"47.15000000","longitude":"27.10000000","wikiDataId":"Q2718512"},{"id":90340,"Name":"Brătești","state_id":4735,"state_code":"IS","state_name":"Iași County","country_id":181,"country_code":"RO","country_name":"Romania","latitude":"47.19135000","longitude":"26.68580000","wikiDataId":"Q12084781"},{"id":90289,"Name":"Breazu","state_id":4735,"state_code":"IS","state_name":"Iași County","country_id":181,"country_code":"RO","country_name":"Romania","latitude":"47.21343000","longitude":"27.51815000","wikiDataId":"Q12085100"},{"id":90375,"Name":"Buda","state_id":4735,"state_code":"IS","state_name":"Iași County","country_id":181,"country_code":"RO","country_name":"Romania","latitude":"47.40318000","longitude":"26.67835000","wikiDataId":"Q12085194"},{"id":90389,"Name":"Budăi","state_id":4735,"state_code":"IS","state_name":"Iași County","country_id":181,"country_code":"RO","country_name":"Romania","latitude":"47.21773000","longitude":"27.22282000","wikiDataId":"Q12128424"},{"id":90395,"Name":"Buhalnița","state_id":4735,"state_code":"IS","state_name":"Iași County","country_id":181,"country_code":"RO","country_name":"Romania","latitude":"47.37892000","longitude":"26.91547000","wikiDataId":"Q12085986"},{"id":90425,"Name":"Butea","state_id":4735,"state_code":"IS","state_name":"Iași County","country_id":181,"country_code":"RO","country_name":"Romania","latitude":"47.06667000","longitude":"26.91667000","wikiDataId":"Q2718476"},{"id":90433,"Name":"Buznea","state_id":4735,"state_code":"IS","state_name":"Iași County","country_id":181,"country_code":"RO","country_name":"Romania","latitude":"47.19515000","longitude":"27.01572000","wikiDataId":"Q12085457"},{"id":93812,"Name":"Cârjoaia","state_id":4735,"state_code":"IS","state_name":"Iași County","country_id":181,"country_code":"RO","country_name":"Romania","latitude":"47.34032000","longitude":"26.90863000","wikiDataId":"Q12109901"},{"id":93818,"Name":"Cârniceni","state_id":4735,"state_code":"IS","state_name":"Iași County","country_id":181,"country_code":"RO","country_name":"Romania","latitude":"47.33942000","longitude":"27.50508000","wikiDataId":"Q12109980"},{"id":90618,"Name":"Cepleniţa","state_id":4735,"state_code":"IS","state_name":"Iași County","country_id":181,"country_code":"RO","country_name":"Romania","latitude":"47.38333000","longitude":"27.01667000","wikiDataId":"Q2607500"},{"id":90689,"Name":"Chișcăreni","state_id":4735,"state_code":"IS","state_name":"Iași County","country_id":181,"country_code":"RO","country_name":"Romania","latitude":"47.46974000","longitude":"27.19626000","wikiDataId":"Q12116727"},{"id":90719,"Name":"Ciohorăni","state_id":4735,"state_code":"IS","state_name":"Iași County","country_id":181,"country_code":"RO","country_name":"Romania","latitude":"47.13520000","longitude":"26.68955000","wikiDataId":"Q2540484"},{"id":90728,"Name":"Ciorteşti","state_id":4735,"state_code":"IS","state_name":"Iași County","country_id":181,"country_code":"RO","country_name":"Romania","latitude":"46.90000000","longitude":"27.83333000","wikiDataId":"Q2607419"},{"id":90757,"Name":"Ciurea","state_id":4735,"state_code":"IS","state_name":"Iași County","country_id":181,"country_code":"RO","country_name":"Romania","latitude":"47.05000000","longitude":"27.56667000","wikiDataId":"Q2607482"},{"id":90773,"Name":"Coarnele Caprei","state_id":4735,"state_code":"IS","state_name":"Iași County","country_id":181,"country_code":"RO","country_name":"Romania","latitude":"47.38333000","longitude":"27.10000000","wikiDataId":"Q2621221"},{"id":90788,"Name":"Cogeasca","state_id":4735,"state_code":"IS","state_name":"Iași County","country_id":181,"country_code":"RO","country_name":"Romania","latitude":"47.16644000","longitude":"27.38537000","wikiDataId":"Q12111149"},{"id":90811,"Name":"Comarna","state_id":4735,"state_code":"IS","state_name":"Iași County","country_id":181,"country_code":"RO","country_name":"Romania","latitude":"47.05000000","longitude":"27.78333000","wikiDataId":"Q2607513"},{"id":90848,"Name":"Comuna Alexandru I. Cuza","state_id":4735,"state_code":"IS","state_name":"Iași County","country_id":181,"country_code":"RO","country_name":"Romania","latitude":"47.14424000","longitude":"26.85449000","wikiDataId":"Q5114322"},{"id":90870,"Name":"Comuna Andrieşeni","state_id":4735,"state_code":"IS","state_name":"Iași County","country_id":181,"country_code":"RO","country_name":"Romania","latitude":"47.51112000","longitude":"27.29502000","wikiDataId":"Q5113934"},{"id":90896,"Name":"Comuna Aroneanu","state_id":4735,"state_code":"IS","state_name":"Iași County","country_id":181,"country_code":"RO","country_name":"Romania","latitude":"47.21584000","longitude":"27.60632000","wikiDataId":"Q5069585"},{"id":90931,"Name":"Comuna Balş","state_id":4735,"state_code":"IS","state_name":"Iași County","country_id":181,"country_code":"RO","country_name":"Romania","latitude":"47.29219000","longitude":"26.96028000","wikiDataId":"Q5113877"},{"id":91227,"Name":"Comuna Bălţaţi","state_id":4735,"state_code":"IS","state_name":"Iași County","country_id":181,"country_code":"RO","country_name":"Romania","latitude":"47.23366000","longitude":"27.11866000","wikiDataId":"Q12081813"},{"id":91190,"Name":"Comuna Bârnova","state_id":4735,"state_code":"IS","state_name":"Iași County","country_id":181,"country_code":"RO","country_name":"Romania","latitude":"47.08669000","longitude":"27.62635000","wikiDataId":"Q5113908"},{"id":90949,"Name":"Comuna Belceşti","state_id":4735,"state_code":"IS","state_name":"Iași County","country_id":181,"country_code":"RO","country_name":"Romania","latitude":"47.30581000","longitude":"27.08747000","wikiDataId":"Q5069787"},{"id":90999,"Name":"Comuna Bivolari","state_id":4735,"state_code":"IS","state_name":"Iași County","country_id":181,"country_code":"RO","country_name":"Romania","latitude":"47.52988000","longitude":"27.42726000","wikiDataId":"Q5114003"},{"id":91118,"Name":"Comuna Brăeşti","state_id":4735,"state_code":"IS","state_name":"Iași County","country_id":181,"country_code":"RO","country_name":"Romania","latitude":"47.16318000","longitude":"27.09031000","wikiDataId":"Q5114393"},{"id":91173,"Name":"Comuna Butea","state_id":4735,"state_code":"IS","state_name":"Iași County","country_id":181,"country_code":"RO","country_name":"Romania","latitude":"47.08386000","longitude":"26.93552000","wikiDataId":"Q5114423"},{"id":91284,"Name":"Comuna Cepleniţa","state_id":4735,"state_code":"IS","state_name":"Iași County","country_id":181,"country_code":"RO","country_name":"Romania","latitude":"47.37581000","longitude":"26.92597000","wikiDataId":"Q5114039"},{"id":91349,"Name":"Comuna Ciohorãni","state_id":4735,"state_code":"IS","state_name":"Iași County","country_id":181,"country_code":"RO","country_name":"Romania","latitude":"47.13520000","longitude":"26.68955000","wikiDataId":"Q5115058"},{"id":91356,"Name":"Comuna Ciorteşti","state_id":4735,"state_code":"IS","state_name":"Iași County","country_id":181,"country_code":"RO","country_name":"Romania","latitude":"46.91766000","longitude":"27.84749000","wikiDataId":"Q5113894"},{"id":91375,"Name":"Comuna Ciurea","state_id":4735,"state_code":"IS","state_name":"Iași County","country_id":181,"country_code":"RO","country_name":"Romania","latitude":"47.06150000","longitude":"27.57572000","wikiDataId":"Q5114453"},{"id":91382,"Name":"Comuna Coarnele Caprei","state_id":4735,"state_code":"IS","state_name":"Iași County","country_id":181,"country_code":"RO","country_name":"Romania","latitude":"47.40195000","longitude":"27.09699000","wikiDataId":"Q5113960"},{"id":91407,"Name":"Comuna Comarna","state_id":4735,"state_code":"IS","state_name":"Iași County","country_id":181,"country_code":"RO","country_name":"Romania","latitude":"47.07004000","longitude":"27.78668000","wikiDataId":"Q5116470"},{"id":91457,"Name":"Comuna Costeşti","state_id":4735,"state_code":"IS","state_name":"Iași County","country_id":181,"country_code":"RO","country_name":"Romania","latitude":"47.24224000","longitude":"26.91751000","wikiDataId":"Q5114287"},{"id":91461,"Name":"Comuna Costuleni","state_id":4735,"state_code":"IS","state_name":"Iași County","country_id":181,"country_code":"RO","country_name":"Romania","latitude":"47.01055000","longitude":"27.85829000","wikiDataId":"Q5114338"},{"id":91466,"Name":"Comuna Cotnari","state_id":4735,"state_code":"IS","state_name":"Iași County","country_id":181,"country_code":"RO","country_name":"Romania","latitude":"47.35813000","longitude":"26.91687000","wikiDataId":"Q12113776"},{"id":91471,"Name":"Comuna Cozmeşti","state_id":4735,"state_code":"IS","state_name":"Iași County","country_id":181,"country_code":"RO","country_name":"Romania","latitude":"46.86032000","longitude":"28.01297000","wikiDataId":"Q5114265"},{"id":91496,"Name":"Comuna Cristeşti","state_id":4735,"state_code":"IS","state_name":"Iași County","country_id":181,"country_code":"RO","country_name":"Romania","latitude":"47.27821000","longitude":"26.58525000","wikiDataId":"Q5114243"},{"id":91520,"Name":"Comuna Cucuteni","state_id":4735,"state_code":"IS","state_name":"Iași County","country_id":181,"country_code":"RO","country_name":"Romania","latitude":"47.27587000","longitude":"26.92807000","wikiDataId":"Q5060209"},{"id":91599,"Name":"Comuna Dagâţa","state_id":4735,"state_code":"IS","state_name":"Iași County","country_id":181,"country_code":"RO","country_name":"Romania","latitude":"46.94469000","longitude":"27.19147000","wikiDataId":"Q12099357"},{"id":91611,"Name":"Comuna Deleni","state_id":4735,"state_code":"IS","state_name":"Iași County","country_id":181,"country_code":"RO","country_name":"Romania","latitude":"47.47458000","longitude":"26.89451000","wikiDataId":"Q5113919"},{"id":91644,"Name":"Comuna Dobrovăţ","state_id":4735,"state_code":"IS","state_name":"Iași County","country_id":181,"country_code":"RO","country_name":"Romania","latitude":"46.96335000","longitude":"27.72245000","wikiDataId":"Q16426817"},{"id":91655,"Name":"Comuna Dolheşti","state_id":4735,"state_code":"IS","state_name":"Iași County","country_id":181,"country_code":"RO","country_name":"Romania","latitude":"46.86958000","longitude":"27.90652000","wikiDataId":"Q12101865"},{"id":91697,"Name":"Comuna Drăguşeni","state_id":4735,"state_code":"IS","state_name":"Iași County","country_id":181,"country_code":"RO","country_name":"Romania","latitude":"46.89432000","longitude":"27.49491000","wikiDataId":"Q5116436"},{"id":91720,"Name":"Comuna Dumeşti","state_id":4735,"state_code":"IS","state_name":"Iași County","country_id":181,"country_code":"RO","country_name":"Romania","latitude":"47.17668000","longitude":"27.33470000","wikiDataId":"Q5114173"},{"id":91749,"Name":"Comuna Erbiceni","state_id":4735,"state_code":"IS","state_name":"Iași County","country_id":181,"country_code":"RO","country_name":"Romania","latitude":"47.25219000","longitude":"27.24756000","wikiDataId":"Q5114781"},{"id":91807,"Name":"Comuna Fântânele","state_id":4735,"state_code":"IS","state_name":"Iași County","country_id":181,"country_code":"RO","country_name":"Romania","latitude":"47.41498000","longitude":"27.18066000","wikiDataId":"Q5074463"},{"id":91774,"Name":"Comuna Focuri","state_id":4735,"state_code":"IS","state_name":"Iași County","country_id":181,"country_code":"RO","country_name":"Romania","latitude":"47.35113000","longitude":"27.20200000","wikiDataId":"Q5074441"},{"id":91899,"Name":"Comuna Golãieşti","state_id":4735,"state_code":"IS","state_name":"Iași County","country_id":181,"country_code":"RO","country_name":"Romania","latitude":"47.26355000","longitude":"27.69515000","wikiDataId":"Q5114103"},{"id":91900,"Name":"Comuna Gorban","state_id":4735,"state_code":"IS","state_name":"Iași County","country_id":181,"country_code":"RO","country_name":"Romania","latitude":"46.90059000","longitude":"28.07017000","wikiDataId":"Q12096859"},{"id":91910,"Name":"Comuna Grajduri","state_id":4735,"state_code":"IS","state_name":"Iași County","country_id":181,"country_code":"RO","country_name":"Romania","latitude":"46.97069000","longitude":"27.55569000","wikiDataId":"Q5068258"},{"id":91925,"Name":"Comuna Gropniţa","state_id":4735,"state_code":"IS","state_name":"Iași County","country_id":181,"country_code":"RO","country_name":"Romania","latitude":"47.36874000","longitude":"27.26376000","wikiDataId":"Q5114203"},{"id":91927,"Name":"Comuna Grozeşti","state_id":4735,"state_code":"IS","state_name":"Iași County","country_id":181,"country_code":"RO","country_name":"Romania","latitude":"47.01001000","longitude":"28.02507000","wikiDataId":"Q5114527"},{"id":92040,"Name":"Comuna Hălăuceşti","state_id":4735,"state_code":"IS","state_name":"Iași County","country_id":181,"country_code":"RO","country_name":"Romania","latitude":"47.10593000","longitude":"26.80967000","wikiDataId":"Q5114085"},{"id":92044,"Name":"Comuna Hărmăneşti","state_id":4735,"state_code":"IS","state_name":"Iași County","country_id":181,"country_code":"RO","country_name":"Romania","latitude":"47.27087000","longitude":"26.81322000","wikiDataId":"Q2718480"},{"id":91995,"Name":"Comuna Heleşteni","state_id":4735,"state_code":"IS","state_name":"Iași County","country_id":181,"country_code":"RO","country_name":"Romania","latitude":"47.19295000","longitude":"26.88060000","wikiDataId":"Q5114372"},{"id":92009,"Name":"Comuna Holboca","state_id":4735,"state_code":"IS","state_name":"Iași County","country_id":181,"country_code":"RO","country_name":"Romania","latitude":"47.17512000","longitude":"27.68235000","wikiDataId":"Q5066773"},{"id":92020,"Name":"Comuna Horleşti","state_id":4735,"state_code":"IS","state_name":"Iași County","country_id":181,"country_code":"RO","country_name":"Romania","latitude":"47.11718000","longitude":"27.40856000","wikiDataId":"Q5066797"},{"id":92083,"Name":"Comuna Ion Neculce","state_id":4735,"state_code":"IS","state_name":"Iași County","country_id":181,"country_code":"RO","country_name":"Romania","latitude":"47.20159000","longitude":"27.03221000","wikiDataId":"Q5114661"},{"id":92089,"Name":"Comuna Ipatele","state_id":4735,"state_code":"IS","state_name":"Iași County","country_id":181,"country_code":"RO","country_name":"Romania","latitude":"46.90390000","longitude":"27.43762000","wikiDataId":"Q5113946"},{"id":92155,"Name":"Comuna Lespezi","state_id":4735,"state_code":"IS","state_name":"Iași County","country_id":181,"country_code":"RO","country_name":"Romania","latitude":"47.34957000","longitude":"26.68807000","wikiDataId":"Q16426818"},{"id":92161,"Name":"Comuna Leţcani","state_id":4735,"state_code":"IS","state_name":"Iași County","country_id":181,"country_code":"RO","country_name":"Romania","latitude":"47.18012000","longitude":"27.41296000","wikiDataId":"Q5114759"},{"id":92211,"Name":"Comuna Lungani","state_id":4735,"state_code":"IS","state_name":"Iași County","country_id":181,"country_code":"RO","country_name":"Romania","latitude":"47.17564000","longitude":"27.15749000","wikiDataId":"Q5069547"},{"id":92382,"Name":"Comuna Mădârjac","state_id":4735,"state_code":"IS","state_name":"Iași County","country_id":181,"country_code":"RO","country_name":"Romania","latitude":"47.04094000","longitude":"27.27716000","wikiDataId":"Q12122217"},{"id":92297,"Name":"Comuna Mirceşti","state_id":4735,"state_code":"IS","state_name":"Iași County","country_id":181,"country_code":"RO","country_name":"Romania","latitude":"47.05486000","longitude":"26.83945000","wikiDataId":"Q5052832"},{"id":92299,"Name":"Comuna Mironeasa","state_id":4735,"state_code":"IS","state_name":"Iași County","country_id":181,"country_code":"RO","country_name":"Romania","latitude":"46.99869000","longitude":"27.42519000","wikiDataId":"Q5113783"},{"id":92300,"Name":"Comuna Miroslava","state_id":4735,"state_code":"IS","state_name":"Iași County","country_id":181,"country_code":"RO","country_name":"Romania","latitude":"47.13047000","longitude":"27.51039000","wikiDataId":"Q5066297"},{"id":92301,"Name":"Comuna Mirosloveşti","state_id":4735,"state_code":"IS","state_name":"Iași County","country_id":181,"country_code":"RO","country_name":"Romania","latitude":"47.13966000","longitude":"26.64648000","wikiDataId":"Q5114016"},{"id":92319,"Name":"Comuna Mogoşeşti","state_id":4735,"state_code":"IS","state_name":"Iași County","country_id":181,"country_code":"RO","country_name":"Romania","latitude":"47.04200000","longitude":"27.48492000","wikiDataId":"Q5112488"},{"id":92320,"Name":"Comuna Mogoşeşti-Siret","state_id":4735,"state_code":"IS","state_name":"Iași County","country_id":181,"country_code":"RO","country_name":"Romania","latitude":"47.13190000","longitude":"26.77101000","wikiDataId":"Q5066535"},{"id":92347,"Name":"Comuna Moşna","state_id":4735,"state_code":"IS","state_name":"Iași County","country_id":181,"country_code":"RO","country_name":"Romania","latitude":"46.92189000","longitude":"27.95956000","wikiDataId":"Q16426819"},{"id":92351,"Name":"Comuna Moţca","state_id":4735,"state_code":"IS","state_name":"Iași County","country_id":181,"country_code":"RO","country_name":"Romania","latitude":"47.22407000","longitude":"26.61632000","wikiDataId":"Q5066579"},{"id":92341,"Name":"Comuna Movileni","state_id":4735,"state_code":"IS","state_name":"Iași County","country_id":181,"country_code":"RO","country_name":"Romania","latitude":"47.32032000","longitude":"27.38016000","wikiDataId":"Q12123984"},{"id":92526,"Name":"Comuna Oţeleni","state_id":4735,"state_code":"IS","state_name":"Iași County","country_id":181,"country_code":"RO","country_name":"Romania","latitude":"47.08566000","longitude":"27.02730000","wikiDataId":"Q5068832"},{"id":92604,"Name":"Comuna Plugari","state_id":4735,"state_code":"IS","state_name":"Iași County","country_id":181,"country_code":"RO","country_name":"Romania","latitude":"47.47732000","longitude":"27.11577000","wikiDataId":"Q5113832"},{"id":92654,"Name":"Comuna Popeşti","state_id":4735,"state_code":"IS","state_name":"Iași County","country_id":181,"country_code":"RO","country_name":"Romania","latitude":"47.13704000","longitude":"27.26169000","wikiDataId":"Q5112844"},{"id":92658,"Name":"Comuna Popricani","state_id":4735,"state_code":"IS","state_name":"Iași County","country_id":181,"country_code":"RO","country_name":"Romania","latitude":"47.26750000","longitude":"27.52729000","wikiDataId":"Q5113017"},{"id":92679,"Name":"Comuna Prisăcani","state_id":4735,"state_code":"IS","state_name":"Iași County","country_id":181,"country_code":"RO","country_name":"Romania","latitude":"47.07015000","longitude":"27.90795000","wikiDataId":"Q5113190"},{"id":92680,"Name":"Comuna Probota","state_id":4735,"state_code":"IS","state_name":"Iași County","country_id":181,"country_code":"RO","country_name":"Romania","latitude":"47.38792000","longitude":"27.49446000","wikiDataId":"Q5069737"},{"id":92837,"Name":"Comuna Răchiţeni","state_id":4735,"state_code":"IS","state_name":"Iași County","country_id":181,"country_code":"RO","country_name":"Romania","latitude":"47.05163000","longitude":"26.90504000","wikiDataId":"Q5069898"},{"id":92844,"Name":"Comuna Răducăneni","state_id":4735,"state_code":"IS","state_name":"Iași County","country_id":181,"country_code":"RO","country_name":"Romania","latitude":"46.95541000","longitude":"27.97344000","wikiDataId":"Q5066901"},{"id":92761,"Name":"Comuna Rediu-Tătar","state_id":4735,"state_code":"IS","state_name":"Iași County","country_id":181,"country_code":"RO","country_name":"Romania","latitude":"47.23169000","longitude":"27.48747000","wikiDataId":"Q5113548"},{"id":92787,"Name":"Comuna Româneşti","state_id":4735,"state_code":"IS","state_name":"Iași County","country_id":181,"country_code":"RO","country_name":"Romania","latitude":"47.27171000","longitude":"27.35819000","wikiDataId":"Q5113303"},{"id":92794,"Name":"Comuna Roşcani","state_id":4735,"state_code":"IS","state_name":"Iași County","country_id":181,"country_code":"RO","country_name":"Romania","latitude":"47.44259000","longitude":"27.41778000","wikiDataId":"Q5112967"},{"id":92808,"Name":"Comuna Ruginoasa","state_id":4735,"state_code":"IS","state_name":"Iași County","country_id":181,"country_code":"RO","country_name":"Romania","latitude":"47.25259000","longitude":"26.85589000","wikiDataId":"Q1032848"},{"id":92901,"Name":"Comuna Scânteia","state_id":4735,"state_code":"IS","state_name":"Iași County","country_id":181,"country_code":"RO","country_name":"Romania","latitude":"46.92408000","longitude":"27.58855000","wikiDataId":"Q5112696"},{"id":92884,"Name":"Comuna Scheia","state_id":4735,"state_code":"IS","state_name":"Iași County","country_id":181,"country_code":"RO","country_name":"Romania","latitude":"46.93950000","longitude":"27.49765000","wikiDataId":"Q16426820"},{"id":92889,"Name":"Comuna Schitu-Duca","state_id":4735,"state_code":"IS","state_name":"Iași County","country_id":181,"country_code":"RO","country_name":"Romania","latitude":"47.00255000","longitude":"27.76703000","wikiDataId":"Q5113348"},{"id":92892,"Name":"Comuna Scobinţi","state_id":4735,"state_code":"IS","state_name":"Iași County","country_id":181,"country_code":"RO","country_name":"Romania","latitude":"47.40529000","longitude":"26.89850000","wikiDataId":"Q12153298"},{"id":92939,"Name":"Comuna Sineşti","state_id":4735,"state_code":"IS","state_name":"Iași County","country_id":181,"country_code":"RO","country_name":"Romania","latitude":"47.12117000","longitude":"27.18745000","wikiDataId":"Q5113141"},{"id":93528,"Name":"Comuna Şipote","state_id":4735,"state_code":"IS","state_name":"Iași County","country_id":181,"country_code":"RO","country_name":"Romania","latitude":"47.46038000","longitude":"27.22592000","wikiDataId":"Q16426821"},{"id":92943,"Name":"Comuna Sireţel","state_id":4735,"state_code":"IS","state_name":"Iași County","country_id":181,"country_code":"RO","country_name":"Romania","latitude":"47.41840000","longitude":"26.73381000","wikiDataId":"Q5113069"},{"id":92998,"Name":"Comuna Stolniceni-Prăjescu","state_id":4735,"state_code":"IS","state_name":"Iași County","country_id":181,"country_code":"RO","country_name":"Romania","latitude":"47.18563000","longitude":"26.73525000","wikiDataId":"Q5113116"},{"id":93007,"Name":"Comuna Strunga","state_id":4735,"state_code":"IS","state_name":"Iași County","country_id":181,"country_code":"RO","country_name":"Romania","latitude":"47.16021000","longitude":"26.94400000","wikiDataId":"Q5066983"},{"id":93124,"Name":"Comuna Tansa","state_id":4735,"state_code":"IS","state_name":"Iași County","country_id":181,"country_code":"RO","country_name":"Romania","latitude":"46.90812000","longitude":"27.24808000","wikiDataId":"Q5112869"},{"id":93245,"Name":"Comuna Tătăruşi","state_id":4735,"state_code":"IS","state_name":"Iași County","country_id":181,"country_code":"RO","country_name":"Romania","latitude":"47.34254000","longitude":"26.58590000","wikiDataId":"Q5113679"},{"id":93570,"Name":"Comuna Ţibana","state_id":4735,"state_code":"IS","state_name":"Iași County","country_id":181,"country_code":"RO","country_name":"Romania","latitude":"46.98685000","longitude":"27.32607000","wikiDataId":"Q5146980"},{"id":93572,"Name":"Comuna Ţibăneşti","state_id":4735,"state_code":"IS","state_name":"Iași County","country_id":181,"country_code":"RO","country_name":"Romania","latitude":"46.91757000","longitude":"27.33547000","wikiDataId":"Q16426830"},{"id":93574,"Name":"Comuna Ţigănaşi","state_id":4735,"state_code":"IS","state_name":"Iași County","country_id":181,"country_code":"RO","country_name":"Romania","latitude":"47.34867000","longitude":"27.45588000","wikiDataId":"Q16467170"},{"id":93165,"Name":"Comuna Todireşti","state_id":4735,"state_code":"IS","state_name":"Iași County","country_id":181,"country_code":"RO","country_name":"Romania","latitude":"47.32137000","longitude":"26.87743000","wikiDataId":"Q5113846"},{"id":93168,"Name":"Comuna Tomeşti","state_id":4735,"state_code":"IS","state_name":"Iași County","country_id":181,"country_code":"RO","country_name":"Romania","latitude":"47.11704000","longitude":"27.70476000","wikiDataId":"Q12725209"},{"id":93193,"Name":"Comuna Trifeşti","state_id":4735,"state_code":"IS","state_name":"Iași County","country_id":181,"country_code":"RO","country_name":"Romania","latitude":"47.44992000","longitude":"27.53175000","wikiDataId":"Q5114699"},{"id":93578,"Name":"Comuna Ţuţora","state_id":4735,"state_code":"IS","state_name":"Iași County","country_id":181,"country_code":"RO","country_name":"Romania","latitude":"47.12578000","longitude":"27.79866000","wikiDataId":"Q4930913"},{"id":93268,"Name":"Comuna Ungheni","state_id":4735,"state_code":"IS","state_name":"Iași County","country_id":181,"country_code":"RO","country_name":"Romania","latitude":"47.20176000","longitude":"27.74664000","wikiDataId":"Q2486599"},{"id":93310,"Name":"Comuna Valea Lupului","state_id":4735,"state_code":"IS","state_name":"Iași County","country_id":181,"country_code":"RO","country_name":"Romania","latitude":"47.17920000","longitude":"27.49965000","wikiDataId":"Q5113424"},{"id":93321,"Name":"Comuna Valea Seacă","state_id":4735,"state_code":"IS","state_name":"Iași County","country_id":181,"country_code":"RO","country_name":"Romania","latitude":"47.28840000","longitude":"26.66455000","wikiDataId":"Q5113042"},{"id":93432,"Name":"Comuna Vânãtori","state_id":4735,"state_code":"IS","state_name":"Iași County","country_id":181,"country_code":"RO","country_name":"Romania","latitude":"47.33379000","longitude":"26.76404000","wikiDataId":"Q5113371"},{"id":93353,"Name":"Comuna Victoria","state_id":4735,"state_code":"IS","state_name":"Iași County","country_id":181,"country_code":"RO","country_name":"Romania","latitude":"47.30749000","longitude":"27.60170000","wikiDataId":"Q5113982"},{"id":93388,"Name":"Comuna Vlădeni","state_id":4735,"state_code":"IS","state_name":"Iași County","country_id":181,"country_code":"RO","country_name":"Romania","latitude":"47.43756000","longitude":"27.33560000","wikiDataId":"Q5113092"},{"id":93399,"Name":"Comuna Voineşti","state_id":4735,"state_code":"IS","state_name":"Iași County","country_id":181,"country_code":"RO","country_name":"Romania","latitude":"47.07509000","longitude":"27.42151000","wikiDataId":"Q5113861"},{"id":93599,"Name":"Conțești","state_id":4735,"state_code":"IS","state_name":"Iași County","country_id":181,"country_code":"RO","country_name":"Romania","latitude":"47.30960000","longitude":"26.65605000","wikiDataId":"Q12112605"},{"id":93650,"Name":"Coropceni","state_id":4735,"state_code":"IS","state_name":"Iași County","country_id":181,"country_code":"RO","country_name":"Romania","latitude":"46.94193000","longitude":"27.83710000","wikiDataId":"Q12113195"},{"id":93665,"Name":"Costești","state_id":4735,"state_code":"IS","state_name":"Iași County","country_id":181,"country_code":"RO","country_name":"Romania","latitude":"47.23428000","longitude":"26.92622000","wikiDataId":"Q2718497"},{"id":93669,"Name":"Costuleni","state_id":4735,"state_code":"IS","state_name":"Iași County","country_id":181,"country_code":"RO","country_name":"Romania","latitude":"47.03333000","longitude":"27.85000000","wikiDataId":"Q2718457"},{"id":93676,"Name":"Cotnari","state_id":4735,"state_code":"IS","state_name":"Iași County","country_id":181,"country_code":"RO","country_name":"Romania","latitude":"47.35000000","longitude":"26.98333000","wikiDataId":"Q869390"},{"id":93679,"Name":"Covasna","state_id":4735,"state_code":"IS","state_name":"Iași County","country_id":181,"country_code":"RO","country_name":"Romania","latitude":"47.00255000","longitude":"27.85106000","wikiDataId":"Q12111045"},{"id":93683,"Name":"Cozia","state_id":4735,"state_code":"IS","state_name":"Iași County","country_id":181,"country_code":"RO","country_name":"Romania","latitude":"47.00319000","longitude":"27.89434000","wikiDataId":"Q12111485"},{"id":93686,"Name":"Cozmeşti","state_id":4735,"state_code":"IS","state_name":"Iași County","country_id":181,"country_code":"RO","country_name":"Romania","latitude":"46.88333000","longitude":"27.98333000","wikiDataId":"Q2718462"},{"id":93719,"Name":"Cristeşti","state_id":4735,"state_code":"IS","state_name":"Iași County","country_id":181,"country_code":"RO","country_name":"Romania","latitude":"47.26667000","longitude":"26.56667000","wikiDataId":"Q2718824"},{"id":93728,"Name":"Crivești","state_id":4735,"state_code":"IS","state_name":"Iași County","country_id":181,"country_code":"RO","country_name":"Romania","latitude":"47.32430000","longitude":"26.78240000","wikiDataId":"Q12115195"},{"id":93742,"Name":"Crucea","state_id":4735,"state_code":"IS","state_name":"Iași County","country_id":181,"country_code":"RO","country_name":"Romania","latitude":"47.16567000","longitude":"27.17093000","wikiDataId":"Q12115128"},{"id":93762,"Name":"Cucuteni","state_id":4735,"state_code":"IS","state_name":"Iași County","country_id":181,"country_code":"RO","country_name":"Romania","latitude":"47.28333000","longitude":"26.93333000","wikiDataId":"Q899500"},{"id":93887,"Name":"Dagâţa","state_id":4735,"state_code":"IS","state_name":"Iași County","country_id":181,"country_code":"RO","country_name":"Romania","latitude":"46.93333000","longitude":"27.18333000","wikiDataId":"Q75045"},{"id":93892,"Name":"Dancu","state_id":4735,"state_code":"IS","state_name":"Iași County","country_id":181,"country_code":"RO","country_name":"Romania","latitude":"47.15417000","longitude":"27.66623000","wikiDataId":"Q12099500"},{"id":93915,"Name":"Deleni","state_id":4735,"state_code":"IS","state_name":"Iași County","country_id":181,"country_code":"RO","country_name":"Romania","latitude":"47.46667000","longitude":"26.88333000","wikiDataId":"Q2621174"},{"id":93969,"Name":"Dobrovăţ","state_id":4735,"state_code":"IS","state_name":"Iași County","country_id":181,"country_code":"RO","country_name":"Romania","latitude":"46.95000000","longitude":"27.70000000","wikiDataId":"Q2607413"},{"id":93983,"Name":"Dolheşti","state_id":4735,"state_code":"IS","state_name":"Iași County","country_id":181,"country_code":"RO","country_name":"Romania","latitude":"46.86667000","longitude":"27.90000000","wikiDataId":"Q2718837"},{"id":93993,"Name":"Domnița","state_id":4735,"state_code":"IS","state_name":"Iași County","country_id":181,"country_code":"RO","country_name":"Romania","latitude":"47.02091000","longitude":"27.33500000","wikiDataId":"Q12101940"},{"id":94053,"Name":"Drăgușeni","state_id":4735,"state_code":"IS","state_name":"Iași County","country_id":181,"country_code":"RO","country_name":"Romania","latitude":"46.90116000","longitude":"27.51260000","wikiDataId":"Q2718529"},{"id":94076,"Name":"Dumbrava","state_id":4735,"state_code":"IS","state_name":"Iași County","country_id":181,"country_code":"RO","country_name":"Romania","latitude":"47.07578000","longitude":"27.55174000","wikiDataId":"Q12102849"},{"id":94091,"Name":"Dumbrăvița","state_id":4735,"state_code":"IS","state_name":"Iași County","country_id":181,"country_code":"RO","country_name":"Romania","latitude":"47.25483000","longitude":"26.84169000","wikiDataId":"Q12102867"},{"id":94096,"Name":"Dumeşti","state_id":4735,"state_code":"IS","state_name":"Iași County","country_id":181,"country_code":"RO","country_name":"Romania","latitude":"47.18333000","longitude":"27.35000000","wikiDataId":"Q2718831"},{"id":94144,"Name":"Erbiceni","state_id":4735,"state_code":"IS","state_name":"Iași County","country_id":181,"country_code":"RO","country_name":"Romania","latitude":"47.26667000","longitude":"27.23333000","wikiDataId":"Q2621224"},{"id":94241,"Name":"Fântânele","state_id":4735,"state_code":"IS","state_name":"Iași County","country_id":181,"country_code":"RO","country_name":"Romania","latitude":"47.41498000","longitude":"27.18066000","wikiDataId":"Q2540437"},{"id":94266,"Name":"Fărcășeni","state_id":4735,"state_code":"IS","state_name":"Iași County","country_id":181,"country_code":"RO","country_name":"Romania","latitude":"47.15987000","longitude":"26.89615000","wikiDataId":"Q12165619"},{"id":94161,"Name":"Fetești","state_id":4735,"state_code":"IS","state_name":"Iași County","country_id":181,"country_code":"RO","country_name":"Romania","latitude":"47.40932000","longitude":"26.90885000","wikiDataId":"Q12165675"},{"id":94192,"Name":"Focuri","state_id":4735,"state_code":"IS","state_name":"Iași County","country_id":181,"country_code":"RO","country_name":"Romania","latitude":"47.35000000","longitude":"27.21667000","wikiDataId":"Q683517"},{"id":94481,"Name":"Gârbești","state_id":4735,"state_code":"IS","state_name":"Iași County","country_id":181,"country_code":"RO","country_name":"Romania","latitude":"46.98333000","longitude":"27.30000000","wikiDataId":"Q12095955"},{"id":94363,"Name":"Glodenii Gândului","state_id":4735,"state_code":"IS","state_name":"Iași County","country_id":181,"country_code":"RO","country_name":"Romania","latitude":"46.95158000","longitude":"27.29938000","wikiDataId":"Q12096159"},{"id":94370,"Name":"Goești","state_id":4735,"state_code":"IS","state_name":"Iași County","country_id":181,"country_code":"RO","country_name":"Romania","latitude":"47.15654000","longitude":"27.13659000","wikiDataId":"Q12097309"},{"id":94380,"Name":"Golăiești","state_id":4735,"state_code":"IS","state_name":"Iași County","country_id":181,"country_code":"RO","country_name":"Romania","latitude":"47.23333000","longitude":"27.70000000","wikiDataId":"Q2607538"},{"id":94382,"Name":"Gorban","state_id":4735,"state_code":"IS","state_name":"Iași County","country_id":181,"country_code":"RO","country_name":"Romania","latitude":"46.87611000","longitude":"28.07889000","wikiDataId":"Q2607508"},{"id":94391,"Name":"Goruni","state_id":4735,"state_code":"IS","state_name":"Iași County","country_id":181,"country_code":"RO","country_name":"Romania","latitude":"47.10389000","longitude":"27.71854000","wikiDataId":"Q12097166"},{"id":94400,"Name":"Grajduri","state_id":4735,"state_code":"IS","state_name":"Iași County","country_id":181,"country_code":"RO","country_name":"Romania","latitude":"46.96667000","longitude":"27.51667000","wikiDataId":"Q2487222"},{"id":94420,"Name":"Gropniţa","state_id":4735,"state_code":"IS","state_name":"Iași County","country_id":181,"country_code":"RO","country_name":"Romania","latitude":"47.35000000","longitude":"27.25000000","wikiDataId":"Q2607452"},{"id":94422,"Name":"Grozeşti","state_id":4735,"state_code":"IS","state_name":"Iași County","country_id":181,"country_code":"RO","country_name":"Romania","latitude":"46.99083000","longitude":"28.05056000","wikiDataId":"Q2718189"},{"id":94602,"Name":"Hălăuceşti","state_id":4735,"state_code":"IS","state_name":"Iași County","country_id":181,"country_code":"RO","country_name":"Romania","latitude":"47.10000000","longitude":"26.80000000","wikiDataId":"Q2607406"},{"id":94588,"Name":"Hârlău","state_id":4735,"state_code":"IS","state_name":"Iași County","country_id":181,"country_code":"RO","country_name":"Romania","latitude":"47.43333000","longitude":"26.90000000","wikiDataId":"Q741529"},{"id":94606,"Name":"Hărmăneasa","state_id":4735,"state_code":"IS","state_name":"Iași County","country_id":181,"country_code":"RO","country_name":"Romania","latitude":"47.20000000","longitude":"26.86667000","wikiDataId":"Q12167183"},{"id":94607,"Name":"Hărmăneștii Vechi","state_id":4735,"state_code":"IS","state_name":"Iași County","country_id":181,"country_code":"RO","country_name":"Romania","latitude":"47.27732000","longitude":"26.81394000","wikiDataId":"Q12167179"},{"id":94591,"Name":"Hârtoape","state_id":4735,"state_code":"IS","state_name":"Iași County","country_id":181,"country_code":"RO","country_name":"Romania","latitude":"47.32164000","longitude":"26.72459000","wikiDataId":"Q12167263"},{"id":94526,"Name":"Heci","state_id":4735,"state_code":"IS","state_name":"Iași County","country_id":181,"country_code":"RO","country_name":"Romania","latitude":"47.34325000","longitude":"26.66226000","wikiDataId":"Q12167221"},{"id":94528,"Name":"Heleșteni","state_id":4735,"state_code":"IS","state_name":"Iași County","country_id":181,"country_code":"RO","country_name":"Romania","latitude":"47.20303000","longitude":"26.87755000","wikiDataId":"Q2718809"},{"id":94544,"Name":"Hodora","state_id":4735,"state_code":"IS","state_name":"Iași County","country_id":181,"country_code":"RO","country_name":"Romania","latitude":"47.33712000","longitude":"27.01970000","wikiDataId":"Q12167443"},{"id":94549,"Name":"Holboca","state_id":4735,"state_code":"IS","state_name":"Iași County","country_id":181,"country_code":"RO","country_name":"Romania","latitude":"47.15000000","longitude":"27.70000000","wikiDataId":"Q1037420"},{"id":94564,"Name":"Horleşti","state_id":4735,"state_code":"IS","state_name":"Iași County","country_id":181,"country_code":"RO","country_name":"Romania","latitude":"47.11667000","longitude":"27.36667000","wikiDataId":"Q1055169"},{"id":94630,"Name":"Iaşi","state_id":4735,"state_code":"IS","state_name":"Iași County","country_id":181,"country_code":"RO","country_name":"Romania","latitude":"47.16667000","longitude":"27.60000000","wikiDataId":"Q16898350"},{"id":94628,"Name":"Iazu Nou","state_id":4735,"state_code":"IS","state_name":"Iași County","country_id":181,"country_code":"RO","country_name":"Romania","latitude":"47.48272000","longitude":"27.20913000","wikiDataId":"Q12173411"},{"id":94675,"Name":"Ion Neculce","state_id":4735,"state_code":"IS","state_name":"Iași County","country_id":181,"country_code":"RO","country_name":"Romania","latitude":"47.20344000","longitude":"27.05268000","wikiDataId":"Q2718492"},{"id":94683,"Name":"Ipatele","state_id":4735,"state_code":"IS","state_name":"Iași County","country_id":181,"country_code":"RO","country_name":"Romania","latitude":"46.91667000","longitude":"27.41667000","wikiDataId":"Q2605974"},{"id":94695,"Name":"Iugani","state_id":4735,"state_code":"IS","state_name":"Iași County","country_id":181,"country_code":"RO","country_name":"Romania","latitude":"47.04431000","longitude":"26.82891000","wikiDataId":"Q12172885"},{"id":94706,"Name":"Izvoarele","state_id":4735,"state_code":"IS","state_name":"Iași County","country_id":181,"country_code":"RO","country_name":"Romania","latitude":"47.04241000","longitude":"26.90230000","wikiDataId":"Q12074020"},{"id":94782,"Name":"Lespezi","state_id":4735,"state_code":"IS","state_name":"Iași County","country_id":181,"country_code":"RO","country_name":"Romania","latitude":"47.36667000","longitude":"26.70000000","wikiDataId":"Q2469527"},{"id":94791,"Name":"Leţcani","state_id":4735,"state_code":"IS","state_name":"Iași County","country_id":181,"country_code":"RO","country_name":"Romania","latitude":"47.18333000","longitude":"27.41667000","wikiDataId":"Q2607493"},{"id":94810,"Name":"Liteni","state_id":4735,"state_code":"IS","state_name":"Iași County","country_id":181,"country_code":"RO","country_name":"Romania","latitude":"47.30169000","longitude":"27.03837000","wikiDataId":"Q12119910"},{"id":94853,"Name":"Lunca","state_id":4735,"state_code":"IS","state_name":"Iași County","country_id":181,"country_code":"RO","country_name":"Romania","latitude":"47.28144000","longitude":"26.73708000","wikiDataId":"Q12118843"},{"id":94863,"Name":"Lunca Cetățuii","state_id":4735,"state_code":"IS","state_name":"Iași County","country_id":181,"country_code":"RO","country_name":"Romania","latitude":"47.09660000","longitude":"27.56319000","wikiDataId":"Q12118822"},{"id":94880,"Name":"Lungani","state_id":4735,"state_code":"IS","state_name":"Iași County","country_id":181,"country_code":"RO","country_name":"Romania","latitude":"47.18333000","longitude":"27.15000000","wikiDataId":"Q1085265"},{"id":95232,"Name":"Mădârjac","state_id":4735,"state_code":"IS","state_name":"Iași County","country_id":181,"country_code":"RO","country_name":"Romania","latitude":"47.04994000","longitude":"27.26182000","wikiDataId":"Q2718528"},{"id":95261,"Name":"Mănăstirea","state_id":4735,"state_code":"IS","state_name":"Iași County","country_id":181,"country_code":"RO","country_name":"Romania","latitude":"46.95000000","longitude":"27.20000000","wikiDataId":"Q12122610"},{"id":94940,"Name":"Maxut","state_id":4735,"state_code":"IS","state_name":"Iași County","country_id":181,"country_code":"RO","country_name":"Romania","latitude":"47.44040000","longitude":"26.89204000","wikiDataId":"Q12120666"},{"id":95014,"Name":"Mirceşti","state_id":4735,"state_code":"IS","state_name":"Iași County","country_id":181,"country_code":"RO","country_name":"Romania","latitude":"47.08333000","longitude":"26.83333000","wikiDataId":"Q1176088"},{"id":95019,"Name":"Mironeasa","state_id":4735,"state_code":"IS","state_name":"Iași County","country_id":181,"country_code":"RO","country_name":"Romania","latitude":"46.96667000","longitude":"27.41667000","wikiDataId":"Q2605987"},{"id":95021,"Name":"Miroslava","state_id":4735,"state_code":"IS","state_name":"Iași County","country_id":181,"country_code":"RO","country_name":"Romania","latitude":"47.15000000","longitude":"27.51667000","wikiDataId":"Q2639798"},{"id":95022,"Name":"Miroslovești","state_id":4735,"state_code":"IS","state_name":"Iași County","country_id":181,"country_code":"RO","country_name":"Romania","latitude":"47.15000000","longitude":"26.65000000","wikiDataId":"Q2607487"},{"id":95053,"Name":"Mogoşeşti","state_id":4735,"state_code":"IS","state_name":"Iași County","country_id":181,"country_code":"RO","country_name":"Romania","latitude":"47.03333000","longitude":"27.53333000","wikiDataId":"Q2607474"},{"id":95054,"Name":"Mogoşeşti-Siret","state_id":4735,"state_code":"IS","state_name":"Iași County","country_id":181,"country_code":"RO","country_name":"Romania","latitude":"47.13333000","longitude":"26.78333000","wikiDataId":"Q1084772"},{"id":95088,"Name":"Moşna","state_id":4735,"state_code":"IS","state_name":"Iași County","country_id":181,"country_code":"RO","country_name":"Romania","latitude":"46.91667000","longitude":"27.95000000","wikiDataId":"Q979577"},{"id":95092,"Name":"Moţca","state_id":4735,"state_code":"IS","state_name":"Iași County","country_id":181,"country_code":"RO","country_name":"Romania","latitude":"47.25000000","longitude":"26.61667000","wikiDataId":"Q1088052"},{"id":95083,"Name":"Movileni","state_id":4735,"state_code":"IS","state_name":"Iași County","country_id":181,"country_code":"RO","country_name":"Romania","latitude":"47.31667000","longitude":"27.35000000","wikiDataId":"Q2606002"},{"id":95100,"Name":"Muncelu de Sus","state_id":4735,"state_code":"IS","state_name":"Iași County","country_id":181,"country_code":"RO","country_name":"Romania","latitude":"47.12384000","longitude":"26.73518000","wikiDataId":"Q12130777"},{"id":95150,"Name":"Municipiul Iaşi","state_id":4735,"state_code":"IS","state_name":"Iași County","country_id":181,"country_code":"RO","country_name":"Romania","latitude":"47.16184000","longitude":"27.58451000","wikiDataId":"Q46852"},{"id":95166,"Name":"Municipiul Paşcani","state_id":4735,"state_code":"IS","state_name":"Iași County","country_id":181,"country_code":"RO","country_name":"Romania","latitude":"47.24736000","longitude":"26.71235000","wikiDataId":"Q736305"},{"id":95199,"Name":"Munteni","state_id":4735,"state_code":"IS","state_name":"Iași County","country_id":181,"country_code":"RO","country_name":"Romania","latitude":"47.31530000","longitude":"27.13839000","wikiDataId":"Q12130768"},{"id":95531,"Name":"Oraş Hârlãu","state_id":4735,"state_code":"IS","state_name":"Iași County","country_id":181,"country_code":"RO","country_name":"Romania","latitude":"47.43153000","longitude":"26.87774000","wikiDataId":"Q851042"},{"id":95569,"Name":"Oraş Podu Iloaiei","state_id":4735,"state_code":"IS","state_name":"Iași County","country_id":181,"country_code":"RO","country_name":"Romania","latitude":"47.20807000","longitude":"27.26548000","wikiDataId":"Q275981"},{"id":95607,"Name":"Oraş Târgu Frumos","state_id":4735,"state_code":"IS","state_name":"Iași County","country_id":181,"country_code":"RO","country_name":"Romania","latitude":"47.20788000","longitude":"27.01196000","wikiDataId":"Q756578"},{"id":95674,"Name":"Osoi","state_id":4735,"state_code":"IS","state_name":"Iași County","country_id":181,"country_code":"RO","country_name":"Romania","latitude":"47.09479000","longitude":"27.80091000","wikiDataId":"Q12136675"},{"id":95689,"Name":"Oţeleni","state_id":4735,"state_code":"IS","state_name":"Iași County","country_id":181,"country_code":"RO","country_name":"Romania","latitude":"47.08333000","longitude":"27.03333000","wikiDataId":"Q482084"},{"id":95998,"Name":"Pârcovaci","state_id":4735,"state_code":"IS","state_name":"Iași County","country_id":181,"country_code":"RO","country_name":"Romania","latitude":"47.43586000","longitude":"26.85075000","wikiDataId":"Q12140571"},{"id":95718,"Name":"Paşcani","state_id":4735,"state_code":"IS","state_name":"Iași County","country_id":181,"country_code":"RO","country_name":"Romania","latitude":"47.24690000","longitude":"26.72291000","wikiDataId":"Q12139172"},{"id":96036,"Name":"Păușești","state_id":4735,"state_code":"IS","state_name":"Iași County","country_id":181,"country_code":"RO","country_name":"Romania","latitude":"47.15810000","longitude":"27.32594000","wikiDataId":"Q12140379"},{"id":95730,"Name":"Perieni","state_id":4735,"state_code":"IS","state_name":"Iași County","country_id":181,"country_code":"RO","country_name":"Romania","latitude":"47.38469000","longitude":"27.47453000","wikiDataId":"Q12140058"},{"id":95786,"Name":"Pietrosu","state_id":4735,"state_code":"IS","state_name":"Iași County","country_id":181,"country_code":"RO","country_name":"Romania","latitude":"47.34118000","longitude":"26.60817000","wikiDataId":"Q12137223"},{"id":95831,"Name":"Plugari","state_id":4735,"state_code":"IS","state_name":"Iași County","country_id":181,"country_code":"RO","country_name":"Romania","latitude":"47.48333000","longitude":"27.10000000","wikiDataId":"Q2606010"},{"id":95849,"Name":"Podolenii de Sus","state_id":4735,"state_code":"IS","state_name":"Iași County","country_id":181,"country_code":"RO","country_name":"Romania","latitude":"46.85716000","longitude":"28.01545000","wikiDataId":"Q12141441"},{"id":95850,"Name":"Podu Iloaiei","state_id":4735,"state_code":"IS","state_name":"Iași County","country_id":181,"country_code":"RO","country_name":"Romania","latitude":"47.21667000","longitude":"27.26667000","wikiDataId":"Q12141441"},{"id":95862,"Name":"Poiana","state_id":4735,"state_code":"IS","state_name":"Iași County","country_id":181,"country_code":"RO","country_name":"Romania","latitude":"47.49299000","longitude":"26.86387000","wikiDataId":"Q12143126"},{"id":95877,"Name":"Poiana Mărului","state_id":4735,"state_code":"IS","state_name":"Iași County","country_id":181,"country_code":"RO","country_name":"Romania","latitude":"47.37951000","longitude":"26.89243000","wikiDataId":"Q12143096"},{"id":95893,"Name":"Poienile","state_id":4735,"state_code":"IS","state_name":"Iași County","country_id":181,"country_code":"RO","country_name":"Romania","latitude":"46.93333000","longitude":"27.18333000","wikiDataId":"Q12143192"},{"id":95909,"Name":"Popeşti","state_id":4735,"state_code":"IS","state_name":"Iași County","country_id":181,"country_code":"RO","country_name":"Romania","latitude":"47.15000000","longitude":"27.23333000","wikiDataId":"Q2718524"},{"id":95919,"Name":"Popricani","state_id":4735,"state_code":"IS","state_name":"Iași County","country_id":181,"country_code":"RO","country_name":"Romania","latitude":"47.30000000","longitude":"27.51667000","wikiDataId":"Q2605991"},{"id":95956,"Name":"Prisăcani","state_id":4735,"state_code":"IS","state_name":"Iași County","country_id":181,"country_code":"RO","country_name":"Romania","latitude":"47.08333000","longitude":"27.88333000","wikiDataId":"Q2607545"},{"id":95957,"Name":"Probota","state_id":4735,"state_code":"IS","state_name":"Iași County","country_id":181,"country_code":"RO","country_name":"Romania","latitude":"47.38333000","longitude":"27.50000000","wikiDataId":"Q2001420"},{"id":96185,"Name":"Răchiteni","state_id":4735,"state_code":"IS","state_name":"Iași County","country_id":181,"country_code":"RO","country_name":"Romania","latitude":"47.05347000","longitude":"26.91730000","wikiDataId":"Q908024"},{"id":96199,"Name":"Răducăneni","state_id":4735,"state_code":"IS","state_name":"Iași County","country_id":181,"country_code":"RO","country_name":"Romania","latitude":"46.95000000","longitude":"27.93333000","wikiDataId":"Q1972778"},{"id":96213,"Name":"Războieni","state_id":4735,"state_code":"IS","state_name":"Iași County","country_id":181,"country_code":"RO","country_name":"Romania","latitude":"47.21754000","longitude":"27.05039000","wikiDataId":"Q12147390"},{"id":96075,"Name":"Rediu","state_id":4735,"state_code":"IS","state_name":"Iași County","country_id":181,"country_code":"RO","country_name":"Romania","latitude":"47.21667000","longitude":"27.50000000","wikiDataId":"Q2607423"},{"id":96110,"Name":"Româneşti","state_id":4735,"state_code":"IS","state_name":"Iași County","country_id":181,"country_code":"RO","country_name":"Romania","latitude":"47.28333000","longitude":"27.31667000","wikiDataId":"Q2715847"},{"id":96134,"Name":"Roșcani","state_id":4735,"state_code":"IS","state_name":"Iași County","country_id":181,"country_code":"RO","country_name":"Romania","latitude":"47.45581000","longitude":"27.40021000","wikiDataId":"Q2718469"},{"id":96148,"Name":"Ruginoasa","state_id":4735,"state_code":"IS","state_name":"Iași County","country_id":181,"country_code":"RO","country_name":"Romania","latitude":"47.25000000","longitude":"26.85000000","wikiDataId":"Q913417"},{"id":96259,"Name":"Satu Nou","state_id":4735,"state_code":"IS","state_name":"Iași County","country_id":181,"country_code":"RO","country_name":"Romania","latitude":"47.32147000","longitude":"27.09555000","wikiDataId":"Q12150746"},{"id":96292,"Name":"Scânteia","state_id":4735,"state_code":"IS","state_name":"Iași County","country_id":181,"country_code":"RO","country_name":"Romania","latitude":"46.91667000","longitude":"27.56667000","wikiDataId":"Q2605968"},{"id":96265,"Name":"Scheia","state_id":4735,"state_code":"IS","state_name":"Iași County","country_id":181,"country_code":"RO","country_name":"Romania","latitude":"47.11725000","longitude":"26.88153000","wikiDataId":"Q12171992"},{"id":96273,"Name":"Schitu-Duca","state_id":4735,"state_code":"IS","state_name":"Iași County","country_id":181,"country_code":"RO","country_name":"Romania","latitude":"47.03333000","longitude":"27.76667000","wikiDataId":"Q2719113"},{"id":96277,"Name":"Scobinţi","state_id":4735,"state_code":"IS","state_name":"Iași County","country_id":181,"country_code":"RO","country_name":"Romania","latitude":"47.38333000","longitude":"26.93333000","wikiDataId":"Q2607459"},{"id":96352,"Name":"Sineşti","state_id":4735,"state_code":"IS","state_name":"Iași County","country_id":181,"country_code":"RO","country_name":"Romania","latitude":"47.11667000","longitude":"27.18333000","wikiDataId":"Q2718519"},{"id":97057,"Name":"Şipote","state_id":4735,"state_code":"IS","state_name":"Iași County","country_id":181,"country_code":"RO","country_name":"Romania","latitude":"47.46667000","longitude":"27.21667000","wikiDataId":"Q2607466"},{"id":96359,"Name":"Sireţel","state_id":4735,"state_code":"IS","state_name":"Iași County","country_id":181,"country_code":"RO","country_name":"Romania","latitude":"47.40000000","longitude":"26.73333000","wikiDataId":"Q2606020"},{"id":96371,"Name":"Slobozia","state_id":4735,"state_code":"IS","state_name":"Iași County","country_id":181,"country_code":"RO","country_name":"Romania","latitude":"47.05758000","longitude":"27.41446000","wikiDataId":"Q12153683"},{"id":96395,"Name":"Soci","state_id":4735,"state_code":"IS","state_name":"Iași County","country_id":181,"country_code":"RO","country_name":"Romania","latitude":"47.18573000","longitude":"26.64446000","wikiDataId":"Q12154847"},{"id":96399,"Name":"Sodomeni","state_id":4735,"state_code":"IS","state_name":"Iași County","country_id":181,"country_code":"RO","country_name":"Romania","latitude":"47.22233000","longitude":"26.68805000","wikiDataId":"Q12154216"},{"id":96431,"Name":"Sticlăria","state_id":4735,"state_code":"IS","state_name":"Iași County","country_id":181,"country_code":"RO","country_name":"Romania","latitude":"47.40115000","longitude":"26.83797000","wikiDataId":"Q12158470"},{"id":96442,"Name":"Stolniceni-Prăjescu","state_id":4735,"state_code":"IS","state_name":"Iași County","country_id":181,"country_code":"RO","country_name":"Romania","latitude":"47.19858000","longitude":"26.74810000","wikiDataId":"Q2607525"},{"id":96445,"Name":"Stornești","state_id":4735,"state_code":"IS","state_name":"Iași County","country_id":181,"country_code":"RO","country_name":"Romania","latitude":"47.11667000","longitude":"27.18333000","wikiDataId":"Q12158031"},{"id":96459,"Name":"Strunga","state_id":4735,"state_code":"IS","state_name":"Iași County","country_id":181,"country_code":"RO","country_name":"Romania","latitude":"47.16667000","longitude":"26.98333000","wikiDataId":"Q1084328"},{"id":96497,"Name":"Suhuleț","state_id":4735,"state_code":"IS","state_name":"Iași County","country_id":181,"country_code":"RO","country_name":"Romania","latitude":"46.90368000","longitude":"27.25849000","wikiDataId":"Q12158975"},{"id":106050,"Name":"Tabăra","state_id":4735,"state_code":"IS","state_name":"Iași County","country_id":181,"country_code":"RO","country_name":"Romania","latitude":"47.57395000","longitude":"27.41213000","wikiDataId":"Q12159661"},{"id":106058,"Name":"Tansa","state_id":4735,"state_code":"IS","state_name":"Iași County","country_id":181,"country_code":"RO","country_name":"Romania","latitude":"46.91667000","longitude":"27.23333000","wikiDataId":"Q2718181"},{"id":96583,"Name":"Târgu Frumos","state_id":4735,"state_code":"IS","state_name":"Iași County","country_id":181,"country_code":"RO","country_name":"Romania","latitude":"47.20000000","longitude":"27.00000000","wikiDataId":"Q16898233"},{"id":96620,"Name":"Tătăruşi","state_id":4735,"state_code":"IS","state_name":"Iași County","country_id":181,"country_code":"RO","country_name":"Romania","latitude":"47.35000000","longitude":"26.60000000","wikiDataId":"Q2673463"},{"id":97101,"Name":"Ţibana","state_id":4735,"state_code":"IS","state_name":"Iași County","country_id":181,"country_code":"RO","country_name":"Romania","latitude":"46.98333000","longitude":"27.33333000","wikiDataId":"Q2719423"},{"id":97103,"Name":"Ţibăneşti","state_id":4735,"state_code":"IS","state_name":"Iași County","country_id":181,"country_code":"RO","country_name":"Romania","latitude":"46.91667000","longitude":"27.33333000","wikiDataId":"Q2605875"},{"id":97106,"Name":"Ţigănaşi","state_id":4735,"state_code":"IS","state_name":"Iași County","country_id":181,"country_code":"RO","country_name":"Romania","latitude":"47.33333000","longitude":"27.46667000","wikiDataId":"Q2605942"},{"id":106115,"Name":"Todireşti","state_id":4735,"state_code":"IS","state_name":"Iași County","country_id":181,"country_code":"RO","country_name":"Romania","latitude":"47.31667000","longitude":"26.83333000","wikiDataId":"Q2718506"},{"id":106121,"Name":"Tomeşti","state_id":4735,"state_code":"IS","state_name":"Iași County","country_id":181,"country_code":"RO","country_name":"Romania","latitude":"47.11667000","longitude":"27.68333000","wikiDataId":"Q1059052"},{"id":106129,"Name":"Topile","state_id":4735,"state_code":"IS","state_name":"Iași County","country_id":181,"country_code":"RO","country_name":"Romania","latitude":"47.26340000","longitude":"26.66883000","wikiDataId":"Q12162026"},{"id":106143,"Name":"Totoești","state_id":4735,"state_code":"IS","state_name":"Iași County","country_id":181,"country_code":"RO","country_name":"Romania","latitude":"47.25107000","longitude":"27.28879000","wikiDataId":"Q12162110"},{"id":106156,"Name":"Trifeşti","state_id":4735,"state_code":"IS","state_name":"Iași County","country_id":181,"country_code":"RO","country_name":"Romania","latitude":"47.45000000","longitude":"27.51667000","wikiDataId":"Q2719626"},{"id":97110,"Name":"Ţuţora","state_id":4735,"state_code":"IS","state_name":"Iași County","country_id":181,"country_code":"RO","country_name":"Romania","latitude":"47.13333000","longitude":"27.78333000","wikiDataId":"Q2287554"},{"id":96634,"Name":"Uda","state_id":4735,"state_code":"IS","state_name":"Iași County","country_id":181,"country_code":"RO","country_name":"Romania","latitude":"47.33645000","longitude":"26.57165000","wikiDataId":"Q12163457"},{"id":96732,"Name":"Valea Lupului","state_id":4735,"state_code":"IS","state_name":"Iași County","country_id":181,"country_code":"RO","country_name":"Romania","latitude":"47.17920000","longitude":"27.49965000","wikiDataId":"Q2537535"},{"id":96753,"Name":"Valea Seacă","state_id":4735,"state_code":"IS","state_name":"Iași County","country_id":181,"country_code":"RO","country_name":"Romania","latitude":"47.29219000","longitude":"26.66876000","wikiDataId":"Q2719647"},{"id":96930,"Name":"Vânători","state_id":4735,"state_code":"IS","state_name":"Iași County","country_id":181,"country_code":"RO","country_name":"Romania","latitude":"47.23333000","longitude":"27.53333000","wikiDataId":"Q12089401"},{"id":96792,"Name":"Verșeni","state_id":4735,"state_code":"IS","state_name":"Iași County","country_id":181,"country_code":"RO","country_name":"Romania","latitude":"47.11294000","longitude":"26.64341000","wikiDataId":"Q12088922"},{"id":96805,"Name":"Victoria","state_id":4735,"state_code":"IS","state_name":"Iași County","country_id":181,"country_code":"RO","country_name":"Romania","latitude":"47.28333000","longitude":"27.58333000","wikiDataId":"Q2621166"},{"id":96862,"Name":"Vlădeni","state_id":4735,"state_code":"IS","state_name":"Iași County","country_id":181,"country_code":"RO","country_name":"Romania","latitude":"47.41667000","longitude":"27.33333000","wikiDataId":"Q2719633"},{"id":96881,"Name":"Voineşti","state_id":4735,"state_code":"IS","state_name":"Iași County","country_id":181,"country_code":"RO","country_name":"Romania","latitude":"47.06667000","longitude":"27.41667000","wikiDataId":"Q2719670"},{"id":96978,"Name":"Zagavia","state_id":4735,"state_code":"IS","state_name":"Iași County","country_id":181,"country_code":"RO","country_name":"Romania","latitude":"47.41911000","longitude":"26.89790000","wikiDataId":"Q12105190"},{"id":97001,"Name":"Zmeu","state_id":4735,"state_code":"IS","state_name":"Iași County","country_id":181,"country_code":"RO","country_name":"Romania","latitude":"47.19161000","longitude":"27.17917000","wikiDataId":"Q12106771"}]