[{"id":97669,"Name":"Arkhipovka","state_id":1864,"state_code":"IVA","state_name":"Ivanovo Oblast","country_id":182,"country_code":"RU","country_name":"Russia","latitude":"56.66292000","longitude":"41.25434000","wikiDataId":"Q31888331"},{"id":97972,"Name":"Bogorodskoye","state_id":1864,"state_code":"IVA","state_name":"Ivanovo Oblast","country_id":182,"country_code":"RU","country_name":"Russia","latitude":"57.04695000","longitude":"41.01354000","wikiDataId":"Q31917892"},{"id":98352,"Name":"Dulyapino","state_id":1864,"state_code":"IVA","state_name":"Ivanovo Oblast","country_id":182,"country_code":"RU","country_name":"Russia","latitude":"57.25783000","longitude":"40.81471000","wikiDataId":"Q37784057"},{"id":98442,"Name":"Furmanov","state_id":1864,"state_code":"IVA","state_name":"Ivanovo Oblast","country_id":182,"country_code":"RU","country_name":"Russia","latitude":"57.25363000","longitude":"41.10849000","wikiDataId":"Q197393"},{"id":98461,"Name":"Gavrilov Posad","state_id":1864,"state_code":"IVA","state_name":"Ivanovo Oblast","country_id":182,"country_code":"RU","country_name":"Russia","latitude":"56.55930000","longitude":"40.12100000","wikiDataId":"Q134306"},{"id":98658,"Name":"Il’inskoye-Khovanskoye","state_id":1864,"state_code":"IVA","state_name":"Ivanovo Oblast","country_id":182,"country_code":"RU","country_name":"Russia","latitude":"56.97180000","longitude":"39.76840000","wikiDataId":"Q37807545"},{"id":98731,"Name":"Ivanovo","state_id":1864,"state_code":"IVA","state_name":"Ivanovo Oblast","country_id":182,"country_code":"RU","country_name":"Russia","latitude":"56.99719000","longitude":"40.97139000","wikiDataId":"Q2630"},{"id":98732,"Name":"Ivanovskiy Rayon","state_id":1864,"state_code":"IVA","state_name":"Ivanovo Oblast","country_id":182,"country_code":"RU","country_name":"Russia","latitude":"57.00000000","longitude":"41.00000000","wikiDataId":"Q2389520"},{"id":98812,"Name":"Kamenka","state_id":1864,"state_code":"IVA","state_name":"Ivanovo Oblast","country_id":182,"country_code":"RU","country_name":"Russia","latitude":"57.39214000","longitude":"41.79383000","wikiDataId":"Q3812680"},{"id":98826,"Name":"Kaminskiy","state_id":1864,"state_code":"IVA","state_name":"Ivanovo Oblast","country_id":182,"country_code":"RU","country_name":"Russia","latitude":"57.15159000","longitude":"41.47318000","wikiDataId":"Q37823066"},{"id":99048,"Name":"Kineshemskiy Rayon","state_id":1864,"state_code":"IVA","state_name":"Ivanovo Oblast","country_id":182,"country_code":"RU","country_name":"Russia","latitude":"57.33333000","longitude":"42.33333000","wikiDataId":"Q2218506"},{"id":99049,"Name":"Kineshma","state_id":1864,"state_code":"IVA","state_name":"Ivanovo Oblast","country_id":182,"country_code":"RU","country_name":"Russia","latitude":"57.43914000","longitude":"42.12894000","wikiDataId":"Q153380"},{"id":99083,"Name":"Kitovo","state_id":1864,"state_code":"IVA","state_name":"Ivanovo Oblast","country_id":182,"country_code":"RU","country_name":"Russia","latitude":"56.86586000","longitude":"41.28246000","wikiDataId":"Q35696814"},{"id":99129,"Name":"Kokhma","state_id":1864,"state_code":"IVA","state_name":"Ivanovo Oblast","country_id":182,"country_code":"RU","country_name":"Russia","latitude":"56.93487000","longitude":"41.09150000","wikiDataId":"Q155515"},{"id":99138,"Name":"Kolobovo","state_id":1864,"state_code":"IVA","state_name":"Ivanovo Oblast","country_id":182,"country_code":"RU","country_name":"Russia","latitude":"56.70199000","longitude":"41.34173000","wikiDataId":"Q3816258"},{"id":99172,"Name":"Komsomol’sk","state_id":1864,"state_code":"IVA","state_name":"Ivanovo Oblast","country_id":182,"country_code":"RU","country_name":"Russia","latitude":"57.02913000","longitude":"40.37266000","wikiDataId":"Q154785"},{"id":99175,"Name":"Komsomol’skiy Rayon","state_id":1864,"state_code":"IVA","state_name":"Ivanovo Oblast","country_id":182,"country_code":"RU","country_name":"Russia","latitude":"57.08333000","longitude":"40.41667000","wikiDataId":"Q3816332"},{"id":99506,"Name":"Kuznechikha","state_id":1864,"state_code":"IVA","state_name":"Ivanovo Oblast","country_id":182,"country_code":"RU","country_name":"Russia","latitude":"57.21607000","longitude":"42.33477000","wikiDataId":"Q35705963"},{"id":99619,"Name":"Lezhnevo","state_id":1864,"state_code":"IVA","state_name":"Ivanovo Oblast","country_id":182,"country_code":"RU","country_name":"Russia","latitude":"56.77508000","longitude":"40.89174000","wikiDataId":"Q35716299"},{"id":99620,"Name":"Lezhnevskiy Rayon","state_id":1864,"state_code":"IVA","state_name":"Ivanovo Oblast","country_id":182,"country_code":"RU","country_name":"Russia","latitude":"56.75000000","longitude":"40.91667000","wikiDataId":"Q2219061"},{"id":99683,"Name":"Lukh","state_id":1864,"state_code":"IVA","state_name":"Ivanovo Oblast","country_id":182,"country_code":"RU","country_name":"Russia","latitude":"57.01242000","longitude":"42.25838000","wikiDataId":"Q35720986"},{"id":99686,"Name":"Lukhskiy Rayon","state_id":1864,"state_code":"IVA","state_name":"Ivanovo Oblast","country_id":182,"country_code":"RU","country_name":"Russia","latitude":"57.00000000","longitude":"42.41667000","wikiDataId":"Q2218581"},{"id":99800,"Name":"Markovo","state_id":1864,"state_code":"IVA","state_name":"Ivanovo Oblast","country_id":182,"country_code":"RU","country_name":"Russia","latitude":"57.01850000","longitude":"40.49465000","wikiDataId":"Q35725069"},{"id":100073,"Name":"Navoloki","state_id":1864,"state_code":"IVA","state_name":"Ivanovo Oblast","country_id":182,"country_code":"RU","country_name":"Russia","latitude":"57.46572000","longitude":"41.96344000","wikiDataId":"Q163864"},{"id":100109,"Name":"Nerl’","state_id":1864,"state_code":"IVA","state_name":"Ivanovo Oblast","country_id":182,"country_code":"RU","country_name":"Russia","latitude":"56.66285000","longitude":"40.38931000","wikiDataId":"Q37895647"},{"id":100220,"Name":"Novo-Talitsy","state_id":1864,"state_code":"IVA","state_name":"Ivanovo Oblast","country_id":182,"country_code":"RU","country_name":"Russia","latitude":"57.00392000","longitude":"40.85936000","wikiDataId":"Q4322968"},{"id":100281,"Name":"Novopistsovo","state_id":1864,"state_code":"IVA","state_name":"Ivanovo Oblast","country_id":182,"country_code":"RU","country_name":"Russia","latitude":"57.32177000","longitude":"41.85310000","wikiDataId":"Q37898581"},{"id":100333,"Name":"Novoye Leushino","state_id":1864,"state_code":"IVA","state_name":"Ivanovo Oblast","country_id":182,"country_code":"RU","country_name":"Russia","latitude":"56.80732000","longitude":"40.51443000","wikiDataId":"Q37898807"},{"id":100359,"Name":"Novyye Gorki","state_id":1864,"state_code":"IVA","state_name":"Ivanovo Oblast","country_id":182,"country_code":"RU","country_name":"Russia","latitude":"56.72535000","longitude":"41.06014000","wikiDataId":"Q4326357"},{"id":100529,"Name":"Palekh","state_id":1864,"state_code":"IVA","state_name":"Ivanovo Oblast","country_id":182,"country_code":"RU","country_name":"Russia","latitude":"56.80256000","longitude":"41.85508000","wikiDataId":"Q1010115"},{"id":100530,"Name":"Palekhskiy Rayon","state_id":1864,"state_code":"IVA","state_name":"Ivanovo Oblast","country_id":182,"country_code":"RU","country_name":"Russia","latitude":"56.83333000","longitude":"42.00000000","wikiDataId":"Q2219067"},{"id":100643,"Name":"Pestyaki","state_id":1864,"state_code":"IVA","state_name":"Ivanovo Oblast","country_id":182,"country_code":"RU","country_name":"Russia","latitude":"56.70860000","longitude":"42.66954000","wikiDataId":"Q37959143"},{"id":100644,"Name":"Pestyakovskiy Rayon","state_id":1864,"state_code":"IVA","state_name":"Ivanovo Oblast","country_id":182,"country_code":"RU","country_name":"Russia","latitude":"56.58333000","longitude":"42.66667000","wikiDataId":"Q2218566"},{"id":100663,"Name":"Petrovskiy","state_id":1864,"state_code":"IVA","state_name":"Ivanovo Oblast","country_id":182,"country_code":"RU","country_name":"Russia","latitude":"56.64210000","longitude":"40.32026000","wikiDataId":"Q37959112"},{"id":100685,"Name":"Pistsovo","state_id":1864,"state_code":"IVA","state_name":"Ivanovo Oblast","country_id":182,"country_code":"RU","country_name":"Russia","latitude":"57.17904000","longitude":"40.52983000","wikiDataId":"Q37959065"},{"id":100705,"Name":"Plës","state_id":1864,"state_code":"IVA","state_name":"Ivanovo Oblast","country_id":182,"country_code":"RU","country_name":"Russia","latitude":"57.45862000","longitude":"41.51579000","wikiDataId":"Q179486"},{"id":100846,"Name":"Privolzhsk","state_id":1864,"state_code":"IVA","state_name":"Ivanovo Oblast","country_id":182,"country_code":"RU","country_name":"Russia","latitude":"57.38698000","longitude":"41.28666000","wikiDataId":"Q183208"},{"id":100850,"Name":"Privolzhskiy Rayon","state_id":1864,"state_code":"IVA","state_name":"Ivanovo Oblast","country_id":182,"country_code":"RU","country_name":"Russia","latitude":"57.33333000","longitude":"41.33333000","wikiDataId":"Q3922195"},{"id":100885,"Name":"Puchezh","state_id":1864,"state_code":"IVA","state_name":"Ivanovo Oblast","country_id":182,"country_code":"RU","country_name":"Russia","latitude":"56.97878000","longitude":"43.16761000","wikiDataId":"Q184258"},{"id":100886,"Name":"Puchezhskiy Rayon","state_id":1864,"state_code":"IVA","state_name":"Ivanovo Oblast","country_id":182,"country_code":"RU","country_name":"Russia","latitude":"57.00000000","longitude":"43.00000000","wikiDataId":"Q733424"},{"id":100977,"Name":"Rodniki","state_id":1864,"state_code":"IVA","state_name":"Ivanovo Oblast","country_id":182,"country_code":"RU","country_name":"Russia","latitude":"57.10513000","longitude":"41.73048000","wikiDataId":"Q193318"},{"id":100980,"Name":"Rodnikovskiy Rayon","state_id":1864,"state_code":"IVA","state_name":"Ivanovo Oblast","country_id":182,"country_code":"RU","country_name":"Russia","latitude":"57.08333000","longitude":"41.75000000","wikiDataId":"Q2218592"},{"id":101135,"Name":"Savino","state_id":1864,"state_code":"IVA","state_name":"Ivanovo Oblast","country_id":182,"country_code":"RU","country_name":"Russia","latitude":"56.59285000","longitude":"41.21814000","wikiDataId":"Q37958214"},{"id":101137,"Name":"Savinskiy Rayon","state_id":1864,"state_code":"IVA","state_name":"Ivanovo Oblast","country_id":182,"country_code":"RU","country_name":"Russia","latitude":"56.58333000","longitude":"41.33333000","wikiDataId":"Q2218618"},{"id":101360,"Name":"Shuya","state_id":1864,"state_code":"IVA","state_name":"Ivanovo Oblast","country_id":182,"country_code":"RU","country_name":"Russia","latitude":"56.84865000","longitude":"41.38833000","wikiDataId":"Q198358"},{"id":101362,"Name":"Shuyskiy Rayon","state_id":1864,"state_code":"IVA","state_name":"Ivanovo Oblast","country_id":182,"country_code":"RU","country_name":"Russia","latitude":"56.83333000","longitude":"41.50000000","wikiDataId":"Q2219098"},{"id":101568,"Name":"Staraya Vichuga","state_id":1864,"state_code":"IVA","state_name":"Ivanovo Oblast","country_id":182,"country_code":"RU","country_name":"Russia","latitude":"57.26833000","longitude":"41.87873000","wikiDataId":"Q3968353"},{"id":101753,"Name":"Talitsy","state_id":1864,"state_code":"IVA","state_name":"Ivanovo Oblast","country_id":182,"country_code":"RU","country_name":"Russia","latitude":"56.52801000","longitude":"42.33230000","wikiDataId":"Q37956665"},{"id":101847,"Name":"Teykovo","state_id":1864,"state_code":"IVA","state_name":"Ivanovo Oblast","country_id":182,"country_code":"RU","country_name":"Russia","latitude":"56.85796000","longitude":"40.53692000","wikiDataId":"Q196643"},{"id":101848,"Name":"Teykovskiy Rayon","state_id":1864,"state_code":"IVA","state_name":"Ivanovo Oblast","country_id":182,"country_code":"RU","country_name":"Russia","latitude":"56.75000000","longitude":"40.50000000","wikiDataId":"Q2219087"},{"id":102240,"Name":"Verkhnelandekhovskiy Rayon","state_id":1864,"state_code":"IVA","state_name":"Ivanovo Oblast","country_id":182,"country_code":"RU","country_name":"Russia","latitude":"56.83333000","longitude":"42.58333000","wikiDataId":"Q1973849"},{"id":102254,"Name":"Verkhniy Landekh","state_id":1864,"state_code":"IVA","state_name":"Ivanovo Oblast","country_id":182,"country_code":"RU","country_name":"Russia","latitude":"56.83971000","longitude":"42.59730000","wikiDataId":"Q546859"},{"id":102300,"Name":"Vichuga","state_id":1864,"state_code":"IVA","state_name":"Ivanovo Oblast","country_id":182,"country_code":"RU","country_name":"Russia","latitude":"57.21276000","longitude":"41.93012000","wikiDataId":"Q133102"},{"id":102301,"Name":"Vichugskiy Rayon","state_id":1864,"state_code":"IVA","state_name":"Ivanovo Oblast","country_id":182,"country_code":"RU","country_name":"Russia","latitude":"57.25000000","longitude":"42.00000000","wikiDataId":"Q2218553"},{"id":102605,"Name":"Yur’yevets","state_id":1864,"state_code":"IVA","state_name":"Ivanovo Oblast","country_id":182,"country_code":"RU","country_name":"Russia","latitude":"57.32007000","longitude":"43.10410000","wikiDataId":"Q198834"},{"id":102606,"Name":"Yur’yevetskiy Rayon","state_id":1864,"state_code":"IVA","state_name":"Ivanovo Oblast","country_id":182,"country_code":"RU","country_name":"Russia","latitude":"57.25000000","longitude":"42.83333000","wikiDataId":"Q1568615"},{"id":102612,"Name":"Yuzha","state_id":1864,"state_code":"IVA","state_name":"Ivanovo Oblast","country_id":182,"country_code":"RU","country_name":"Russia","latitude":"56.58306000","longitude":"42.01222000","wikiDataId":"Q198802"},{"id":102622,"Name":"Yuzhskiy Rayon","state_id":1864,"state_code":"IVA","state_name":"Ivanovo Oblast","country_id":182,"country_code":"RU","country_name":"Russia","latitude":"56.58333000","longitude":"42.00000000","wikiDataId":"Q1658621"},{"id":102652,"Name":"Zarechnyy","state_id":1864,"state_code":"IVA","state_name":"Ivanovo Oblast","country_id":182,"country_code":"RU","country_name":"Russia","latitude":"57.46931000","longitude":"42.28431000","wikiDataId":"Q33525449"},{"id":102678,"Name":"Zavolzhsk","state_id":1864,"state_code":"IVA","state_name":"Ivanovo Oblast","country_id":182,"country_code":"RU","country_name":"Russia","latitude":"57.48230000","longitude":"42.13779000","wikiDataId":"Q136490"},{"id":102679,"Name":"Zavolzhskiy Rayon","state_id":1864,"state_code":"IVA","state_name":"Ivanovo Oblast","country_id":182,"country_code":"RU","country_name":"Russia","latitude":"57.50000000","longitude":"42.08333000","wikiDataId":"Q4023913"}]