[{"id":130039,"Name":"Altagracia de Orituco","state_id":2045,"state_code":"J","state_name":"Guárico","country_id":239,"country_code":"VE","country_name":"Venezuela","latitude":"9.86005000","longitude":"-66.38139000","wikiDataId":"Q433758"},{"id":130053,"Name":"Calabozo","state_id":2045,"state_code":"J","state_name":"Guárico","country_id":239,"country_code":"VE","country_name":"Venezuela","latitude":"8.92416000","longitude":"-67.42929000","wikiDataId":"Q1026185"},{"id":130150,"Name":"San Juan de los Morros","state_id":2045,"state_code":"J","state_name":"Guárico","country_id":239,"country_code":"VE","country_name":"Venezuela","latitude":"9.91152000","longitude":"-67.35381000","wikiDataId":"Q999117"},{"id":130167,"Name":"Valle de La Pascua","state_id":2045,"state_code":"J","state_name":"Guárico","country_id":239,"country_code":"VE","country_name":"Venezuela","latitude":"9.21554000","longitude":"-66.00734000","wikiDataId":"Q1308292"},{"id":130171,"Name":"Zaraza","state_id":2045,"state_code":"J","state_name":"Guárico","country_id":239,"country_code":"VE","country_name":"Venezuela","latitude":"9.35029000","longitude":"-65.32452000","wikiDataId":"Q147782"}]