[{"id":56293,"Name":"Jakarta","state_id":1805,"state_code":"JK","state_name":"DKI Jakarta","country_id":102,"country_code":"ID","country_name":"Indonesia","latitude":"-6.21462000","longitude":"106.84513000","wikiDataId":"Q3630"},{"id":56722,"Name":"Kota Administrasi Jakarta Barat","state_id":1805,"state_code":"JK","state_name":"DKI Jakarta","country_id":102,"country_code":"ID","country_name":"Indonesia","latitude":"-6.16760000","longitude":"106.76730000","wikiDataId":"Q10116"},{"id":56723,"Name":"Kota Administrasi Jakarta Pusat","state_id":1805,"state_code":"JK","state_name":"DKI Jakarta","country_id":102,"country_code":"ID","country_name":"Indonesia","latitude":"-6.17770000","longitude":"106.84030000","wikiDataId":"Q10109"},{"id":56724,"Name":"Kota Administrasi Jakarta Selatan","state_id":1805,"state_code":"JK","state_name":"DKI Jakarta","country_id":102,"country_code":"ID","country_name":"Indonesia","latitude":"-6.26600000","longitude":"106.81350000","wikiDataId":"Q10114"},{"id":56725,"Name":"Kota Administrasi Jakarta Timur","state_id":1805,"state_code":"JK","state_name":"DKI Jakarta","country_id":102,"country_code":"ID","country_name":"Indonesia","latitude":"-6.25210000","longitude":"106.88400000","wikiDataId":"Q10111"},{"id":56726,"Name":"Kota Administrasi Jakarta Utara","state_id":1805,"state_code":"JK","state_name":"DKI Jakarta","country_id":102,"country_code":"ID","country_name":"Indonesia","latitude":"-6.13390000","longitude":"106.88230000","wikiDataId":"Q10113"}]