[{"id":17385,"Name":"Alle","state_id":1658,"state_code":"JU","state_name":"Jura","country_id":214,"country_code":"CH","country_name":"Switzerland","latitude":"47.42542000","longitude":"7.13018000","wikiDataId":"Q22391068"},{"id":17442,"Name":"Bassecourt","state_id":1658,"state_code":"JU","state_name":"Jura","country_id":214,"country_code":"CH","country_name":"Switzerland","latitude":"47.33808000","longitude":"7.24373000","wikiDataId":"Q66705"},{"id":17548,"Name":"Boncourt","state_id":1658,"state_code":"JU","state_name":"Jura","country_id":214,"country_code":"CH","country_name":"Switzerland","latitude":"47.49493000","longitude":"7.01297000","wikiDataId":"Q22580171"},{"id":17659,"Name":"Courfaivre","state_id":1658,"state_code":"JU","state_name":"Jura","country_id":214,"country_code":"CH","country_name":"Switzerland","latitude":"47.33461000","longitude":"7.28186000","wikiDataId":"Q69921"},{"id":17660,"Name":"Courgenay","state_id":1658,"state_code":"JU","state_name":"Jura","country_id":214,"country_code":"CH","country_name":"Switzerland","latitude":"47.40483000","longitude":"7.12522000","wikiDataId":"Q67414"},{"id":17662,"Name":"Courrendlin","state_id":1658,"state_code":"JU","state_name":"Jura","country_id":214,"country_code":"CH","country_name":"Switzerland","latitude":"47.33853000","longitude":"7.37243000","wikiDataId":"Q22361849"},{"id":17663,"Name":"Courroux","state_id":1658,"state_code":"JU","state_name":"Jura","country_id":214,"country_code":"CH","country_name":"Switzerland","latitude":"47.36069000","longitude":"7.37371000","wikiDataId":"Q22361890"},{"id":17666,"Name":"Courtételle","state_id":1658,"state_code":"JU","state_name":"Jura","country_id":214,"country_code":"CH","country_name":"Switzerland","latitude":"47.34074000","longitude":"7.31827000","wikiDataId":"Q22401758"},{"id":17680,"Name":"Delémont","state_id":1658,"state_code":"JU","state_name":"Jura","country_id":214,"country_code":"CH","country_name":"Switzerland","latitude":"47.36493000","longitude":"7.34453000","wikiDataId":"Q63896"},{"id":17681,"Name":"Delémont District","state_id":1658,"state_code":"JU","state_name":"Jura","country_id":214,"country_code":"CH","country_name":"Switzerland","latitude":"47.35434000","longitude":"7.33053000","wikiDataId":"Q659702"},{"id":17799,"Name":"Fontenais","state_id":1658,"state_code":"JU","state_name":"Jura","country_id":214,"country_code":"CH","country_name":"Switzerland","latitude":"47.40292000","longitude":"7.08108000","wikiDataId":"Q68780"},{"id":17801,"Name":"Franches-Montagnes District","state_id":1658,"state_code":"JU","state_name":"Jura","country_id":214,"country_code":"CH","country_name":"Switzerland","latitude":"47.24935000","longitude":"7.04562000","wikiDataId":"Q167627"},{"id":17844,"Name":"Glovelier","state_id":1658,"state_code":"JU","state_name":"Jura","country_id":214,"country_code":"CH","country_name":"Switzerland","latitude":"47.33534000","longitude":"7.20556000","wikiDataId":"Q68494"},{"id":18060,"Name":"Le Noirmont","state_id":1658,"state_code":"JU","state_name":"Jura","country_id":214,"country_code":"CH","country_name":"Switzerland","latitude":"47.22464000","longitude":"6.95784000","wikiDataId":"Q22386493"},{"id":18069,"Name":"Les Bois","state_id":1658,"state_code":"JU","state_name":"Jura","country_id":214,"country_code":"CH","country_name":"Switzerland","latitude":"47.17715000","longitude":"6.90498000","wikiDataId":"Q22412191"},{"id":18071,"Name":"Les Breuleux","state_id":1658,"state_code":"JU","state_name":"Jura","country_id":214,"country_code":"CH","country_name":"Switzerland","latitude":"47.21099000","longitude":"7.00792000","wikiDataId":"Q22412337"},{"id":18319,"Name":"Porrentruy","state_id":1658,"state_code":"JU","state_name":"Jura","country_id":214,"country_code":"CH","country_name":"Switzerland","latitude":"47.41728000","longitude":"7.07573000","wikiDataId":"Q70675"},{"id":18320,"Name":"Porrentruy District","state_id":1658,"state_code":"JU","state_name":"Jura","country_id":214,"country_code":"CH","country_name":"Switzerland","latitude":"47.41475000","longitude":"7.07638000","wikiDataId":"Q659764"},{"id":18420,"Name":"Saignelégier","state_id":1658,"state_code":"JU","state_name":"Jura","country_id":214,"country_code":"CH","country_name":"Switzerland","latitude":"47.25619000","longitude":"6.99648000","wikiDataId":"Q22379129"},{"id":18677,"Name":"Vicques","state_id":1658,"state_code":"JU","state_name":"Jura","country_id":214,"country_code":"CH","country_name":"Switzerland","latitude":"47.35000000","longitude":"7.41342000","wikiDataId":"Q54450"}]