[{"id":53426,"Name":"Agua Blanca","state_id":3673,"state_code":"JU","state_name":"Jutiapa Department","country_id":90,"country_code":"GT","country_name":"Guatemala","latitude":"14.50000000","longitude":"-89.65000000","wikiDataId":"Q2403493"},{"id":53432,"Name":"Asunción Mita","state_id":3673,"state_code":"JU","state_name":"Jutiapa Department","country_id":90,"country_code":"GT","country_name":"Guatemala","latitude":"14.33083000","longitude":"-89.71083000","wikiDataId":"Q2608750"},{"id":53433,"Name":"Atescatempa","state_id":3673,"state_code":"JU","state_name":"Jutiapa Department","country_id":90,"country_code":"GT","country_name":"Guatemala","latitude":"14.17444000","longitude":"-89.74250000","wikiDataId":"Q2403627"},{"id":53466,"Name":"Comapa","state_id":3673,"state_code":"JU","state_name":"Jutiapa Department","country_id":90,"country_code":"GT","country_name":"Guatemala","latitude":"14.11667000","longitude":"-89.91667000","wikiDataId":"Q2716888"},{"id":53473,"Name":"Conguaco","state_id":3673,"state_code":"JU","state_name":"Jutiapa Department","country_id":90,"country_code":"GT","country_name":"Guatemala","latitude":"14.04417000","longitude":"-90.03111000","wikiDataId":"Q2403007"},{"id":53480,"Name":"El Adelanto","state_id":3673,"state_code":"JU","state_name":"Jutiapa Department","country_id":90,"country_code":"GT","country_name":"Guatemala","latitude":"14.16667000","longitude":"-89.83333000","wikiDataId":"Q989812"},{"id":53486,"Name":"El Progreso","state_id":3673,"state_code":"JU","state_name":"Jutiapa Department","country_id":90,"country_code":"GT","country_name":"Guatemala","latitude":"14.35000000","longitude":"-89.85000000","wikiDataId":"Q686756"},{"id":53511,"Name":"Jalpatagua","state_id":3673,"state_code":"JU","state_name":"Jutiapa Department","country_id":90,"country_code":"GT","country_name":"Guatemala","latitude":"14.14167000","longitude":"-90.00861000","wikiDataId":"Q676590"},{"id":53512,"Name":"Jerez","state_id":3673,"state_code":"JU","state_name":"Jutiapa Department","country_id":90,"country_code":"GT","country_name":"Guatemala","latitude":"14.10000000","longitude":"-89.75000000","wikiDataId":"Q1749094"},{"id":53516,"Name":"Jutiapa","state_id":3673,"state_code":"JU","state_name":"Jutiapa Department","country_id":90,"country_code":"GT","country_name":"Guatemala","latitude":"14.29167000","longitude":"-89.89583000","wikiDataId":"Q2401953"},{"id":53539,"Name":"Moyuta","state_id":3673,"state_code":"JU","state_name":"Jutiapa Department","country_id":90,"country_code":"GT","country_name":"Guatemala","latitude":"14.03861000","longitude":"-90.08083000","wikiDataId":"Q2403612"},{"id":53543,"Name":"Municipio de Asunción Mita","state_id":3673,"state_code":"JU","state_name":"Jutiapa Department","country_id":90,"country_code":"GT","country_name":"Guatemala","latitude":"14.30330000","longitude":"-89.67623000","wikiDataId":"Q2403612"},{"id":53622,"Name":"Pasaco","state_id":3673,"state_code":"JU","state_name":"Jutiapa Department","country_id":90,"country_code":"GT","country_name":"Guatemala","latitude":"13.97722000","longitude":"-90.20639000","wikiDataId":"Q371987"},{"id":53637,"Name":"Quesada","state_id":3673,"state_code":"JU","state_name":"Jutiapa Department","country_id":90,"country_code":"GT","country_name":"Guatemala","latitude":"14.27028000","longitude":"-90.04028000","wikiDataId":"Q536249"},{"id":53682,"Name":"San José Acatempa","state_id":3673,"state_code":"JU","state_name":"Jutiapa Department","country_id":90,"country_code":"GT","country_name":"Guatemala","latitude":"14.26528000","longitude":"-90.12694000","wikiDataId":"Q2403022"},{"id":53750,"Name":"Santa Catarina Mita","state_id":3673,"state_code":"JU","state_name":"Jutiapa Department","country_id":90,"country_code":"GT","country_name":"Guatemala","latitude":"14.45000000","longitude":"-89.75000000","wikiDataId":"Q1748953"},{"id":53801,"Name":"Yupiltepeque","state_id":3673,"state_code":"JU","state_name":"Jutiapa Department","country_id":90,"country_code":"GT","country_name":"Guatemala","latitude":"14.20000000","longitude":"-89.78333000","wikiDataId":"Q1749697"},{"id":53803,"Name":"Zapotitlán","state_id":3673,"state_code":"JU","state_name":"Jutiapa Department","country_id":90,"country_code":"GT","country_name":"Guatemala","latitude":"14.13333000","longitude":"-89.83333000","wikiDataId":"Q2723903"}]