[{"id":103094,"Name":"Bräkne-Hoby","state_id":1537,"state_code":"K","state_name":"Blekinge","country_id":213,"country_code":"SE","country_name":"Sweden","latitude":"56.23333000","longitude":"15.11667000","wikiDataId":"Q995551"},{"id":103321,"Name":"Hällevik","state_id":1537,"state_code":"K","state_name":"Blekinge","country_id":213,"country_code":"SE","country_name":"Sweden","latitude":"56.01667000","longitude":"14.70000000","wikiDataId":"Q1641992"},{"id":103270,"Name":"Hasslö","state_id":1537,"state_code":"K","state_name":"Blekinge","country_id":213,"country_code":"SE","country_name":"Sweden","latitude":"56.11667000","longitude":"15.48333000","wikiDataId":"Q1958953"},{"id":103359,"Name":"Jämjö","state_id":1537,"state_code":"K","state_name":"Blekinge","country_id":213,"country_code":"SE","country_name":"Sweden","latitude":"56.19187000","longitude":"15.84115000","wikiDataId":"Q2330047"},{"id":103360,"Name":"Jämshög","state_id":1537,"state_code":"K","state_name":"Blekinge","country_id":213,"country_code":"SE","country_name":"Sweden","latitude":"56.23333000","longitude":"14.51667000","wikiDataId":"Q3232599"},{"id":103371,"Name":"Kallinge","state_id":1537,"state_code":"K","state_name":"Blekinge","country_id":213,"country_code":"SE","country_name":"Sweden","latitude":"56.24841000","longitude":"15.28721000","wikiDataId":"Q1020929"},{"id":103377,"Name":"Karlshamn","state_id":1537,"state_code":"K","state_name":"Blekinge","country_id":213,"country_code":"SE","country_name":"Sweden","latitude":"56.17060000","longitude":"14.86188000","wikiDataId":"Q54769"},{"id":103381,"Name":"Karlskrona","state_id":1537,"state_code":"K","state_name":"Blekinge","country_id":213,"country_code":"SE","country_name":"Sweden","latitude":"56.16156000","longitude":"15.58661000","wikiDataId":"Q25789"},{"id":103539,"Name":"Mjällby","state_id":1537,"state_code":"K","state_name":"Blekinge","country_id":213,"country_code":"SE","country_name":"Sweden","latitude":"56.05000000","longitude":"14.68333000","wikiDataId":"Q2012747"},{"id":103570,"Name":"Mörrum","state_id":1537,"state_code":"K","state_name":"Blekinge","country_id":213,"country_code":"SE","country_name":"Sweden","latitude":"56.19281000","longitude":"14.74739000","wikiDataId":"Q600012"},{"id":103605,"Name":"Nättraby","state_id":1537,"state_code":"K","state_name":"Blekinge","country_id":213,"country_code":"SE","country_name":"Sweden","latitude":"56.20000000","longitude":"15.51667000","wikiDataId":"Q2687722"},{"id":103612,"Name":"Olofström","state_id":1537,"state_code":"K","state_name":"Blekinge","country_id":213,"country_code":"SE","country_name":"Sweden","latitude":"56.27730000","longitude":"14.53402000","wikiDataId":"Q995431"},{"id":103672,"Name":"Rödeby","state_id":1537,"state_code":"K","state_name":"Blekinge","country_id":213,"country_code":"SE","country_name":"Sweden","latitude":"56.26078000","longitude":"15.62143000","wikiDataId":"Q1799716"},{"id":103655,"Name":"Ronneby","state_id":1537,"state_code":"K","state_name":"Blekinge","country_id":213,"country_code":"SE","country_name":"Sweden","latitude":"56.20999000","longitude":"15.27602000","wikiDataId":"Q823785"},{"id":103830,"Name":"Sölvesborg","state_id":1537,"state_code":"K","state_name":"Blekinge","country_id":213,"country_code":"SE","country_name":"Sweden","latitude":"56.05205000","longitude":"14.57525000","wikiDataId":"Q898727"},{"id":103779,"Name":"Sturkö","state_id":1537,"state_code":"K","state_name":"Blekinge","country_id":213,"country_code":"SE","country_name":"Sweden","latitude":"56.08333000","longitude":"15.70000000","wikiDataId":"Q660299"},{"id":103801,"Name":"Svängsta","state_id":1537,"state_code":"K","state_name":"Blekinge","country_id":213,"country_code":"SE","country_name":"Sweden","latitude":"56.26667000","longitude":"14.76667000","wikiDataId":"Q1799793"}]