[{"id":97505,"Name":"Adyge-Khabl’","state_id":1869,"state_code":"KC","state_name":"Karachay-Cherkess Republic","country_id":182,"country_code":"RU","country_name":"Russia","latitude":"44.33434000","longitude":"41.93922000","wikiDataId":"Q2026112"},{"id":97588,"Name":"Ali-Berdukovskiy","state_id":1869,"state_code":"KC","state_name":"Karachay-Cherkess Republic","country_id":182,"country_code":"RU","country_name":"Russia","latitude":"43.98952000","longitude":"41.74212000","wikiDataId":"Q31878812"},{"id":97911,"Name":"Besleney","state_id":1869,"state_code":"KC","state_name":"Karachay-Cherkess Republic","country_id":182,"country_code":"RU","country_name":"Russia","latitude":"44.24050000","longitude":"41.73870000","wikiDataId":"Q31915049"},{"id":98160,"Name":"Cherkessk","state_id":1869,"state_code":"KC","state_name":"Karachay-Cherkess Republic","country_id":182,"country_code":"RU","country_name":"Russia","latitude":"44.22333000","longitude":"42.05778000","wikiDataId":"Q5326"},{"id":98328,"Name":"Druzhba","state_id":1869,"state_code":"KC","state_name":"Karachay-Cherkess Republic","country_id":182,"country_code":"RU","country_name":"Russia","latitude":"44.19530000","longitude":"42.01700000","wikiDataId":"Q37783849"},{"id":98638,"Name":"Ikon-Khalk","state_id":1869,"state_code":"KC","state_name":"Karachay-Cherkess Republic","country_id":182,"country_code":"RU","country_name":"Russia","latitude":"44.30510000","longitude":"41.91420000","wikiDataId":"Q37807380"},{"id":98714,"Name":"Ispravnaya","state_id":1869,"state_code":"KC","state_name":"Karachay-Cherkess Republic","country_id":182,"country_code":"RU","country_name":"Russia","latitude":"44.06820000","longitude":"41.61020000","wikiDataId":"Q37808924"},{"id":98857,"Name":"Karachayevsk","state_id":1869,"state_code":"KC","state_name":"Karachay-Cherkess Republic","country_id":182,"country_code":"RU","country_name":"Russia","latitude":"43.77399000","longitude":"41.91419000","wikiDataId":"Q145073"},{"id":98858,"Name":"Karachayevskiy Rayon","state_id":1869,"state_code":"KC","state_name":"Karachay-Cherkess Republic","country_id":182,"country_code":"RU","country_name":"Russia","latitude":"43.50000000","longitude":"42.00000000","wikiDataId":"Q1049128"},{"id":98873,"Name":"Kardonikskaya","state_id":1869,"state_code":"KC","state_name":"Karachay-Cherkess Republic","country_id":182,"country_code":"RU","country_name":"Russia","latitude":"43.86577000","longitude":"41.71432000","wikiDataId":"Q37824374"},{"id":98914,"Name":"Kavkazskiy","state_id":1869,"state_code":"KC","state_name":"Karachay-Cherkess Republic","country_id":182,"country_code":"RU","country_name":"Russia","latitude":"44.26720000","longitude":"42.23470000","wikiDataId":"Q37824724"},{"id":98952,"Name":"Khabez","state_id":1869,"state_code":"KC","state_name":"Karachay-Cherkess Republic","country_id":182,"country_code":"RU","country_name":"Russia","latitude":"44.04340000","longitude":"41.77200000","wikiDataId":"Q4494375"},{"id":99366,"Name":"Krasnyy Kurgan","state_id":1869,"state_code":"KC","state_name":"Karachay-Cherkess Republic","country_id":182,"country_code":"RU","country_name":"Russia","latitude":"43.94222000","longitude":"42.61083000","wikiDataId":"Q35702629"},{"id":99443,"Name":"Kumysh","state_id":1869,"state_code":"KC","state_name":"Karachay-Cherkess Republic","country_id":182,"country_code":"RU","country_name":"Russia","latitude":"43.88334000","longitude":"41.89323000","wikiDataId":"Q35705180"},{"id":99458,"Name":"Kurdzhinovo","state_id":1869,"state_code":"KC","state_name":"Karachay-Cherkess Republic","country_id":182,"country_code":"RU","country_name":"Russia","latitude":"43.98838000","longitude":"40.95519000","wikiDataId":"Q4248151"},{"id":99528,"Name":"Kyzyl-Oktyabr’skiy","state_id":1869,"state_code":"KC","state_name":"Karachay-Cherkess Republic","country_id":182,"country_code":"RU","country_name":"Russia","latitude":"43.82570000","longitude":"41.78605000","wikiDataId":"Q35706495"},{"id":99763,"Name":"Malokarachayevskiy Rayon","state_id":1869,"state_code":"KC","state_name":"Karachay-Cherkess Republic","country_id":182,"country_code":"RU","country_name":"Russia","latitude":"43.75000000","longitude":"42.50000000","wikiDataId":"Q40326"},{"id":99841,"Name":"Mednogorskiy","state_id":1869,"state_code":"KC","state_name":"Karachay-Cherkess Republic","country_id":182,"country_code":"RU","country_name":"Russia","latitude":"43.91780000","longitude":"41.18255000","wikiDataId":"Q35727494"},{"id":100162,"Name":"Nizhniy Arkhyz","state_id":1869,"state_code":"KC","state_name":"Karachay-Cherkess Republic","country_id":182,"country_code":"RU","country_name":"Russia","latitude":"43.67817000","longitude":"41.45977000","wikiDataId":"Q37896810"},{"id":100344,"Name":"Novyy Karachay","state_id":1869,"state_code":"KC","state_name":"Karachay-Cherkess Republic","country_id":182,"country_code":"RU","country_name":"Russia","latitude":"43.82076000","longitude":"41.90322000","wikiDataId":"Q3752174"},{"id":100460,"Name":"Ordzhonikidzevskiy","state_id":1869,"state_code":"KC","state_name":"Karachay-Cherkess Republic","country_id":182,"country_code":"RU","country_name":"Russia","latitude":"43.84233000","longitude":"41.89636000","wikiDataId":"Q37903358"},{"id":100624,"Name":"Pervomayskoye","state_id":1869,"state_code":"KC","state_name":"Karachay-Cherkess Republic","country_id":182,"country_code":"RU","country_name":"Russia","latitude":"43.93847000","longitude":"42.47600000","wikiDataId":"Q37959178"},{"id":100805,"Name":"Pravokubanskiy","state_id":1869,"state_code":"KC","state_name":"Karachay-Cherkess Republic","country_id":182,"country_code":"RU","country_name":"Russia","latitude":"43.91721000","longitude":"41.88413000","wikiDataId":"Q37959919"},{"id":100809,"Name":"Pregradnaya","state_id":1869,"state_code":"KC","state_name":"Karachay-Cherkess Republic","country_id":182,"country_code":"RU","country_name":"Russia","latitude":"43.95395000","longitude":"41.18910000","wikiDataId":"Q37958844"},{"id":100825,"Name":"Prikubanskiy Rayon","state_id":1869,"state_code":"KC","state_name":"Karachay-Cherkess Republic","country_id":182,"country_code":"RU","country_name":"Russia","latitude":"44.08333000","longitude":"42.00000000","wikiDataId":"Q40330"},{"id":100884,"Name":"Psyzh","state_id":1869,"state_code":"KC","state_name":"Karachay-Cherkess Republic","country_id":182,"country_code":"RU","country_name":"Russia","latitude":"44.23306000","longitude":"42.01833000","wikiDataId":"Q4383059"},{"id":101125,"Name":"Sary-Tyuz","state_id":1869,"state_code":"KC","state_name":"Karachay-Cherkess Republic","country_id":182,"country_code":"RU","country_name":"Russia","latitude":"43.90181000","longitude":"41.89523000","wikiDataId":"Q37958243"},{"id":101623,"Name":"Storozhevaya","state_id":1869,"state_code":"KC","state_name":"Karachay-Cherkess Republic","country_id":182,"country_code":"RU","country_name":"Russia","latitude":"43.87886000","longitude":"41.45143000","wikiDataId":"Q37957031"},{"id":101830,"Name":"Tereze","state_id":1869,"state_code":"KC","state_name":"Karachay-Cherkess Republic","country_id":182,"country_code":"RU","country_name":"Russia","latitude":"43.93608000","longitude":"42.44340000","wikiDataId":"Q37956547"},{"id":102014,"Name":"Uchkeken","state_id":1869,"state_code":"KC","state_name":"Karachay-Cherkess Republic","country_id":182,"country_code":"RU","country_name":"Russia","latitude":"43.93778000","longitude":"42.51167000","wikiDataId":"Q1019438"},{"id":102016,"Name":"Uchkulan","state_id":1869,"state_code":"KC","state_name":"Karachay-Cherkess Republic","country_id":182,"country_code":"RU","country_name":"Russia","latitude":"43.45705000","longitude":"42.09643000","wikiDataId":"Q37960024"},{"id":102019,"Name":"Udarnyy","state_id":1869,"state_code":"KC","state_name":"Karachay-Cherkess Republic","country_id":182,"country_code":"RU","country_name":"Russia","latitude":"44.34917000","longitude":"42.50528000","wikiDataId":"Q37959791"},{"id":102119,"Name":"Ust’-Dzheguta","state_id":1869,"state_code":"KC","state_name":"Karachay-Cherkess Republic","country_id":182,"country_code":"RU","country_name":"Russia","latitude":"44.08340000","longitude":"41.97630000","wikiDataId":"Q196938"},{"id":102689,"Name":"Zelenchukskaya","state_id":1869,"state_code":"KC","state_name":"Karachay-Cherkess Republic","country_id":182,"country_code":"RU","country_name":"Russia","latitude":"43.85804000","longitude":"41.58940000","wikiDataId":"Q2268181"}]