[{"id":97477,"Name":"Abagur","state_id":1897,"state_code":"KEM","state_name":"Kemerovo Oblast","country_id":182,"country_code":"RU","country_name":"Russia","latitude":"53.73080000","longitude":"87.25260000","wikiDataId":"Q4054184"},{"id":97646,"Name":"Anzhero-Sudzhensk","state_id":1897,"state_code":"KEM","state_name":"Kemerovo Oblast","country_id":182,"country_code":"RU","country_name":"Russia","latitude":"56.08100000","longitude":"86.02850000","wikiDataId":"Q103620"},{"id":97685,"Name":"Artyshta","state_id":1897,"state_code":"KEM","state_name":"Kemerovo Oblast","country_id":182,"country_code":"RU","country_name":"Russia","latitude":"54.12220000","longitude":"86.29090000","wikiDataId":"Q31889801"},{"id":97748,"Name":"Bachatskiy","state_id":1897,"state_code":"KEM","state_name":"Kemerovo Oblast","country_id":182,"country_code":"RU","country_name":"Russia","latitude":"54.29270000","longitude":"86.12850000","wikiDataId":"Q810890"},{"id":97806,"Name":"Barzas","state_id":1897,"state_code":"KEM","state_name":"Kemerovo Oblast","country_id":182,"country_code":"RU","country_name":"Russia","latitude":"55.72912000","longitude":"86.32233000","wikiDataId":"Q4078192"},{"id":97852,"Name":"Belogorsk","state_id":1897,"state_code":"KEM","state_name":"Kemerovo Oblast","country_id":182,"country_code":"RU","country_name":"Russia","latitude":"55.01778000","longitude":"88.48972000","wikiDataId":"Q1990213"},{"id":97867,"Name":"Belovo","state_id":1897,"state_code":"KEM","state_name":"Kemerovo Oblast","country_id":182,"country_code":"RU","country_name":"Russia","latitude":"54.41650000","longitude":"86.29760000","wikiDataId":"Q104717"},{"id":97907,"Name":"Berëzovskiy","state_id":1897,"state_code":"KEM","state_name":"Kemerovo Oblast","country_id":182,"country_code":"RU","country_name":"Russia","latitude":"55.60000000","longitude":"86.20000000","wikiDataId":"Q105010"},{"id":98039,"Name":"Borovoy","state_id":1897,"state_code":"KEM","state_name":"Kemerovo Oblast","country_id":182,"country_code":"RU","country_name":"Russia","latitude":"55.43333000","longitude":"86.08333000","wikiDataId":"Q31924796"},{"id":98199,"Name":"Chistogorskiy","state_id":1897,"state_code":"KEM","state_name":"Kemerovo Oblast","country_id":182,"country_code":"RU","country_name":"Russia","latitude":"53.98350000","longitude":"87.38430000","wikiDataId":"Q34793132"},{"id":98576,"Name":"Gramoteino","state_id":1897,"state_code":"KEM","state_name":"Kemerovo Oblast","country_id":182,"country_code":"RU","country_name":"Russia","latitude":"54.53680000","longitude":"86.38390000","wikiDataId":"Q1125942"},{"id":98617,"Name":"Gur’yevsk","state_id":1897,"state_code":"KEM","state_name":"Kemerovo Oblast","country_id":182,"country_code":"RU","country_name":"Russia","latitude":"54.28333000","longitude":"85.93333000","wikiDataId":"Q134717"},{"id":98677,"Name":"Inskoy","state_id":1897,"state_code":"KEM","state_name":"Kemerovo Oblast","country_id":182,"country_code":"RU","country_name":"Russia","latitude":"54.42970000","longitude":"86.44000000","wikiDataId":"Q37808348"},{"id":98723,"Name":"Itatskiy","state_id":1897,"state_code":"KEM","state_name":"Kemerovo Oblast","country_id":182,"country_code":"RU","country_name":"Russia","latitude":"56.07000000","longitude":"89.03694000","wikiDataId":"Q37809116"},{"id":98749,"Name":"Izhmorskiy","state_id":1897,"state_code":"KEM","state_name":"Kemerovo Oblast","country_id":182,"country_code":"RU","country_name":"Russia","latitude":"56.19239000","longitude":"86.64161000","wikiDataId":"Q37816296"},{"id":98799,"Name":"Kaltan","state_id":1897,"state_code":"KEM","state_name":"Kemerovo Oblast","country_id":182,"country_code":"RU","country_name":"Russia","latitude":"53.53470000","longitude":"87.24570000","wikiDataId":"Q37818031"},{"id":98862,"Name":"Karagayla","state_id":1897,"state_code":"KEM","state_name":"Kemerovo Oblast","country_id":182,"country_code":"RU","country_name":"Russia","latitude":"54.17200000","longitude":"86.55210000","wikiDataId":"Q37824229"},{"id":98921,"Name":"Kaz","state_id":1897,"state_code":"KEM","state_name":"Kemerovo Oblast","country_id":182,"country_code":"RU","country_name":"Russia","latitude":"52.91130000","longitude":"87.31050000","wikiDataId":"Q1020918"},{"id":98933,"Name":"Kedrovka","state_id":1897,"state_code":"KEM","state_name":"Kemerovo Oblast","country_id":182,"country_code":"RU","country_name":"Russia","latitude":"55.53333000","longitude":"86.05000000","wikiDataId":"Q37824891"},{"id":98937,"Name":"Kemerovo","state_id":1897,"state_code":"KEM","state_name":"Kemerovo Oblast","country_id":182,"country_code":"RU","country_name":"Russia","latitude":"55.33333000","longitude":"86.08333000","wikiDataId":"Q6066"},{"id":99078,"Name":"Kiselëvsk","state_id":1897,"state_code":"KEM","state_name":"Kemerovo Oblast","country_id":182,"country_code":"RU","country_name":"Russia","latitude":"53.99000000","longitude":"86.66210000","wikiDataId":"Q153663"},{"id":99272,"Name":"Krapivinskiy","state_id":1897,"state_code":"KEM","state_name":"Kemerovo Oblast","country_id":182,"country_code":"RU","country_name":"Russia","latitude":"54.99920000","longitude":"86.81330000","wikiDataId":"Q35702081"},{"id":99298,"Name":"Krasnobrodskiy","state_id":1897,"state_code":"KEM","state_name":"Kemerovo Oblast","country_id":182,"country_code":"RU","country_name":"Russia","latitude":"54.15810000","longitude":"86.44860000","wikiDataId":"Q955328"},{"id":99307,"Name":"Krasnogorskiy","state_id":1897,"state_code":"KEM","state_name":"Kemerovo Oblast","country_id":182,"country_code":"RU","country_name":"Russia","latitude":"54.54710000","longitude":"86.28100000","wikiDataId":"Q35702361"},{"id":99352,"Name":"Krasnoye","state_id":1897,"state_code":"KEM","state_name":"Kemerovo Oblast","country_id":182,"country_code":"RU","country_name":"Russia","latitude":"54.60680000","longitude":"85.38990000","wikiDataId":"Q16666900"},{"id":99499,"Name":"Kuzedeyevo","state_id":1897,"state_code":"KEM","state_name":"Kemerovo Oblast","country_id":182,"country_code":"RU","country_name":"Russia","latitude":"53.33080000","longitude":"87.20190000","wikiDataId":"Q35705924"},{"id":99569,"Name":"Leninsk-Kuznetskiy Rayon","state_id":1897,"state_code":"KEM","state_name":"Kemerovo Oblast","country_id":182,"country_code":"RU","country_name":"Russia","latitude":"54.66667000","longitude":"86.00000000","wikiDataId":"Q1652683"},{"id":99570,"Name":"Leninsk-Kuznetsky","state_id":1897,"state_code":"KEM","state_name":"Kemerovo Oblast","country_id":182,"country_code":"RU","country_name":"Russia","latitude":"54.65670000","longitude":"86.17370000","wikiDataId":"Q157482"},{"id":99639,"Name":"Listvyagi","state_id":1897,"state_code":"KEM","state_name":"Kemerovo Oblast","country_id":182,"country_code":"RU","country_name":"Russia","latitude":"53.67720000","longitude":"86.95100000","wikiDataId":"Q35718187"},{"id":99795,"Name":"Mariinsk","state_id":1897,"state_code":"KEM","state_name":"Kemerovo Oblast","country_id":182,"country_code":"RU","country_name":"Russia","latitude":"56.21389000","longitude":"87.74722000","wikiDataId":"Q49771"},{"id":99880,"Name":"Mezhdurechensk","state_id":1897,"state_code":"KEM","state_name":"Kemerovo Oblast","country_id":182,"country_code":"RU","country_name":"Russia","latitude":"53.69417000","longitude":"88.06028000","wikiDataId":"Q158751"},{"id":100003,"Name":"Mundybash","state_id":1897,"state_code":"KEM","state_name":"Kemerovo Oblast","country_id":182,"country_code":"RU","country_name":"Russia","latitude":"53.21100000","longitude":"87.29830000","wikiDataId":"Q35735636"},{"id":100033,"Name":"Myski","state_id":1897,"state_code":"KEM","state_name":"Kemerovo Oblast","country_id":182,"country_code":"RU","country_name":"Russia","latitude":"53.70900000","longitude":"87.80140000","wikiDataId":"Q105503"},{"id":100131,"Name":"Nikitinskiy","state_id":1897,"state_code":"KEM","state_name":"Kemerovo Oblast","country_id":182,"country_code":"RU","country_name":"Russia","latitude":"54.58450000","longitude":"86.01150000","wikiDataId":"Q37896166"},{"id":100257,"Name":"Novokuznetsk","state_id":1897,"state_code":"KEM","state_name":"Kemerovo Oblast","country_id":182,"country_code":"RU","country_name":"Russia","latitude":"53.75570000","longitude":"87.10990000","wikiDataId":"Q93910"},{"id":100258,"Name":"Novokuznetskiy Rayon","state_id":1897,"state_code":"KEM","state_name":"Kemerovo Oblast","country_id":182,"country_code":"RU","country_name":"Russia","latitude":"53.75000000","longitude":"87.08333000","wikiDataId":"Q904732"},{"id":100279,"Name":"Novopesterevo","state_id":1897,"state_code":"KEM","state_name":"Kemerovo Oblast","country_id":182,"country_code":"RU","country_name":"Russia","latitude":"54.44290000","longitude":"85.74010000","wikiDataId":"Q37898571"},{"id":100487,"Name":"Osinniki","state_id":1897,"state_code":"KEM","state_name":"Kemerovo Oblast","country_id":182,"country_code":"RU","country_name":"Russia","latitude":"53.62390000","longitude":"87.35980000","wikiDataId":"Q176753"},{"id":100679,"Name":"Pioner","state_id":1897,"state_code":"KEM","state_name":"Kemerovo Oblast","country_id":182,"country_code":"RU","country_name":"Russia","latitude":"55.31660000","longitude":"85.95080000","wikiDataId":"Q37961660"},{"id":100703,"Name":"Plotnikovo","state_id":1897,"state_code":"KEM","state_name":"Kemerovo Oblast","country_id":182,"country_code":"RU","country_name":"Russia","latitude":"55.02472000","longitude":"85.94361000","wikiDataId":"Q37961741"},{"id":100764,"Name":"Polysayevo","state_id":1897,"state_code":"KEM","state_name":"Kemerovo Oblast","country_id":182,"country_code":"RU","country_name":"Russia","latitude":"54.60120000","longitude":"86.24590000","wikiDataId":"Q182906"},{"id":100842,"Name":"Pritomskiy","state_id":1897,"state_code":"KEM","state_name":"Kemerovo Oblast","country_id":182,"country_code":"RU","country_name":"Russia","latitude":"53.77240000","longitude":"87.60820000","wikiDataId":"Q37961600"},{"id":100859,"Name":"Prokop’yevsk","state_id":1897,"state_code":"KEM","state_name":"Kemerovo Oblast","country_id":182,"country_code":"RU","country_name":"Russia","latitude":"53.90590000","longitude":"86.71900000","wikiDataId":"Q184147"},{"id":100860,"Name":"Prokop’yevskiy Rayon","state_id":1897,"state_code":"KEM","state_name":"Kemerovo Oblast","country_id":182,"country_code":"RU","country_name":"Russia","latitude":"54.00000000","longitude":"86.66667000","wikiDataId":"Q840914"},{"id":100866,"Name":"Promyshlennaya","state_id":1897,"state_code":"KEM","state_name":"Kemerovo Oblast","country_id":182,"country_code":"RU","country_name":"Russia","latitude":"54.91590000","longitude":"85.63850000","wikiDataId":"Q37961597"},{"id":100867,"Name":"Promyshlennovskiy","state_id":1897,"state_code":"KEM","state_name":"Kemerovo Oblast","country_id":182,"country_code":"RU","country_name":"Russia","latitude":"55.48333000","longitude":"86.20000000","wikiDataId":"Q37961594"},{"id":101023,"Name":"Rudnichnyy","state_id":1897,"state_code":"KEM","state_name":"Kemerovo Oblast","country_id":182,"country_code":"RU","country_name":"Russia","latitude":"56.08469000","longitude":"86.24988000","wikiDataId":"Q37961566"},{"id":101077,"Name":"Salair","state_id":1897,"state_code":"KEM","state_name":"Kemerovo Oblast","country_id":182,"country_code":"RU","country_name":"Russia","latitude":"54.23120000","longitude":"85.79720000","wikiDataId":"Q193455"},{"id":101305,"Name":"Sheregesh","state_id":1897,"state_code":"KEM","state_name":"Kemerovo Oblast","country_id":182,"country_code":"RU","country_name":"Russia","latitude":"52.92090000","longitude":"87.98690000","wikiDataId":"Q924537"},{"id":101490,"Name":"Sosnovka","state_id":1897,"state_code":"KEM","state_name":"Kemerovo Oblast","country_id":182,"country_code":"RU","country_name":"Russia","latitude":"53.66760000","longitude":"87.15270000","wikiDataId":"Q37957304"},{"id":101527,"Name":"Spassk","state_id":1897,"state_code":"KEM","state_name":"Kemerovo Oblast","country_id":182,"country_code":"RU","country_name":"Russia","latitude":"52.74700000","longitude":"87.75450000","wikiDataId":"Q3966065"},{"id":101572,"Name":"Starobachaty","state_id":1897,"state_code":"KEM","state_name":"Kemerovo Oblast","country_id":182,"country_code":"RU","country_name":"Russia","latitude":"54.24250000","longitude":"86.20720000","wikiDataId":"Q37961173"},{"id":101590,"Name":"Staropesterevo","state_id":1897,"state_code":"KEM","state_name":"Kemerovo Oblast","country_id":182,"country_code":"RU","country_name":"Russia","latitude":"54.50010000","longitude":"86.40940000","wikiDataId":"Q37961171"},{"id":101684,"Name":"Suslovo","state_id":1897,"state_code":"KEM","state_name":"Kemerovo Oblast","country_id":182,"country_code":"RU","country_name":"Russia","latitude":"56.21667000","longitude":"88.11667000","wikiDataId":"Q37961095"},{"id":101788,"Name":"Tashtagol","state_id":1897,"state_code":"KEM","state_name":"Kemerovo Oblast","country_id":182,"country_code":"RU","country_name":"Russia","latitude":"52.76570000","longitude":"87.88940000","wikiDataId":"Q196629"},{"id":101789,"Name":"Tashtagol’skiy Rayon","state_id":1897,"state_code":"KEM","state_name":"Kemerovo Oblast","country_id":182,"country_code":"RU","country_name":"Russia","latitude":"52.78333000","longitude":"87.88333000","wikiDataId":"Q1655539"},{"id":101802,"Name":"Tayga","state_id":1897,"state_code":"KEM","state_name":"Kemerovo Oblast","country_id":182,"country_code":"RU","country_name":"Russia","latitude":"56.06402000","longitude":"85.62238000","wikiDataId":"Q196592"},{"id":101806,"Name":"Tayzhina","state_id":1897,"state_code":"KEM","state_name":"Kemerovo Oblast","country_id":182,"country_code":"RU","country_name":"Russia","latitude":"53.66790000","longitude":"87.43620000","wikiDataId":"Q37960971"},{"id":101815,"Name":"Temirtau","state_id":1897,"state_code":"KEM","state_name":"Kemerovo Oblast","country_id":182,"country_code":"RU","country_name":"Russia","latitude":"53.13770000","longitude":"87.45380000","wikiDataId":"Q37960948"},{"id":101864,"Name":"Tisul’","state_id":1897,"state_code":"KEM","state_name":"Kemerovo Oblast","country_id":182,"country_code":"RU","country_name":"Russia","latitude":"55.76173000","longitude":"88.31228000","wikiDataId":"Q3991815"},{"id":101894,"Name":"Topki","state_id":1897,"state_code":"KEM","state_name":"Kemerovo Oblast","country_id":182,"country_code":"RU","country_name":"Russia","latitude":"55.27690000","longitude":"85.61630000","wikiDataId":"Q196675"},{"id":101930,"Name":"Trudarmeyskiy","state_id":1897,"state_code":"KEM","state_name":"Kemerovo Oblast","country_id":182,"country_code":"RU","country_name":"Russia","latitude":"54.13200000","longitude":"86.40980000","wikiDataId":"Q37960821"},{"id":101990,"Name":"Tyazhinskiy","state_id":1897,"state_code":"KEM","state_name":"Kemerovo Oblast","country_id":182,"country_code":"RU","country_name":"Russia","latitude":"56.11607000","longitude":"88.52279000","wikiDataId":"Q37960780"},{"id":102085,"Name":"Ursk","state_id":1897,"state_code":"KEM","state_name":"Kemerovo Oblast","country_id":182,"country_code":"RU","country_name":"Russia","latitude":"54.45417000","longitude":"85.40028000","wikiDataId":"Q37961832"},{"id":102230,"Name":"Verkh-Chebula","state_id":1897,"state_code":"KEM","state_name":"Kemerovo Oblast","country_id":182,"country_code":"RU","country_name":"Russia","latitude":"56.03062000","longitude":"87.62215000","wikiDataId":"Q37960577"},{"id":102463,"Name":"Yagunovo","state_id":1897,"state_code":"KEM","state_name":"Kemerovo Oblast","country_id":182,"country_code":"RU","country_name":"Russia","latitude":"55.24645000","longitude":"86.01097000","wikiDataId":"Q33522826"},{"id":102464,"Name":"Yagunovskiy","state_id":1897,"state_code":"KEM","state_name":"Kemerovo Oblast","country_id":182,"country_code":"RU","country_name":"Russia","latitude":"55.28280000","longitude":"85.97800000","wikiDataId":"Q33522833"},{"id":102510,"Name":"Yashkino","state_id":1897,"state_code":"KEM","state_name":"Kemerovo Oblast","country_id":182,"country_code":"RU","country_name":"Russia","latitude":"55.87360000","longitude":"85.42650000","wikiDataId":"Q33523072"},{"id":102517,"Name":"Yaya","state_id":1897,"state_code":"KEM","state_name":"Kemerovo Oblast","country_id":182,"country_code":"RU","country_name":"Russia","latitude":"56.20600000","longitude":"86.44000000","wikiDataId":"Q1678795"},{"id":102593,"Name":"Yurga","state_id":1897,"state_code":"KEM","state_name":"Kemerovo Oblast","country_id":182,"country_code":"RU","country_name":"Russia","latitude":"55.72306000","longitude":"84.88611000","wikiDataId":"Q198824"},{"id":102595,"Name":"Yurginskiy Rayon","state_id":1897,"state_code":"KEM","state_name":"Kemerovo Oblast","country_id":182,"country_code":"RU","country_name":"Russia","latitude":"55.75000000","longitude":"84.75000000","wikiDataId":"Q2912382"},{"id":102697,"Name":"Zelenogorskiy","state_id":1897,"state_code":"KEM","state_name":"Kemerovo Oblast","country_id":182,"country_code":"RU","country_name":"Russia","latitude":"55.03333000","longitude":"87.00000000","wikiDataId":"Q33527066"}]