[{"id":97614,"Name":"Amursk","state_id":1873,"state_code":"KHA","state_name":"Khabarovsk Krai","country_id":182,"country_code":"RU","country_name":"Russia","latitude":"50.23685000","longitude":"136.88136000","wikiDataId":"Q103493"},{"id":97727,"Name":"Ayan","state_id":1873,"state_code":"KHA","state_name":"Khabarovsk Krai","country_id":182,"country_code":"RU","country_name":"Russia","latitude":"56.46314000","longitude":"138.17777000","wikiDataId":"Q412044"},{"id":97908,"Name":"Berëzovyy","state_id":1873,"state_code":"KHA","state_name":"Khabarovsk Krai","country_id":182,"country_code":"RU","country_name":"Russia","latitude":"51.66897000","longitude":"135.66584000","wikiDataId":"Q37773188"},{"id":97926,"Name":"Bikin","state_id":1873,"state_code":"KHA","state_name":"Khabarovsk Krai","country_id":182,"country_code":"RU","country_name":"Russia","latitude":"46.81293000","longitude":"134.25012000","wikiDataId":"Q105056"},{"id":97927,"Name":"Bikinskiy Rayon","state_id":1873,"state_code":"KHA","state_name":"Khabarovsk Krai","country_id":182,"country_code":"RU","country_name":"Russia","latitude":"47.00000000","longitude":"134.25000000","wikiDataId":"Q794911"},{"id":97974,"Name":"Bogorodskoye","state_id":1873,"state_code":"KHA","state_name":"Khabarovsk Krai","country_id":182,"country_code":"RU","country_name":"Russia","latitude":"52.37397000","longitude":"140.43579000","wikiDataId":"Q31917895"},{"id":98131,"Name":"Chegdomyn","state_id":1873,"state_code":"KHA","state_name":"Khabarovsk Krai","country_id":182,"country_code":"RU","country_name":"Russia","latitude":"51.12853000","longitude":"133.00827000","wikiDataId":"Q910773"},{"id":98221,"Name":"Chumikan","state_id":1873,"state_code":"KHA","state_name":"Khabarovsk Krai","country_id":182,"country_code":"RU","country_name":"Russia","latitude":"54.71857000","longitude":"135.31630000","wikiDataId":"Q1140817"},{"id":98253,"Name":"De-Kastri","state_id":1873,"state_code":"KHA","state_name":"Khabarovsk Krai","country_id":182,"country_code":"RU","country_name":"Russia","latitude":"51.47543000","longitude":"140.76986000","wikiDataId":"Q2355091"},{"id":98525,"Name":"Gorin","state_id":1873,"state_code":"KHA","state_name":"Khabarovsk Krai","country_id":182,"country_code":"RU","country_name":"Russia","latitude":"51.19861000","longitude":"136.66216000","wikiDataId":"Q37803903"},{"id":98542,"Name":"Gornyy","state_id":1873,"state_code":"KHA","state_name":"Khabarovsk Krai","country_id":182,"country_code":"RU","country_name":"Russia","latitude":"50.76344000","longitude":"136.44951000","wikiDataId":"Q37804037"},{"id":98665,"Name":"Imeni Poliny Osipenko","state_id":1873,"state_code":"KHA","state_name":"Khabarovsk Krai","country_id":182,"country_code":"RU","country_name":"Russia","latitude":"52.42270000","longitude":"136.48692000","wikiDataId":"Q1659808"},{"id":98948,"Name":"Khabarovsk","state_id":1873,"state_code":"KHA","state_name":"Khabarovsk Krai","country_id":182,"country_code":"RU","country_name":"Russia","latitude":"48.48271000","longitude":"135.08379000","wikiDataId":"Q4454"},{"id":98949,"Name":"Khabarovsk Vtoroy","state_id":1873,"state_code":"KHA","state_name":"Khabarovsk Krai","country_id":182,"country_code":"RU","country_name":"Russia","latitude":"48.43776000","longitude":"135.13329000","wikiDataId":"Q4454"},{"id":99004,"Name":"Khor","state_id":1873,"state_code":"KHA","state_name":"Khabarovsk Krai","country_id":182,"country_code":"RU","country_name":"Russia","latitude":"47.88696000","longitude":"134.94630000","wikiDataId":"Q1076287"},{"id":99021,"Name":"Khurba","state_id":1873,"state_code":"KHA","state_name":"Khabarovsk Krai","country_id":182,"country_code":"RU","country_name":"Russia","latitude":"50.40657000","longitude":"136.88276000","wikiDataId":"Q35695600"},{"id":99115,"Name":"Knyaze-Volkonskoye","state_id":1873,"state_code":"KHA","state_name":"Khabarovsk Krai","country_id":182,"country_code":"RU","country_name":"Russia","latitude":"48.46547000","longitude":"135.45582000","wikiDataId":"Q35697534"},{"id":99171,"Name":"Komsomolsk-on-Amur","state_id":1873,"state_code":"KHA","state_name":"Khabarovsk Krai","country_id":182,"country_code":"RU","country_name":"Russia","latitude":"50.55034000","longitude":"137.00995000","wikiDataId":"Q154801"},{"id":99206,"Name":"Korfovskiy","state_id":1873,"state_code":"KHA","state_name":"Khabarovsk Krai","country_id":182,"country_code":"RU","country_name":"Russia","latitude":"48.22259000","longitude":"135.05966000","wikiDataId":"Q35699784"},{"id":99548,"Name":"Lazarev","state_id":1873,"state_code":"KHA","state_name":"Khabarovsk Krai","country_id":182,"country_code":"RU","country_name":"Russia","latitude":"52.22307000","longitude":"141.51265000","wikiDataId":"Q1806504"},{"id":99585,"Name":"Lermontovka","state_id":1873,"state_code":"KHA","state_name":"Khabarovsk Krai","country_id":182,"country_code":"RU","country_name":"Russia","latitude":"47.14795000","longitude":"134.33477000","wikiDataId":"Q35715172"},{"id":99641,"Name":"Litovko","state_id":1873,"state_code":"KHA","state_name":"Khabarovsk Krai","country_id":182,"country_code":"RU","country_name":"Russia","latitude":"49.23754000","longitude":"135.17401000","wikiDataId":"Q35718318"},{"id":99668,"Name":"Lososina","state_id":1873,"state_code":"KHA","state_name":"Khabarovsk Krai","country_id":182,"country_code":"RU","country_name":"Russia","latitude":"48.99652000","longitude":"140.31462000","wikiDataId":"Q35719451"},{"id":99740,"Name":"Mago","state_id":1873,"state_code":"KHA","state_name":"Khabarovsk Krai","country_id":182,"country_code":"RU","country_name":"Russia","latitude":"53.25851000","longitude":"140.18269000","wikiDataId":"Q35722626"},{"id":99833,"Name":"Mayskiy","state_id":1873,"state_code":"KHA","state_name":"Khabarovsk Krai","country_id":182,"country_code":"RU","country_name":"Russia","latitude":"48.99887000","longitude":"140.20976000","wikiDataId":"Q35726621"},{"id":99936,"Name":"Mnogovershinnyy","state_id":1873,"state_code":"KHA","state_name":"Khabarovsk Krai","country_id":182,"country_code":"RU","country_name":"Russia","latitude":"53.93345000","longitude":"139.92740000","wikiDataId":"Q35731347"},{"id":99996,"Name":"Mukhen","state_id":1873,"state_code":"KHA","state_name":"Khabarovsk Krai","country_id":182,"country_code":"RU","country_name":"Russia","latitude":"48.19672000","longitude":"136.12691000","wikiDataId":"Q35735527"},{"id":100092,"Name":"Nekrasovka","state_id":1873,"state_code":"KHA","state_name":"Khabarovsk Krai","country_id":182,"country_code":"RU","country_name":"Russia","latitude":"48.35208000","longitude":"135.23221000","wikiDataId":"Q37895126"},{"id":100136,"Name":"Nikolayevsk-on-Amure","state_id":1873,"state_code":"KHA","state_name":"Khabarovsk Krai","country_id":182,"country_code":"RU","country_name":"Russia","latitude":"53.14657000","longitude":"140.72287000","wikiDataId":"Q173037"},{"id":100353,"Name":"Novyy Urgal","state_id":1873,"state_code":"KHA","state_name":"Khabarovsk Krai","country_id":182,"country_code":"RU","country_name":"Russia","latitude":"51.07089000","longitude":"132.60075000","wikiDataId":"Q910948"},{"id":100403,"Name":"Okhotsk","state_id":1873,"state_code":"KHA","state_name":"Khabarovsk Krai","country_id":182,"country_code":"RU","country_name":"Russia","latitude":"59.36200000","longitude":"143.21468000","wikiDataId":"Q648799"},{"id":101155,"Name":"Selikhino","state_id":1873,"state_code":"KHA","state_name":"Khabarovsk Krai","country_id":182,"country_code":"RU","country_name":"Russia","latitude":"50.36832000","longitude":"137.50163000","wikiDataId":"Q4413813"},{"id":101459,"Name":"Solnechnyy","state_id":1873,"state_code":"KHA","state_name":"Khabarovsk Krai","country_id":182,"country_code":"RU","country_name":"Russia","latitude":"50.72367000","longitude":"136.63831000","wikiDataId":"Q37963392"},{"id":101508,"Name":"Sovetskaya Gavan’","state_id":1873,"state_code":"KHA","state_name":"Khabarovsk Krai","country_id":182,"country_code":"RU","country_name":"Russia","latitude":"48.97215000","longitude":"140.28919000","wikiDataId":"Q196374"},{"id":101895,"Name":"Topolëvo","state_id":1873,"state_code":"KHA","state_name":"Khabarovsk Krai","country_id":182,"country_code":"RU","country_name":"Russia","latitude":"48.50264000","longitude":"135.17611000","wikiDataId":"Q37963305"},{"id":101996,"Name":"Tyrma","state_id":1873,"state_code":"KHA","state_name":"Khabarovsk Krai","country_id":182,"country_code":"RU","country_name":"Russia","latitude":"50.04770000","longitude":"132.15011000","wikiDataId":"Q37963242"},{"id":102186,"Name":"Vanino","state_id":1873,"state_code":"KHA","state_name":"Khabarovsk Krai","country_id":182,"country_code":"RU","country_name":"Russia","latitude":"49.09848000","longitude":"140.25313000","wikiDataId":"Q178876"},{"id":102421,"Name":"Vyazemskiy","state_id":1873,"state_code":"KHA","state_name":"Khabarovsk Krai","country_id":182,"country_code":"RU","country_name":"Russia","latitude":"47.53757000","longitude":"134.75556000","wikiDataId":"Q134206"},{"id":102447,"Name":"Vysokogornyy","state_id":1873,"state_code":"KHA","state_name":"Khabarovsk Krai","country_id":182,"country_code":"RU","country_name":"Russia","latitude":"50.09885000","longitude":"139.12284000","wikiDataId":"Q37963105"},{"id":102671,"Name":"Zavety Il’icha","state_id":1873,"state_code":"KHA","state_name":"Khabarovsk Krai","country_id":182,"country_code":"RU","country_name":"Russia","latitude":"49.03737000","longitude":"140.26989000","wikiDataId":"Q629448"}]