[{"id":31809,"Name":"Dishnā","state_id":3247,"state_code":"KN","state_name":"Qena","country_id":65,"country_code":"EG","country_name":"Egypt","latitude":"26.12467000","longitude":"32.47598000","wikiDataId":"Q23951929"},{"id":31813,"Name":"Farshūţ","state_id":3247,"state_code":"KN","state_name":"Qena","country_id":65,"country_code":"EG","country_name":"Egypt","latitude":"26.05494000","longitude":"32.16329000","wikiDataId":"Q23951614"},{"id":31822,"Name":"Isnā","state_id":3247,"state_code":"KN","state_name":"Qena","country_id":65,"country_code":"EG","country_name":"Egypt","latitude":"25.29336000","longitude":"32.55402000","wikiDataId":"Q626031"},{"id":31831,"Name":"Kousa","state_id":3247,"state_code":"KN","state_name":"Qena","country_id":65,"country_code":"EG","country_name":"Egypt","latitude":"25.91407000","longitude":"32.76362000","wikiDataId":"Q1816589"},{"id":31847,"Name":"Naja' Ḥammādī","state_id":3247,"state_code":"KN","state_name":"Qena","country_id":65,"country_code":"EG","country_name":"Egypt","latitude":"26.04949000","longitude":"32.24142000","wikiDataId":"Q270754"},{"id":31853,"Name":"Qinā","state_id":3247,"state_code":"KN","state_name":"Qena","country_id":65,"country_code":"EG","country_name":"Egypt","latitude":"26.16418000","longitude":"32.72671000","wikiDataId":"Q336661"}]