[{"id":106760,"Name":"Abdurahmoni Jomí","state_id":3398,"state_code":"KT","state_name":"Khatlon Province","country_id":217,"country_code":"TJ","country_name":"Tajikistan","latitude":"37.94636000","longitude":"68.80878000","wikiDataId":"Q6449099"},{"id":106763,"Name":"Boshchorbogh","state_id":3398,"state_code":"KT","state_name":"Khatlon Province","country_id":217,"country_code":"TJ","country_name":"Tajikistan","latitude":"37.52027000","longitude":"68.12825000","wikiDataId":"Q3298847"},{"id":106765,"Name":"Bŭstonqal’a","state_id":3398,"state_code":"KT","state_name":"Khatlon Province","country_id":217,"country_code":"TJ","country_name":"Tajikistan","latitude":"37.84783000","longitude":"68.83125000","wikiDataId":"Q4148725"},{"id":106767,"Name":"Chubek","state_id":3398,"state_code":"KT","state_name":"Khatlon Province","country_id":217,"country_code":"TJ","country_name":"Tajikistan","latitude":"37.61453000","longitude":"69.70525000","wikiDataId":"Q2997217"},{"id":106768,"Name":"Danghara","state_id":3398,"state_code":"KT","state_name":"Khatlon Province","country_id":217,"country_code":"TJ","country_name":"Tajikistan","latitude":"38.09578000","longitude":"69.33998000","wikiDataId":"Q2997217"},{"id":106770,"Name":"Dŭstí","state_id":3398,"state_code":"KT","state_name":"Khatlon Province","country_id":217,"country_code":"TJ","country_name":"Tajikistan","latitude":"37.34812000","longitude":"68.66398000","wikiDataId":"Q722396"},{"id":106771,"Name":"Farkhor","state_id":3398,"state_code":"KT","state_name":"Khatlon Province","country_id":217,"country_code":"TJ","country_name":"Tajikistan","latitude":"37.49219000","longitude":"69.40356000","wikiDataId":"Q1376803"},{"id":106773,"Name":"Gharavŭtí","state_id":3398,"state_code":"KT","state_name":"Khatlon Province","country_id":217,"country_code":"TJ","country_name":"Tajikistan","latitude":"37.56703000","longitude":"68.44668000","wikiDataId":"Q187977"},{"id":106778,"Name":"Jilikŭl","state_id":3398,"state_code":"KT","state_name":"Khatlon Province","country_id":217,"country_code":"TJ","country_name":"Tajikistan","latitude":"37.49167000","longitude":"68.53106000","wikiDataId":"Q936510"},{"id":106784,"Name":"Kirov","state_id":3398,"state_code":"KT","state_name":"Khatlon Province","country_id":217,"country_code":"TJ","country_name":"Tajikistan","latitude":"37.81908000","longitude":"68.85905000","wikiDataId":"Q6408306"},{"id":106785,"Name":"Kolkhozobod","state_id":3398,"state_code":"KT","state_name":"Khatlon Province","country_id":217,"country_code":"TJ","country_name":"Tajikistan","latitude":"37.58823000","longitude":"68.65886000","wikiDataId":"Q1935682"},{"id":106788,"Name":"Kŭlob","state_id":3398,"state_code":"KT","state_name":"Khatlon Province","country_id":217,"country_code":"TJ","country_name":"Tajikistan","latitude":"37.91459000","longitude":"69.78454000","wikiDataId":"Q132043"},{"id":106789,"Name":"Moskovskiy","state_id":3398,"state_code":"KT","state_name":"Khatlon Province","country_id":217,"country_code":"TJ","country_name":"Tajikistan","latitude":"37.60931000","longitude":"68.58094000","wikiDataId":"Q132043"},{"id":106791,"Name":"Mŭ’minobod","state_id":3398,"state_code":"KT","state_name":"Khatlon Province","country_id":217,"country_code":"TJ","country_name":"Tajikistan","latitude":"38.10714000","longitude":"70.03213000","wikiDataId":"Q4122080"},{"id":106793,"Name":"Nohiyai Kolkhozobod","state_id":3398,"state_code":"KT","state_name":"Khatlon Province","country_id":217,"country_code":"TJ","country_name":"Tajikistan","latitude":"37.57277000","longitude":"68.81528000","wikiDataId":"Q3563282"},{"id":106795,"Name":"Nohiyai Panj","state_id":3398,"state_code":"KT","state_name":"Khatlon Province","country_id":217,"country_code":"TJ","country_name":"Tajikistan","latitude":"37.31611000","longitude":"69.16679000","wikiDataId":"Q2564823"},{"id":106797,"Name":"Nohiyai Vakhsh","state_id":3398,"state_code":"KT","state_name":"Khatlon Province","country_id":217,"country_code":"TJ","country_name":"Tajikistan","latitude":"37.75602000","longitude":"68.94138000","wikiDataId":"Q2565367"},{"id":106798,"Name":"Norak","state_id":3398,"state_code":"KT","state_name":"Khatlon Province","country_id":217,"country_code":"TJ","country_name":"Tajikistan","latitude":"38.38917000","longitude":"69.32272000","wikiDataId":"Q1018201"},{"id":106803,"Name":"Orzu","state_id":3398,"state_code":"KT","state_name":"Khatlon Province","country_id":217,"country_code":"TJ","country_name":"Tajikistan","latitude":"37.55820000","longitude":"68.81952000","wikiDataId":"Q8214642"},{"id":106806,"Name":"Panj","state_id":3398,"state_code":"KT","state_name":"Khatlon Province","country_id":217,"country_code":"TJ","country_name":"Tajikistan","latitude":"37.23634000","longitude":"69.09911000","wikiDataId":"Q2567960"},{"id":106810,"Name":"Qŭrghonteppa","state_id":3398,"state_code":"KT","state_name":"Khatlon Province","country_id":217,"country_code":"TJ","country_name":"Tajikistan","latitude":"37.83399000","longitude":"68.78186000","wikiDataId":"Q648567"},{"id":106814,"Name":"Shahritus","state_id":3398,"state_code":"KT","state_name":"Khatlon Province","country_id":217,"country_code":"TJ","country_name":"Tajikistan","latitude":"37.26206000","longitude":"68.13849000","wikiDataId":"Q2507706"},{"id":106817,"Name":"Sovet","state_id":3398,"state_code":"KT","state_name":"Khatlon Province","country_id":217,"country_code":"TJ","country_name":"Tajikistan","latitude":"38.04670000","longitude":"69.58822000","wikiDataId":"Q2499450"},{"id":106820,"Name":"Tartiki","state_id":3398,"state_code":"KT","state_name":"Khatlon Province","country_id":217,"country_code":"TJ","country_name":"Tajikistan","latitude":"37.58221000","longitude":"68.13347000","wikiDataId":"Q16704248"},{"id":106824,"Name":"Vakhsh","state_id":3398,"state_code":"KT","state_name":"Khatlon Province","country_id":217,"country_code":"TJ","country_name":"Tajikistan","latitude":"37.71485000","longitude":"68.83456000","wikiDataId":"Q2640253"},{"id":106828,"Name":"Vose’","state_id":3398,"state_code":"KT","state_name":"Khatlon Province","country_id":217,"country_code":"TJ","country_name":"Tajikistan","latitude":"37.80396000","longitude":"69.64417000","wikiDataId":"Q2465110"},{"id":106829,"Name":"Yovon","state_id":3398,"state_code":"KT","state_name":"Khatlon Province","country_id":217,"country_code":"TJ","country_name":"Tajikistan","latitude":"38.31408000","longitude":"69.03784000","wikiDataId":"Q2465110"}]