[{"id":65571,"Name":"Ad Dasmah","state_id":976,"state_code":"KU","state_name":"Capital Governorate","country_id":117,"country_code":"KW","country_name":"Kuwait","latitude":"29.36500000","longitude":"48.00139000","wikiDataId":"Q50431"},{"id":65584,"Name":"Ar Rābiyah","state_id":976,"state_code":"KU","state_name":"Capital Governorate","country_id":117,"country_code":"KW","country_name":"Kuwait","latitude":"29.29500000","longitude":"47.93306000","wikiDataId":"Q27347097"},{"id":65586,"Name":"Ash Shāmīyah","state_id":976,"state_code":"KU","state_name":"Capital Governorate","country_id":117,"country_code":"KW","country_name":"Kuwait","latitude":"29.34722000","longitude":"47.96167000","wikiDataId":"Q3505782"},{"id":65587,"Name":"Az Zawr","state_id":976,"state_code":"KU","state_name":"Capital Governorate","country_id":117,"country_code":"KW","country_name":"Kuwait","latitude":"29.44250000","longitude":"48.27472000","wikiDataId":"Q3505782"},{"id":65590,"Name":"Kuwait City","state_id":976,"state_code":"KU","state_name":"Capital Governorate","country_id":117,"country_code":"KW","country_name":"Kuwait","latitude":"29.36972000","longitude":"47.97833000","wikiDataId":"Q35178"}]