[{"id":65616,"Name":"Arkalyk","state_id":157,"state_code":"KUS","state_name":"Kostanay Region","country_id":112,"country_code":"KZ","country_name":"Kazakhstan","latitude":"50.24915000","longitude":"66.92027000","wikiDataId":"Q698941"},{"id":65628,"Name":"Ayat","state_id":157,"state_code":"KUS","state_name":"Kostanay Region","country_id":112,"country_code":"KZ","country_name":"Kazakhstan","latitude":"52.83554000","longitude":"62.52078000","wikiDataId":"Q2391391"},{"id":65652,"Name":"Borovskoy","state_id":157,"state_code":"KUS","state_name":"Kostanay Region","country_id":112,"country_code":"KZ","country_name":"Kazakhstan","latitude":"53.79270000","longitude":"64.18268000","wikiDataId":"Q27357540"},{"id":65671,"Name":"Dzhetygara","state_id":157,"state_code":"KUS","state_name":"Kostanay Region","country_id":112,"country_code":"KZ","country_name":"Kazakhstan","latitude":"52.19019000","longitude":"61.19894000","wikiDataId":"Q1018868"},{"id":65679,"Name":"Fyodorovka","state_id":157,"state_code":"KUS","state_name":"Kostanay Region","country_id":112,"country_code":"KZ","country_name":"Kazakhstan","latitude":"53.63809000","longitude":"62.69653000","wikiDataId":"Q1192007"},{"id":65691,"Name":"Karasu","state_id":157,"state_code":"KUS","state_name":"Kostanay Region","country_id":112,"country_code":"KZ","country_name":"Kazakhstan","latitude":"52.65995000","longitude":"65.48421000","wikiDataId":"Q484706"},{"id":65701,"Name":"Komsomolets","state_id":157,"state_code":"KUS","state_name":"Kostanay Region","country_id":112,"country_code":"KZ","country_name":"Kazakhstan","latitude":"53.75019000","longitude":"62.05840000","wikiDataId":"Q12551053"},{"id":65702,"Name":"Kostanay","state_id":157,"state_code":"KUS","state_name":"Kostanay Region","country_id":112,"country_code":"KZ","country_name":"Kazakhstan","latitude":"53.21435000","longitude":"63.62463000","wikiDataId":"Q488990"},{"id":65716,"Name":"Lisakovsk","state_id":157,"state_code":"KUS","state_name":"Kostanay Region","country_id":112,"country_code":"KZ","country_name":"Kazakhstan","latitude":"52.54707000","longitude":"62.49987000","wikiDataId":"Q657052"},{"id":65740,"Name":"Ordzhonikidze","state_id":157,"state_code":"KUS","state_name":"Kostanay Region","country_id":112,"country_code":"KZ","country_name":"Kazakhstan","latitude":"52.44772000","longitude":"61.74942000","wikiDataId":"Q487439"},{"id":65755,"Name":"Qashar","state_id":157,"state_code":"KUS","state_name":"Kostanay Region","country_id":112,"country_code":"KZ","country_name":"Kazakhstan","latitude":"53.36799000","longitude":"62.86839000","wikiDataId":"Q27352596"},{"id":65760,"Name":"Qusmuryn","state_id":157,"state_code":"KUS","state_name":"Kostanay Region","country_id":112,"country_code":"KZ","country_name":"Kazakhstan","latitude":"52.45107000","longitude":"64.61977000","wikiDataId":"Q1268163"},{"id":65762,"Name":"Rudnyy","state_id":157,"state_code":"KUS","state_name":"Kostanay Region","country_id":112,"country_code":"KZ","country_name":"Kazakhstan","latitude":"52.97290000","longitude":"63.11677000","wikiDataId":"Q1008853"},{"id":65813,"Name":"Tobol","state_id":157,"state_code":"KUS","state_name":"Kostanay Region","country_id":112,"country_code":"KZ","country_name":"Kazakhstan","latitude":"52.69366000","longitude":"62.59140000","wikiDataId":"Q32382"},{"id":65815,"Name":"Torghay","state_id":157,"state_code":"KUS","state_name":"Kostanay Region","country_id":112,"country_code":"KZ","country_name":"Kazakhstan","latitude":"49.63389000","longitude":"63.49806000","wikiDataId":"Q32382"},{"id":65816,"Name":"Troyebratskiy","state_id":157,"state_code":"KUS","state_name":"Kostanay Region","country_id":112,"country_code":"KZ","country_name":"Kazakhstan","latitude":"54.44306000","longitude":"66.07982000","wikiDataId":"Q32382"}]