[{"id":15730,"Name":"Botlhapatlou","state_id":3069,"state_code":"KW","state_name":"Kweneng District","country_id":29,"country_code":"BW","country_name":"Botswana","latitude":"-24.02591000","longitude":"25.48976000","wikiDataId":"Q170719"},{"id":15733,"Name":"Dutlwe","state_id":3069,"state_code":"KW","state_name":"Kweneng District","country_id":29,"country_code":"BW","country_name":"Botswana","latitude":"-23.98333000","longitude":"23.90000000","wikiDataId":"Q170705"},{"id":15734,"Name":"Gabane","state_id":3069,"state_code":"KW","state_name":"Kweneng District","country_id":29,"country_code":"BW","country_name":"Botswana","latitude":"-24.66667000","longitude":"25.78222000","wikiDataId":"Q38855"},{"id":15736,"Name":"Gaphatshwe","state_id":3069,"state_code":"KW","state_name":"Kweneng District","country_id":29,"country_code":"BW","country_name":"Botswana","latitude":"-24.57389000","longitude":"25.83417000","wikiDataId":"Q38855"},{"id":15746,"Name":"Khudumelapye","state_id":3069,"state_code":"KW","state_name":"Kweneng District","country_id":29,"country_code":"BW","country_name":"Botswana","latitude":"-23.88333000","longitude":"24.75000000","wikiDataId":"Q170739"},{"id":15749,"Name":"Lenchwe Le Tau","state_id":3069,"state_code":"KW","state_name":"Kweneng District","country_id":29,"country_code":"BW","country_name":"Botswana","latitude":"-24.38333000","longitude":"25.85000000","wikiDataId":"Q21858654"},{"id":15751,"Name":"Letlhakeng","state_id":3069,"state_code":"KW","state_name":"Kweneng District","country_id":29,"country_code":"BW","country_name":"Botswana","latitude":"-24.09442000","longitude":"25.02977000","wikiDataId":"Q170664"},{"id":15766,"Name":"Metsemotlhaba","state_id":3069,"state_code":"KW","state_name":"Kweneng District","country_id":29,"country_code":"BW","country_name":"Botswana","latitude":"-24.55139000","longitude":"25.80306000","wikiDataId":"Q39137"},{"id":15768,"Name":"Mmopone","state_id":3069,"state_code":"KW","state_name":"Kweneng District","country_id":29,"country_code":"BW","country_name":"Botswana","latitude":"-24.56694000","longitude":"25.87417000","wikiDataId":"Q170722"},{"id":15771,"Name":"Mogoditshane","state_id":3069,"state_code":"KW","state_name":"Kweneng District","country_id":29,"country_code":"BW","country_name":"Botswana","latitude":"-24.62694000","longitude":"25.86556000","wikiDataId":"Q170717"},{"id":15773,"Name":"Molepolole","state_id":3069,"state_code":"KW","state_name":"Kweneng District","country_id":29,"country_code":"BW","country_name":"Botswana","latitude":"-24.40659000","longitude":"25.49508000","wikiDataId":"Q170725"},{"id":15779,"Name":"Nkoyaphiri","state_id":3069,"state_code":"KW","state_name":"Kweneng District","country_id":29,"country_code":"BW","country_name":"Botswana","latitude":"-24.63222000","longitude":"25.83139000","wikiDataId":"Q170817"},{"id":15799,"Name":"Thamaga","state_id":3069,"state_code":"KW","state_name":"Kweneng District","country_id":29,"country_code":"BW","country_name":"Botswana","latitude":"-24.67014000","longitude":"25.53975000","wikiDataId":"Q38902"}]