[{"id":97481,"Name":"Aban","state_id":1840,"state_code":"KYA","state_name":"Krasnoyarsk Krai","country_id":182,"country_code":"RU","country_name":"Russia","latitude":"56.67870000","longitude":"96.06580000","wikiDataId":"Q305352"},{"id":97482,"Name":"Abanskiy Rayon","state_id":1840,"state_code":"KYA","state_name":"Krasnoyarsk Krai","country_id":182,"country_code":"RU","country_name":"Russia","latitude":"56.83333000","longitude":"96.00000000","wikiDataId":"Q479280"},{"id":97495,"Name":"Achinsk","state_id":1840,"state_code":"KYA","state_name":"Krasnoyarsk Krai","country_id":182,"country_code":"RU","country_name":"Russia","latitude":"56.26940000","longitude":"90.49930000","wikiDataId":"Q104232"},{"id":97496,"Name":"Achinskiy Rayon","state_id":1840,"state_code":"KYA","state_name":"Krasnoyarsk Krai","country_id":182,"country_code":"RU","country_name":"Russia","latitude":"56.25000000","longitude":"90.50000000","wikiDataId":"Q251510"},{"id":97517,"Name":"Aginskoye","state_id":1840,"state_code":"KYA","state_name":"Krasnoyarsk Krai","country_id":182,"country_code":"RU","country_name":"Russia","latitude":"55.25860000","longitude":"94.90790000","wikiDataId":"Q7495774"},{"id":97768,"Name":"Balakhta","state_id":1840,"state_code":"KYA","state_name":"Krasnoyarsk Krai","country_id":182,"country_code":"RU","country_name":"Russia","latitude":"55.38425000","longitude":"91.61872000","wikiDataId":"Q4076450"},{"id":97769,"Name":"Balakhtinskiy Rayon","state_id":1840,"state_code":"KYA","state_name":"Krasnoyarsk Krai","country_id":182,"country_code":"RU","country_name":"Russia","latitude":"55.50000000","longitude":"91.50000000","wikiDataId":"Q743428"},{"id":97825,"Name":"Baykit","state_id":1840,"state_code":"KYA","state_name":"Krasnoyarsk Krai","country_id":182,"country_code":"RU","country_name":"Russia","latitude":"61.67694000","longitude":"96.37917000","wikiDataId":"Q591462"},{"id":97904,"Name":"Berëzovka","state_id":1840,"state_code":"KYA","state_name":"Krasnoyarsk Krai","country_id":182,"country_code":"RU","country_name":"Russia","latitude":"56.03044000","longitude":"93.11164000","wikiDataId":"Q820749"},{"id":97896,"Name":"Berezovskiy rayon","state_id":1840,"state_code":"KYA","state_name":"Krasnoyarsk Krai","country_id":182,"country_code":"RU","country_name":"Russia","latitude":"56.03446000","longitude":"93.13866000","wikiDataId":"Q793500"},{"id":97934,"Name":"Birilyusskiy Rayon","state_id":1840,"state_code":"KYA","state_name":"Krasnoyarsk Krai","country_id":182,"country_code":"RU","country_name":"Russia","latitude":"57.25000000","longitude":"90.75000000","wikiDataId":"Q775937"},{"id":97976,"Name":"Bogotol","state_id":1840,"state_code":"KYA","state_name":"Krasnoyarsk Krai","country_id":182,"country_code":"RU","country_name":"Russia","latitude":"56.20778000","longitude":"89.53417000","wikiDataId":"Q105253"},{"id":97977,"Name":"Bogotol’skiy Rayon","state_id":1840,"state_code":"KYA","state_name":"Krasnoyarsk Krai","country_id":182,"country_code":"RU","country_name":"Russia","latitude":"56.25000000","longitude":"89.75000000","wikiDataId":"Q833435"},{"id":97981,"Name":"Boguchanskiy Rayon","state_id":1840,"state_code":"KYA","state_name":"Krasnoyarsk Krai","country_id":182,"country_code":"RU","country_name":"Russia","latitude":"58.50000000","longitude":"97.50000000","wikiDataId":"Q427552"},{"id":97982,"Name":"Boguchany","state_id":1840,"state_code":"KYA","state_name":"Krasnoyarsk Krai","country_id":182,"country_code":"RU","country_name":"Russia","latitude":"58.38139000","longitude":"97.45306000","wikiDataId":"Q890715"},{"id":98004,"Name":"Bol’shemurtinskiy Rayon","state_id":1840,"state_code":"KYA","state_name":"Krasnoyarsk Krai","country_id":182,"country_code":"RU","country_name":"Russia","latitude":"57.00000000","longitude":"93.00000000","wikiDataId":"Q834172"},{"id":98007,"Name":"Bol’sheuluyskiy Rayon","state_id":1840,"state_code":"KYA","state_name":"Krasnoyarsk Krai","country_id":182,"country_code":"RU","country_name":"Russia","latitude":"56.66667000","longitude":"90.75000000","wikiDataId":"Q40243"},{"id":98020,"Name":"Bor","state_id":1840,"state_code":"KYA","state_name":"Krasnoyarsk Krai","country_id":182,"country_code":"RU","country_name":"Russia","latitude":"61.60111000","longitude":"90.01806000","wikiDataId":"Q37961753"},{"id":98030,"Name":"Borodino","state_id":1840,"state_code":"KYA","state_name":"Krasnoyarsk Krai","country_id":182,"country_code":"RU","country_name":"Russia","latitude":"55.90610000","longitude":"94.90790000","wikiDataId":"Q132724"},{"id":98222,"Name":"Chunoyar","state_id":1840,"state_code":"KYA","state_name":"Krasnoyarsk Krai","country_id":182,"country_code":"RU","country_name":"Russia","latitude":"57.44830000","longitude":"97.32860000","wikiDataId":"Q34794099"},{"id":98275,"Name":"Dikson","state_id":1840,"state_code":"KYA","state_name":"Krasnoyarsk Krai","country_id":182,"country_code":"RU","country_name":"Russia","latitude":"73.50819000","longitude":"80.52918000","wikiDataId":"Q678299"},{"id":98279,"Name":"Divnogorsk","state_id":1840,"state_code":"KYA","state_name":"Krasnoyarsk Krai","country_id":182,"country_code":"RU","country_name":"Russia","latitude":"55.95810000","longitude":"92.37260000","wikiDataId":"Q135213"},{"id":98334,"Name":"Dubinino","state_id":1840,"state_code":"KYA","state_name":"Krasnoyarsk Krai","country_id":182,"country_code":"RU","country_name":"Russia","latitude":"55.61917000","longitude":"89.09111000","wikiDataId":"Q37783887"},{"id":98347,"Name":"Dudinka","state_id":1840,"state_code":"KYA","state_name":"Krasnoyarsk Krai","country_id":182,"country_code":"RU","country_name":"Russia","latitude":"69.40583000","longitude":"86.17778000","wikiDataId":"Q135482"},{"id":98370,"Name":"Dzerzhinskoye","state_id":1840,"state_code":"KYA","state_name":"Krasnoyarsk Krai","country_id":182,"country_code":"RU","country_name":"Russia","latitude":"56.83444000","longitude":"95.22833000","wikiDataId":"Q37784360"},{"id":98407,"Name":"Evenkiyskiy District","state_id":1840,"state_code":"KYA","state_name":"Krasnoyarsk Krai","country_id":182,"country_code":"RU","country_name":"Russia","latitude":"65.00000000","longitude":"98.00000000","wikiDataId":"Q831406"},{"id":98426,"Name":"Filimonovo","state_id":1840,"state_code":"KYA","state_name":"Krasnoyarsk Krai","country_id":182,"country_code":"RU","country_name":"Russia","latitude":"56.20111000","longitude":"95.46111000","wikiDataId":"Q37785156"},{"id":98628,"Name":"Idrinskiy Rayon","state_id":1840,"state_code":"KYA","state_name":"Krasnoyarsk Krai","country_id":182,"country_code":"RU","country_name":"Russia","latitude":"54.50000000","longitude":"92.50000000","wikiDataId":"Q241914"},{"id":98629,"Name":"Idrinskoye","state_id":1840,"state_code":"KYA","state_name":"Krasnoyarsk Krai","country_id":182,"country_code":"RU","country_name":"Russia","latitude":"54.37083000","longitude":"92.13583000","wikiDataId":"Q13640134"},{"id":98631,"Name":"Igarka","state_id":1840,"state_code":"KYA","state_name":"Krasnoyarsk Krai","country_id":182,"country_code":"RU","country_name":"Russia","latitude":"67.46550000","longitude":"86.60270000","wikiDataId":"Q141606"},{"id":98650,"Name":"Il’ichevo","state_id":1840,"state_code":"KYA","state_name":"Krasnoyarsk Krai","country_id":182,"country_code":"RU","country_name":"Russia","latitude":"53.27889000","longitude":"91.84028000","wikiDataId":"Q37807496"},{"id":98642,"Name":"Ilanskiy","state_id":1840,"state_code":"KYA","state_name":"Krasnoyarsk Krai","country_id":182,"country_code":"RU","country_name":"Russia","latitude":"56.23250000","longitude":"96.06520000","wikiDataId":"Q83621"},{"id":98643,"Name":"Ilanskiy Rayon","state_id":1840,"state_code":"KYA","state_name":"Krasnoyarsk Krai","country_id":182,"country_code":"RU","country_name":"Russia","latitude":"56.00000000","longitude":"96.08333000","wikiDataId":"Q269288"},{"id":98687,"Name":"Irbeyskiy Rayon","state_id":1840,"state_code":"KYA","state_name":"Krasnoyarsk Krai","country_id":182,"country_code":"RU","country_name":"Russia","latitude":"55.41667000","longitude":"96.00000000","wikiDataId":"Q643768"},{"id":98688,"Name":"Irbeyskoye","state_id":1840,"state_code":"KYA","state_name":"Krasnoyarsk Krai","country_id":182,"country_code":"RU","country_name":"Russia","latitude":"55.63960000","longitude":"95.45150000","wikiDataId":"Q37808502"},{"id":98693,"Name":"Irsha","state_id":1840,"state_code":"KYA","state_name":"Krasnoyarsk Krai","country_id":182,"country_code":"RU","country_name":"Russia","latitude":"55.92730000","longitude":"94.79990000","wikiDataId":"Q37808640"},{"id":98844,"Name":"Kansk","state_id":1840,"state_code":"KYA","state_name":"Krasnoyarsk Krai","country_id":182,"country_code":"RU","country_name":"Russia","latitude":"56.20167000","longitude":"95.71750000","wikiDataId":"Q144345"},{"id":98845,"Name":"Kanskiy Rayon","state_id":1840,"state_code":"KYA","state_name":"Krasnoyarsk Krai","country_id":182,"country_code":"RU","country_name":"Russia","latitude":"56.25000000","longitude":"95.25000000","wikiDataId":"Q2109878"},{"id":98871,"Name":"Karatuzskoye","state_id":1840,"state_code":"KYA","state_name":"Krasnoyarsk Krai","country_id":182,"country_code":"RU","country_name":"Russia","latitude":"53.60722000","longitude":"92.86667000","wikiDataId":"Q37824318"},{"id":98920,"Name":"Kayyerkan","state_id":1840,"state_code":"KYA","state_name":"Krasnoyarsk Krai","country_id":182,"country_code":"RU","country_name":"Russia","latitude":"69.37861000","longitude":"87.74389000","wikiDataId":"Q1020918"},{"id":98922,"Name":"Kazachinskiy Rayon","state_id":1840,"state_code":"KYA","state_name":"Krasnoyarsk Krai","country_id":182,"country_code":"RU","country_name":"Russia","latitude":"57.66667000","longitude":"93.41667000","wikiDataId":"Q1613562"},{"id":98923,"Name":"Kazachinskoye","state_id":1840,"state_code":"KYA","state_name":"Krasnoyarsk Krai","country_id":182,"country_code":"RU","country_name":"Russia","latitude":"57.70040000","longitude":"93.28090000","wikiDataId":"Q37824797"},{"id":98936,"Name":"Kedrovyy","state_id":1840,"state_code":"KYA","state_name":"Krasnoyarsk Krai","country_id":182,"country_code":"RU","country_name":"Russia","latitude":"56.28232000","longitude":"91.53760000","wikiDataId":"Q37824902"},{"id":98972,"Name":"Khatanga","state_id":1840,"state_code":"KYA","state_name":"Krasnoyarsk Krai","country_id":182,"country_code":"RU","country_name":"Russia","latitude":"71.98002000","longitude":"102.47111000","wikiDataId":"Q918830"},{"id":99127,"Name":"Kodinsk","state_id":1840,"state_code":"KYA","state_name":"Krasnoyarsk Krai","country_id":182,"country_code":"RU","country_name":"Russia","latitude":"58.60629000","longitude":"99.17398000","wikiDataId":"Q154648"},{"id":99230,"Name":"Koshurnikovo","state_id":1840,"state_code":"KYA","state_name":"Krasnoyarsk Krai","country_id":182,"country_code":"RU","country_name":"Russia","latitude":"54.16667000","longitude":"93.30000000","wikiDataId":"Q35700247"},{"id":99321,"Name":"Krasnokamensk","state_id":1840,"state_code":"KYA","state_name":"Krasnoyarsk Krai","country_id":182,"country_code":"RU","country_name":"Russia","latitude":"54.33389000","longitude":"93.25944000","wikiDataId":"Q35702395"},{"id":99336,"Name":"Krasnoturansk","state_id":1840,"state_code":"KYA","state_name":"Krasnoyarsk Krai","country_id":182,"country_code":"RU","country_name":"Russia","latitude":"54.31861000","longitude":"91.56389000","wikiDataId":"Q4239122"},{"id":99343,"Name":"Krasnoyarsk","state_id":1840,"state_code":"KYA","state_name":"Krasnoyarsk Krai","country_id":182,"country_code":"RU","country_name":"Russia","latitude":"56.01839000","longitude":"92.86717000","wikiDataId":"Q919"},{"id":99452,"Name":"Kuragino","state_id":1840,"state_code":"KYA","state_name":"Krasnoyarsk Krai","country_id":182,"country_code":"RU","country_name":"Russia","latitude":"53.88785000","longitude":"92.68152000","wikiDataId":"Q35705358"},{"id":99604,"Name":"Lesosibirsk","state_id":1840,"state_code":"KYA","state_name":"Krasnoyarsk Krai","country_id":182,"country_code":"RU","country_name":"Russia","latitude":"58.23583000","longitude":"92.48278000","wikiDataId":"Q157566"},{"id":99783,"Name":"Manskiy Rayon","state_id":1840,"state_code":"KYA","state_name":"Krasnoyarsk Krai","country_id":182,"country_code":"RU","country_name":"Russia","latitude":"55.41667000","longitude":"93.66667000","wikiDataId":"Q2156434"},{"id":99788,"Name":"Manzya","state_id":1840,"state_code":"KYA","state_name":"Krasnoyarsk Krai","country_id":182,"country_code":"RU","country_name":"Russia","latitude":"58.49222000","longitude":"96.26167000","wikiDataId":"Q35724184"},{"id":99918,"Name":"Minusinsk","state_id":1840,"state_code":"KYA","state_name":"Krasnoyarsk Krai","country_id":182,"country_code":"RU","country_name":"Russia","latitude":"53.71028000","longitude":"91.68750000","wikiDataId":"Q158990"},{"id":99919,"Name":"Minusinskiy Rayon","state_id":1840,"state_code":"KYA","state_name":"Krasnoyarsk Krai","country_id":182,"country_code":"RU","country_name":"Russia","latitude":"53.75000000","longitude":"92.00000000","wikiDataId":"Q2157152"},{"id":99983,"Name":"Motygino","state_id":1840,"state_code":"KYA","state_name":"Krasnoyarsk Krai","country_id":182,"country_code":"RU","country_name":"Russia","latitude":"58.18401000","longitude":"94.69339000","wikiDataId":"Q4304958"},{"id":100075,"Name":"Nazarovo","state_id":1840,"state_code":"KYA","state_name":"Krasnoyarsk Krai","country_id":182,"country_code":"RU","country_name":"Russia","latitude":"56.01040000","longitude":"90.40110000","wikiDataId":"Q163907"},{"id":100076,"Name":"Nazarovskiy Rayon","state_id":1840,"state_code":"KYA","state_name":"Krasnoyarsk Krai","country_id":182,"country_code":"RU","country_name":"Russia","latitude":"56.00000000","longitude":"90.62500000","wikiDataId":"Q919150"},{"id":100153,"Name":"Nizhneingashskiy Rayon","state_id":1840,"state_code":"KYA","state_name":"Krasnoyarsk Krai","country_id":182,"country_code":"RU","country_name":"Russia","latitude":"56.25000000","longitude":"97.00000000","wikiDataId":"Q2157145"},{"id":100167,"Name":"Nizhniy Ingash","state_id":1840,"state_code":"KYA","state_name":"Krasnoyarsk Krai","country_id":182,"country_code":"RU","country_name":"Russia","latitude":"56.20030000","longitude":"96.53730000","wikiDataId":"Q37896925"},{"id":100185,"Name":"Nizhnyaya Poyma","state_id":1840,"state_code":"KYA","state_name":"Krasnoyarsk Krai","country_id":182,"country_code":"RU","country_name":"Russia","latitude":"56.16430000","longitude":"97.20650000","wikiDataId":"Q37897530"},{"id":100198,"Name":"Norilsk","state_id":1840,"state_code":"KYA","state_name":"Krasnoyarsk Krai","country_id":182,"country_code":"RU","country_name":"Russia","latitude":"69.35350000","longitude":"88.20270000","wikiDataId":"Q175517"},{"id":100230,"Name":"Novobirilyussy","state_id":1840,"state_code":"KYA","state_name":"Krasnoyarsk Krai","country_id":182,"country_code":"RU","country_name":"Russia","latitude":"56.95260000","longitude":"90.68070000","wikiDataId":"Q37898324"},{"id":100236,"Name":"Novochernorechenskiy","state_id":1840,"state_code":"KYA","state_name":"Krasnoyarsk Krai","country_id":182,"country_code":"RU","country_name":"Russia","latitude":"56.26658000","longitude":"91.09234000","wikiDataId":"Q37898346"},{"id":100513,"Name":"Ovsyanka","state_id":1840,"state_code":"KYA","state_name":"Krasnoyarsk Krai","country_id":182,"country_code":"RU","country_name":"Russia","latitude":"55.95830000","longitude":"92.57200000","wikiDataId":"Q4330829"},{"id":100556,"Name":"Partizanskiy Rayon","state_id":1840,"state_code":"KYA","state_name":"Krasnoyarsk Krai","country_id":182,"country_code":"RU","country_name":"Russia","latitude":"55.00000000","longitude":"94.16667000","wikiDataId":"Q1617010"},{"id":100557,"Name":"Partizanskoye","state_id":1840,"state_code":"KYA","state_name":"Krasnoyarsk Krai","country_id":182,"country_code":"RU","country_name":"Russia","latitude":"55.49720000","longitude":"94.39220000","wikiDataId":"Q4345904"},{"id":100684,"Name":"Pirovskoye","state_id":1840,"state_code":"KYA","state_name":"Krasnoyarsk Krai","country_id":182,"country_code":"RU","country_name":"Russia","latitude":"57.63012000","longitude":"92.26373000","wikiDataId":"Q37961654"},{"id":100808,"Name":"Predivinsk","state_id":1840,"state_code":"KYA","state_name":"Krasnoyarsk Krai","country_id":182,"country_code":"RU","country_name":"Russia","latitude":"57.06310000","longitude":"93.43740000","wikiDataId":"Q37961608"},{"id":100945,"Name":"Rassvet","state_id":1840,"state_code":"KYA","state_name":"Krasnoyarsk Krai","country_id":182,"country_code":"RU","country_name":"Russia","latitude":"56.99900000","longitude":"91.47240000","wikiDataId":"Q37961583"},{"id":100949,"Name":"Razdolinsk","state_id":1840,"state_code":"KYA","state_name":"Krasnoyarsk Krai","country_id":182,"country_code":"RU","country_name":"Russia","latitude":"58.42111000","longitude":"94.66583000","wikiDataId":"Q37961581"},{"id":101140,"Name":"Sayansk","state_id":1840,"state_code":"KYA","state_name":"Krasnoyarsk Krai","country_id":182,"country_code":"RU","country_name":"Russia","latitude":"54.15000000","longitude":"91.88500000","wikiDataId":"Q37961489"},{"id":101141,"Name":"Sayanskiy Rayon","state_id":1840,"state_code":"KYA","state_name":"Krasnoyarsk Krai","country_id":182,"country_code":"RU","country_name":"Russia","latitude":"54.75000000","longitude":"95.00000000","wikiDataId":"Q918200"},{"id":101213,"Name":"Severo-Yeniseyskiy","state_id":1840,"state_code":"KYA","state_name":"Krasnoyarsk Krai","country_id":182,"country_code":"RU","country_name":"Russia","latitude":"60.37552000","longitude":"93.03017000","wikiDataId":"Q4412456"},{"id":101214,"Name":"Severo-Yeniseyskiy Rayon","state_id":1840,"state_code":"KYA","state_name":"Krasnoyarsk Krai","country_id":182,"country_code":"RU","country_name":"Russia","latitude":"60.00000000","longitude":"93.25000000","wikiDataId":"Q1614824"},{"id":101247,"Name":"Shalinskoye","state_id":1840,"state_code":"KYA","state_name":"Krasnoyarsk Krai","country_id":182,"country_code":"RU","country_name":"Russia","latitude":"55.71940000","longitude":"93.75890000","wikiDataId":"Q37961426"},{"id":101263,"Name":"Sharypovo","state_id":1840,"state_code":"KYA","state_name":"Krasnoyarsk Krai","country_id":182,"country_code":"RU","country_name":"Russia","latitude":"55.54028000","longitude":"89.20083000","wikiDataId":"Q198173"},{"id":101264,"Name":"Sharypovskiy Rayon","state_id":1840,"state_code":"KYA","state_name":"Krasnoyarsk Krai","country_id":182,"country_code":"RU","country_name":"Russia","latitude":"55.50000000","longitude":"89.25000000","wikiDataId":"Q373878"},{"id":101356,"Name":"Shushenskiy Rayon","state_id":1840,"state_code":"KYA","state_name":"Krasnoyarsk Krai","country_id":182,"country_code":"RU","country_name":"Russia","latitude":"53.41667000","longitude":"91.50000000","wikiDataId":"Q918140"},{"id":101357,"Name":"Shushenskoye","state_id":1840,"state_code":"KYA","state_name":"Krasnoyarsk Krai","country_id":182,"country_code":"RU","country_name":"Russia","latitude":"53.32500000","longitude":"91.93556000","wikiDataId":"Q2143176"},{"id":101425,"Name":"Snezhnogorsk","state_id":1840,"state_code":"KYA","state_name":"Krasnoyarsk Krai","country_id":182,"country_code":"RU","country_name":"Russia","latitude":"68.09306000","longitude":"87.74000000","wikiDataId":"Q848815"},{"id":101457,"Name":"Solnechnyy","state_id":1840,"state_code":"KYA","state_name":"Krasnoyarsk Krai","country_id":182,"country_code":"RU","country_name":"Russia","latitude":"56.11583000","longitude":"92.92528000","wikiDataId":"Q4427792"},{"id":101494,"Name":"Sosnovoborsk","state_id":1840,"state_code":"KYA","state_name":"Krasnoyarsk Krai","country_id":182,"country_code":"RU","country_name":"Russia","latitude":"56.12170000","longitude":"93.33850000","wikiDataId":"Q196402"},{"id":101627,"Name":"Strelka","state_id":1840,"state_code":"KYA","state_name":"Krasnoyarsk Krai","country_id":182,"country_code":"RU","country_name":"Russia","latitude":"58.07278000","longitude":"93.03444000","wikiDataId":"Q37961138"},{"id":101652,"Name":"Sukhobuzimskoye","state_id":1840,"state_code":"KYA","state_name":"Krasnoyarsk Krai","country_id":182,"country_code":"RU","country_name":"Russia","latitude":"56.50000000","longitude":"93.27278000","wikiDataId":"Q4447106"},{"id":101702,"Name":"Svetlogorsk","state_id":1840,"state_code":"KYA","state_name":"Krasnoyarsk Krai","country_id":182,"country_code":"RU","country_name":"Russia","latitude":"66.93762000","longitude":"88.35265000","wikiDataId":"Q37961074"},{"id":101754,"Name":"Talnakh","state_id":1840,"state_code":"KYA","state_name":"Krasnoyarsk Krai","country_id":182,"country_code":"RU","country_name":"Russia","latitude":"69.48650000","longitude":"88.39720000","wikiDataId":"Q1010995"},{"id":101767,"Name":"Tanzybey","state_id":1840,"state_code":"KYA","state_name":"Krasnoyarsk Krai","country_id":182,"country_code":"RU","country_name":"Russia","latitude":"53.13265000","longitude":"92.94335000","wikiDataId":"Q37961897"},{"id":101784,"Name":"Taseyevo","state_id":1840,"state_code":"KYA","state_name":"Krasnoyarsk Krai","country_id":182,"country_code":"RU","country_name":"Russia","latitude":"57.21457000","longitude":"94.89393000","wikiDataId":"Q7687142"},{"id":101804,"Name":"Taymyrsky Dolgano-Nenetsky District","state_id":1840,"state_code":"KYA","state_name":"Krasnoyarsk Krai","country_id":182,"country_code":"RU","country_name":"Russia","latitude":"72.00000000","longitude":"95.00000000","wikiDataId":"Q302113"},{"id":101846,"Name":"Teya","state_id":1840,"state_code":"KYA","state_name":"Krasnoyarsk Krai","country_id":182,"country_code":"RU","country_name":"Russia","latitude":"60.37202000","longitude":"92.62956000","wikiDataId":"Q4453661"},{"id":101861,"Name":"Tinskoy","state_id":1840,"state_code":"KYA","state_name":"Krasnoyarsk Krai","country_id":182,"country_code":"RU","country_name":"Russia","latitude":"56.15130000","longitude":"96.91730000","wikiDataId":"Q37960896"},{"id":101972,"Name":"Tura","state_id":1840,"state_code":"KYA","state_name":"Krasnoyarsk Krai","country_id":182,"country_code":"RU","country_name":"Russia","latitude":"64.27769000","longitude":"100.21849000","wikiDataId":"Q997040"},{"id":101982,"Name":"Turukhansk","state_id":1840,"state_code":"KYA","state_name":"Krasnoyarsk Krai","country_id":182,"country_code":"RU","country_name":"Russia","latitude":"65.79479000","longitude":"87.95006000","wikiDataId":"Q155243"},{"id":102001,"Name":"Tyukhtet","state_id":1840,"state_code":"KYA","state_name":"Krasnoyarsk Krai","country_id":182,"country_code":"RU","country_name":"Russia","latitude":"56.53939000","longitude":"89.31221000","wikiDataId":"Q37960772"},{"id":102069,"Name":"Ural","state_id":1840,"state_code":"KYA","state_name":"Krasnoyarsk Krai","country_id":182,"country_code":"RU","country_name":"Russia","latitude":"55.90520000","longitude":"94.75370000","wikiDataId":"Q37960718"},{"id":102160,"Name":"Uyar","state_id":1840,"state_code":"KYA","state_name":"Krasnoyarsk Krai","country_id":182,"country_code":"RU","country_name":"Russia","latitude":"55.81180000","longitude":"94.32470000","wikiDataId":"Q197351"},{"id":102161,"Name":"Uyarskiy Rayon","state_id":1840,"state_code":"KYA","state_name":"Krasnoyarsk Krai","country_id":182,"country_code":"RU","country_name":"Russia","latitude":"55.83333000","longitude":"94.25000000","wikiDataId":"Q918951"},{"id":102165,"Name":"Uzhur","state_id":1840,"state_code":"KYA","state_name":"Krasnoyarsk Krai","country_id":182,"country_code":"RU","country_name":"Russia","latitude":"55.31246000","longitude":"89.83301000","wikiDataId":"Q196803"},{"id":102185,"Name":"Vanavara","state_id":1840,"state_code":"KYA","state_name":"Krasnoyarsk Krai","country_id":182,"country_code":"RU","country_name":"Russia","latitude":"60.34679000","longitude":"102.28434000","wikiDataId":"Q147317"},{"id":102555,"Name":"Yemel’yanovo","state_id":1840,"state_code":"KYA","state_name":"Krasnoyarsk Krai","country_id":182,"country_code":"RU","country_name":"Russia","latitude":"56.16776000","longitude":"92.67539000","wikiDataId":"Q33523384"},{"id":102556,"Name":"Yemel’yanovskiy Rayon","state_id":1840,"state_code":"KYA","state_name":"Krasnoyarsk Krai","country_id":182,"country_code":"RU","country_name":"Russia","latitude":"56.41667000","longitude":"92.75000000","wikiDataId":"Q575472"},{"id":102560,"Name":"Yeniseysk","state_id":1840,"state_code":"KYA","state_name":"Krasnoyarsk Krai","country_id":182,"country_code":"RU","country_name":"Russia","latitude":"58.44937000","longitude":"92.17968000","wikiDataId":"Q135686"},{"id":102561,"Name":"Yeniseyskiy Rayon","state_id":1840,"state_code":"KYA","state_name":"Krasnoyarsk Krai","country_id":182,"country_code":"RU","country_name":"Russia","latitude":"60.00000000","longitude":"89.00000000","wikiDataId":"Q575475"},{"id":102564,"Name":"Yermakovskoye","state_id":1840,"state_code":"KYA","state_name":"Krasnoyarsk Krai","country_id":182,"country_code":"RU","country_name":"Russia","latitude":"53.27545000","longitude":"92.40021000","wikiDataId":"Q33523407"},{"id":102696,"Name":"Zelenogorsk","state_id":1840,"state_code":"KYA","state_name":"Krasnoyarsk Krai","country_id":182,"country_code":"RU","country_name":"Russia","latitude":"56.11240000","longitude":"94.59850000","wikiDataId":"Q59704"},{"id":102703,"Name":"Zelënyy Bor","state_id":1840,"state_code":"KYA","state_name":"Krasnoyarsk Krai","country_id":182,"country_code":"RU","country_name":"Russia","latitude":"53.62178000","longitude":"91.61528000","wikiDataId":"Q12214903"},{"id":102721,"Name":"Zheleznogorsk","state_id":1840,"state_code":"KYA","state_name":"Krasnoyarsk Krai","country_id":182,"country_code":"RU","country_name":"Russia","latitude":"56.25111000","longitude":"93.53194000","wikiDataId":"Q135869"},{"id":102786,"Name":"Zykovo","state_id":1840,"state_code":"KYA","state_name":"Krasnoyarsk Krai","country_id":182,"country_code":"RU","country_name":"Russia","latitude":"55.95503000","longitude":"93.16093000","wikiDataId":"Q4194860"}]