[{"id":21650,"Name":"Batán","state_id":1213,"state_code":"L","state_name":"Limón Province","country_id":53,"country_code":"CR","country_name":"Costa Rica","latitude":"10.08354000","longitude":"-83.33413000","wikiDataId":"Q2614093"},{"id":21688,"Name":"Guácimo","state_id":1213,"state_code":"L","state_name":"Limón Province","country_id":53,"country_code":"CR","country_name":"Costa Rica","latitude":"10.20000000","longitude":"-83.66667000","wikiDataId":"Q609975"},{"id":21689,"Name":"Guápiles","state_id":1213,"state_code":"L","state_name":"Limón Province","country_id":53,"country_code":"CR","country_name":"Costa Rica","latitude":"10.21682000","longitude":"-83.78483000","wikiDataId":"Q609975"},{"id":21703,"Name":"Limón","state_id":1213,"state_code":"L","state_name":"Limón Province","country_id":53,"country_code":"CR","country_name":"Costa Rica","latitude":"9.99074000","longitude":"-83.03596000","wikiDataId":"Q30620"},{"id":21706,"Name":"Matina","state_id":1213,"state_code":"L","state_name":"Limón Province","country_id":53,"country_code":"CR","country_name":"Costa Rica","latitude":"10.00000000","longitude":"-83.25000000","wikiDataId":"Q2669000"},{"id":21730,"Name":"Pococí","state_id":1213,"state_code":"L","state_name":"Limón Province","country_id":53,"country_code":"CR","country_name":"Costa Rica","latitude":"10.50000000","longitude":"-83.63333000","wikiDataId":"Q1852750"},{"id":21731,"Name":"Pocora","state_id":1213,"state_code":"L","state_name":"Limón Province","country_id":53,"country_code":"CR","country_name":"Costa Rica","latitude":"10.17185000","longitude":"-83.60439000","wikiDataId":"Q23738674"},{"id":21740,"Name":"Roxana","state_id":1213,"state_code":"L","state_name":"Limón Province","country_id":53,"country_code":"CR","country_name":"Costa Rica","latitude":"10.26712000","longitude":"-83.75110000","wikiDataId":"Q23736864"},{"id":21782,"Name":"Siquirres","state_id":1213,"state_code":"L","state_name":"Limón Province","country_id":53,"country_code":"CR","country_name":"Costa Rica","latitude":"10.11667000","longitude":"-83.50000000","wikiDataId":"Q930152"},{"id":21783,"Name":"Sixaola","state_id":1213,"state_code":"L","state_name":"Limón Province","country_id":53,"country_code":"CR","country_name":"Costa Rica","latitude":"9.52766000","longitude":"-82.62185000","wikiDataId":"Q1759580"},{"id":21785,"Name":"Talamanca","state_id":1213,"state_code":"L","state_name":"Limón Province","country_id":53,"country_code":"CR","country_name":"Costa Rica","latitude":"9.50000000","longitude":"-83.08333000","wikiDataId":"Q2669009"}]