[{"id":130675,"Name":"Al  Hawtah","state_id":1245,"state_code":"LA","state_name":"Lahij Governorate","country_id":245,"country_code":"YE","country_name":"Yemen","latitude":"13.06240000","longitude":"44.88160000","wikiDataId":"Q4117591"},{"id":130754,"Name":"Al Ḩabīlayn","state_id":1245,"state_code":"LA","state_name":"Lahij Governorate","country_id":245,"country_code":"YE","country_name":"Yemen","latitude":"13.52002000","longitude":"44.85076000","wikiDataId":"Q12225330"},{"id":130690,"Name":"Al Had","state_id":1245,"state_code":"LA","state_name":"Lahij Governorate","country_id":245,"country_code":"YE","country_name":"Yemen","latitude":"13.97830000","longitude":"45.25530000","wikiDataId":"Q4117515"},{"id":130710,"Name":"Al Madaribah Wa Al Arah","state_id":1245,"state_code":"LA","state_name":"Lahij Governorate","country_id":245,"country_code":"YE","country_name":"Yemen","latitude":"12.85690000","longitude":"43.99060000","wikiDataId":"Q4117571"},{"id":130711,"Name":"Al Maflahy","state_id":1245,"state_code":"LA","state_name":"Lahij Governorate","country_id":245,"country_code":"YE","country_name":"Yemen","latitude":"13.77670000","longitude":"45.10880000","wikiDataId":"Q4117631"},{"id":130721,"Name":"Al Maqatirah","state_id":1245,"state_code":"LA","state_name":"Lahij Governorate","country_id":245,"country_code":"YE","country_name":"Yemen","latitude":"13.13720000","longitude":"44.14040000","wikiDataId":"Q4117600"},{"id":130732,"Name":"Al Milah","state_id":1245,"state_code":"LA","state_name":"Lahij Governorate","country_id":245,"country_code":"YE","country_name":"Yemen","latitude":"13.32020000","longitude":"44.92670000","wikiDataId":"Q4117611"},{"id":130741,"Name":"Al Musaymir","state_id":1245,"state_code":"LA","state_name":"Lahij Governorate","country_id":245,"country_code":"YE","country_name":"Yemen","latitude":"13.42910000","longitude":"44.59140000","wikiDataId":"Q4704515"},{"id":130743,"Name":"Al Qabbaytah","state_id":1245,"state_code":"LA","state_name":"Lahij Governorate","country_id":245,"country_code":"YE","country_name":"Yemen","latitude":"13.32750000","longitude":"44.50250000","wikiDataId":"Q4117561"},{"id":130846,"Name":"Habil Jabr","state_id":1245,"state_code":"LA","state_name":"Lahij Governorate","country_id":245,"country_code":"YE","country_name":"Yemen","latitude":"13.59210000","longitude":"45.07370000","wikiDataId":"Q4117473"},{"id":130852,"Name":"Halimayn","state_id":1245,"state_code":"LA","state_name":"Lahij Governorate","country_id":245,"country_code":"YE","country_name":"Yemen","latitude":"13.70880000","longitude":"44.94430000","wikiDataId":"Q4117621"},{"id":130901,"Name":"Laḩij","state_id":1245,"state_code":"LA","state_name":"Lahij Governorate","country_id":245,"country_code":"YE","country_name":"Yemen","latitude":"13.05667000","longitude":"44.88194000","wikiDataId":"Q249175"},{"id":130945,"Name":"Radfan","state_id":1245,"state_code":"LA","state_name":"Lahij Governorate","country_id":245,"country_code":"YE","country_name":"Yemen","latitude":"13.46670000","longitude":"44.99000000","wikiDataId":"Q3436040"},{"id":130991,"Name":"Tuban","state_id":1245,"state_code":"LA","state_name":"Lahij Governorate","country_id":245,"country_code":"YE","country_name":"Yemen","latitude":"13.09210000","longitude":"44.87840000","wikiDataId":"Q4117488"},{"id":130992,"Name":"Tur Al Bahah","state_id":1245,"state_code":"LA","state_name":"Lahij Governorate","country_id":245,"country_code":"YE","country_name":"Yemen","latitude":"13.04269000","longitude":"44.41154000","wikiDataId":"Q4117589"},{"id":131003,"Name":"Yafa'a","state_id":1245,"state_code":"LA","state_name":"Lahij Governorate","country_id":245,"country_code":"YE","country_name":"Yemen","latitude":"13.86200000","longitude":"45.20140000","wikiDataId":"Q4117606"},{"id":131004,"Name":"Yahr","state_id":1245,"state_code":"LA","state_name":"Lahij Governorate","country_id":245,"country_code":"YE","country_name":"Yemen","latitude":"13.72270000","longitude":"45.13050000","wikiDataId":"Q4117470"}]