[{"id":85791,"Name":"Babimost","state_id":1631,"state_code":"LB","state_name":"Lubusz Voivodeship","country_id":176,"country_code":"PL","country_name":"Poland","latitude":"52.16488000","longitude":"15.82769000","wikiDataId":"Q797713"},{"id":85880,"Name":"Bledzew","state_id":1631,"state_code":"LB","state_name":"Lubusz Voivodeship","country_id":176,"country_code":"PL","country_name":"Poland","latitude":"52.51711000","longitude":"15.41382000","wikiDataId":"Q1014942"},{"id":85887,"Name":"Bobrowice","state_id":1631,"state_code":"LB","state_name":"Lubusz Voivodeship","country_id":176,"country_code":"PL","country_name":"Poland","latitude":"51.94850000","longitude":"15.09058000","wikiDataId":"Q515216"},{"id":85896,"Name":"Bogdaniec","state_id":1631,"state_code":"LB","state_name":"Lubusz Voivodeship","country_id":176,"country_code":"PL","country_name":"Poland","latitude":"52.68897000","longitude":"15.07127000","wikiDataId":"Q123438"},{"id":85901,"Name":"Bojadła","state_id":1631,"state_code":"LB","state_name":"Lubusz Voivodeship","country_id":176,"country_code":"PL","country_name":"Poland","latitude":"51.95321000","longitude":"15.81036000","wikiDataId":"Q2580095"},{"id":85947,"Name":"Brody","state_id":1631,"state_code":"LB","state_name":"Lubusz Voivodeship","country_id":176,"country_code":"PL","country_name":"Poland","latitude":"51.79046000","longitude":"14.77335000","wikiDataId":"Q2241673"},{"id":85979,"Name":"Brójce","state_id":1631,"state_code":"LB","state_name":"Lubusz Voivodeship","country_id":176,"country_code":"PL","country_name":"Poland","latitude":"52.31745000","longitude":"15.67414000","wikiDataId":"Q4981893"},{"id":86004,"Name":"Bytnica","state_id":1631,"state_code":"LB","state_name":"Lubusz Voivodeship","country_id":176,"country_code":"PL","country_name":"Poland","latitude":"52.15066000","longitude":"15.16946000","wikiDataId":"Q991022"},{"id":86006,"Name":"Bytom Odrzański","state_id":1631,"state_code":"LB","state_name":"Lubusz Voivodeship","country_id":176,"country_code":"PL","country_name":"Poland","latitude":"51.73062000","longitude":"15.82362000","wikiDataId":"Q987471"},{"id":86096,"Name":"Cybinka","state_id":1631,"state_code":"LB","state_name":"Lubusz Voivodeship","country_id":176,"country_code":"PL","country_name":"Poland","latitude":"52.19446000","longitude":"14.79567000","wikiDataId":"Q999269"},{"id":86139,"Name":"Czerwieńsk","state_id":1631,"state_code":"LB","state_name":"Lubusz Voivodeship","country_id":176,"country_code":"PL","country_name":"Poland","latitude":"52.01289000","longitude":"15.42317000","wikiDataId":"Q777802"},{"id":86233,"Name":"Dąbie","state_id":1631,"state_code":"LB","state_name":"Lubusz Voivodeship","country_id":176,"country_code":"PL","country_name":"Poland","latitude":"52.01056000","longitude":"15.15221000","wikiDataId":"Q1866859"},{"id":86162,"Name":"Deszczno","state_id":1631,"state_code":"LB","state_name":"Lubusz Voivodeship","country_id":176,"country_code":"PL","country_name":"Poland","latitude":"52.66988000","longitude":"15.31975000","wikiDataId":"Q617056"},{"id":86165,"Name":"Dobiegniew","state_id":1631,"state_code":"LB","state_name":"Lubusz Voivodeship","country_id":176,"country_code":"PL","country_name":"Poland","latitude":"52.96947000","longitude":"15.75362000","wikiDataId":"Q988628"},{"id":86197,"Name":"Drezdenko","state_id":1631,"state_code":"LB","state_name":"Lubusz Voivodeship","country_id":176,"country_code":"PL","country_name":"Poland","latitude":"52.83831000","longitude":"15.83079000","wikiDataId":"Q836961"},{"id":86342,"Name":"Gorzów Wielkopolski","state_id":1631,"state_code":"LB","state_name":"Lubusz Voivodeship","country_id":176,"country_code":"PL","country_name":"Poland","latitude":"52.73679000","longitude":"15.22878000","wikiDataId":"Q104731"},{"id":86420,"Name":"Górzyca","state_id":1631,"state_code":"LB","state_name":"Lubusz Voivodeship","country_id":176,"country_code":"PL","country_name":"Poland","latitude":"52.49447000","longitude":"14.65503000","wikiDataId":"Q990591"},{"id":86352,"Name":"Gozdnica","state_id":1631,"state_code":"LB","state_name":"Lubusz Voivodeship","country_id":176,"country_code":"PL","country_name":"Poland","latitude":"51.43630000","longitude":"15.09856000","wikiDataId":"Q985667"},{"id":86404,"Name":"Gubin","state_id":1631,"state_code":"LB","state_name":"Lubusz Voivodeship","country_id":176,"country_code":"PL","country_name":"Poland","latitude":"51.94956000","longitude":"14.72837000","wikiDataId":"Q312061"},{"id":86473,"Name":"Iłowa","state_id":1631,"state_code":"LB","state_name":"Lubusz Voivodeship","country_id":176,"country_code":"PL","country_name":"Poland","latitude":"51.50060000","longitude":"15.19980000","wikiDataId":"Q161909"},{"id":86518,"Name":"Jasień","state_id":1631,"state_code":"LB","state_name":"Lubusz Voivodeship","country_id":176,"country_code":"PL","country_name":"Poland","latitude":"51.75142000","longitude":"15.01419000","wikiDataId":"Q2326563"},{"id":86553,"Name":"Jenin","state_id":1631,"state_code":"LB","state_name":"Lubusz Voivodeship","country_id":176,"country_code":"PL","country_name":"Poland","latitude":"52.69647000","longitude":"15.09796000","wikiDataId":"Q6177522"},{"id":86611,"Name":"Kargowa","state_id":1631,"state_code":"LB","state_name":"Lubusz Voivodeship","country_id":176,"country_code":"PL","country_name":"Poland","latitude":"52.07140000","longitude":"15.86138000","wikiDataId":"Q280407"},{"id":86645,"Name":"Klenica","state_id":1631,"state_code":"LB","state_name":"Lubusz Voivodeship","country_id":176,"country_code":"PL","country_name":"Poland","latitude":"51.99217000","longitude":"15.78392000","wikiDataId":"Q11740015"},{"id":86864,"Name":"Kłodawa","state_id":1631,"state_code":"LB","state_name":"Lubusz Voivodeship","country_id":176,"country_code":"PL","country_name":"Poland","latitude":"52.78595000","longitude":"15.21452000","wikiDataId":"Q2315541"},{"id":86681,"Name":"Kolsko","state_id":1631,"state_code":"LB","state_name":"Lubusz Voivodeship","country_id":176,"country_code":"PL","country_name":"Poland","latitude":"51.96146000","longitude":"15.95987000","wikiDataId":"Q387911"},{"id":86695,"Name":"Konotop","state_id":1631,"state_code":"LB","state_name":"Lubusz Voivodeship","country_id":176,"country_code":"PL","country_name":"Poland","latitude":"51.93157000","longitude":"15.90391000","wikiDataId":"Q450604"},{"id":86715,"Name":"Kostrzyn nad Odrą","state_id":1631,"state_code":"LB","state_name":"Lubusz Voivodeship","country_id":176,"country_code":"PL","country_name":"Poland","latitude":"52.58713000","longitude":"14.64953000","wikiDataId":"Q156837"},{"id":86760,"Name":"Kożuchów","state_id":1631,"state_code":"LB","state_name":"Lubusz Voivodeship","country_id":176,"country_code":"PL","country_name":"Poland","latitude":"51.74558000","longitude":"15.59492000","wikiDataId":"Q142101"},{"id":86784,"Name":"Krosno Odrzańskie","state_id":1631,"state_code":"LB","state_name":"Lubusz Voivodeship","country_id":176,"country_code":"PL","country_name":"Poland","latitude":"52.05492000","longitude":"15.09882000","wikiDataId":"Q148947"},{"id":86809,"Name":"Krzeszyce","state_id":1631,"state_code":"LB","state_name":"Lubusz Voivodeship","country_id":176,"country_code":"PL","country_name":"Poland","latitude":"52.58329000","longitude":"15.00707000","wikiDataId":"Q950681"},{"id":86838,"Name":"Kunice Żarskie","state_id":1631,"state_code":"LB","state_name":"Lubusz Voivodeship","country_id":176,"country_code":"PL","country_name":"Poland","latitude":"51.59944000","longitude":"15.16495000","wikiDataId":"Q2354995"},{"id":86909,"Name":"Lipinki Łużyckie","state_id":1631,"state_code":"LB","state_name":"Lubusz Voivodeship","country_id":176,"country_code":"PL","country_name":"Poland","latitude":"51.63954000","longitude":"14.99874000","wikiDataId":"Q159634"},{"id":86945,"Name":"Lubiszyn","state_id":1631,"state_code":"LB","state_name":"Lubusz Voivodeship","country_id":176,"country_code":"PL","country_name":"Poland","latitude":"52.78075000","longitude":"14.94793000","wikiDataId":"Q1003601"},{"id":86949,"Name":"Lubniewice","state_id":1631,"state_code":"LB","state_name":"Lubusz Voivodeship","country_id":176,"country_code":"PL","country_name":"Poland","latitude":"52.51638000","longitude":"15.25005000","wikiDataId":"Q931553"},{"id":86958,"Name":"Lubrza","state_id":1631,"state_code":"LB","state_name":"Lubusz Voivodeship","country_id":176,"country_code":"PL","country_name":"Poland","latitude":"52.30418000","longitude":"15.44317000","wikiDataId":"Q1022956"},{"id":86960,"Name":"Lubsko","state_id":1631,"state_code":"LB","state_name":"Lubusz Voivodeship","country_id":176,"country_code":"PL","country_name":"Poland","latitude":"51.78467000","longitude":"14.97196000","wikiDataId":"Q149111"},{"id":88761,"Name":"Łagów","state_id":1631,"state_code":"LB","state_name":"Lubusz Voivodeship","country_id":176,"country_code":"PL","country_name":"Poland","latitude":"52.33429000","longitude":"15.29769000","wikiDataId":"Q2460708"},{"id":88826,"Name":"Łęknica","state_id":1631,"state_code":"LB","state_name":"Lubusz Voivodeship","country_id":176,"country_code":"PL","country_name":"Poland","latitude":"51.54148000","longitude":"14.73584000","wikiDataId":"Q318346"},{"id":87009,"Name":"Małomice","state_id":1631,"state_code":"LB","state_name":"Lubusz Voivodeship","country_id":176,"country_code":"PL","country_name":"Poland","latitude":"51.55597000","longitude":"15.45004000","wikiDataId":"Q995847"},{"id":86999,"Name":"Maszewo","state_id":1631,"state_code":"LB","state_name":"Lubusz Voivodeship","country_id":176,"country_code":"PL","country_name":"Poland","latitude":"52.06896000","longitude":"14.90553000","wikiDataId":"Q1915415"},{"id":87062,"Name":"Międzylesie","state_id":1631,"state_code":"LB","state_name":"Lubusz Voivodeship","country_id":176,"country_code":"PL","country_name":"Poland","latitude":"52.14487000","longitude":"15.38283000","wikiDataId":"Q6885032"},{"id":87065,"Name":"Międzyrzecz","state_id":1631,"state_code":"LB","state_name":"Lubusz Voivodeship","country_id":176,"country_code":"PL","country_name":"Poland","latitude":"52.44461000","longitude":"15.57801000","wikiDataId":"Q639241"},{"id":87175,"Name":"Nowa Sól","state_id":1631,"state_code":"LB","state_name":"Lubusz Voivodeship","country_id":176,"country_code":"PL","country_name":"Poland","latitude":"51.80333000","longitude":"15.71702000","wikiDataId":"Q157190"},{"id":87184,"Name":"Nowe Miasteczko","state_id":1631,"state_code":"LB","state_name":"Lubusz Voivodeship","country_id":176,"country_code":"PL","country_name":"Poland","latitude":"51.69097000","longitude":"15.73174000","wikiDataId":"Q431628"},{"id":87197,"Name":"Nowogród Bobrzański","state_id":1631,"state_code":"LB","state_name":"Lubusz Voivodeship","country_id":176,"country_code":"PL","country_name":"Poland","latitude":"51.79856000","longitude":"15.23520000","wikiDataId":"Q1023760"},{"id":87224,"Name":"Ochla","state_id":1631,"state_code":"LB","state_name":"Lubusz Voivodeship","country_id":176,"country_code":"PL","country_name":"Poland","latitude":"51.87903000","longitude":"15.47132000","wikiDataId":"Q2478780"},{"id":87324,"Name":"Ośno Lubuskie","state_id":1631,"state_code":"LB","state_name":"Lubusz Voivodeship","country_id":176,"country_code":"PL","country_name":"Poland","latitude":"52.45360000","longitude":"14.87549000","wikiDataId":"Q1005350"},{"id":87318,"Name":"Otyń","state_id":1631,"state_code":"LB","state_name":"Lubusz Voivodeship","country_id":176,"country_code":"PL","country_name":"Poland","latitude":"51.84766000","longitude":"15.71105000","wikiDataId":"Q991590"},{"id":87508,"Name":"Powiat gorzowski","state_id":1631,"state_code":"LB","state_name":"Lubusz Voivodeship","country_id":176,"country_code":"PL","country_name":"Poland","latitude":"52.73863000","longitude":"15.08508000","wikiDataId":"Q970547"},{"id":87556,"Name":"Powiat krośnieński","state_id":1631,"state_code":"LB","state_name":"Lubusz Voivodeship","country_id":176,"country_code":"PL","country_name":"Poland","latitude":"52.00988000","longitude":"14.95209000","wikiDataId":"Q317835"},{"id":87588,"Name":"Powiat międzyrzecki","state_id":1631,"state_code":"LB","state_name":"Lubusz Voivodeship","country_id":176,"country_code":"PL","country_name":"Poland","latitude":"52.49891000","longitude":"15.58284000","wikiDataId":"Q317917"},{"id":87604,"Name":"Powiat nowosolski","state_id":1631,"state_code":"LB","state_name":"Lubusz Voivodeship","country_id":176,"country_code":"PL","country_name":"Poland","latitude":"51.84218000","longitude":"15.72698000","wikiDataId":"Q317943"},{"id":87698,"Name":"Powiat słubicki","state_id":1631,"state_code":"LB","state_name":"Lubusz Voivodeship","country_id":176,"country_code":"PL","country_name":"Poland","latitude":"52.32267000","longitude":"14.78921000","wikiDataId":"Q318018"},{"id":87685,"Name":"Powiat strzelecko-drezdenecki","state_id":1631,"state_code":"LB","state_name":"Lubusz Voivodeship","country_id":176,"country_code":"PL","country_name":"Poland","latitude":"52.91220000","longitude":"15.64061000","wikiDataId":"Q317976"},{"id":87688,"Name":"Powiat sulęciński","state_id":1631,"state_code":"LB","state_name":"Lubusz Voivodeship","country_id":176,"country_code":"PL","country_name":"Poland","latitude":"52.42850000","longitude":"15.04896000","wikiDataId":"Q318002"},{"id":87762,"Name":"Powiat świebodziński","state_id":1631,"state_code":"LB","state_name":"Lubusz Voivodeship","country_id":176,"country_code":"PL","country_name":"Poland","latitude":"52.23799000","longitude":"15.48522000","wikiDataId":"Q318397"},{"id":87726,"Name":"Powiat wschowski","state_id":1631,"state_code":"LB","state_name":"Lubusz Voivodeship","country_id":176,"country_code":"PL","country_name":"Poland","latitude":"51.83019000","longitude":"16.12096000","wikiDataId":"Q318376"},{"id":87764,"Name":"Powiat żagański","state_id":1631,"state_code":"LB","state_name":"Lubusz Voivodeship","country_id":176,"country_code":"PL","country_name":"Poland","latitude":"51.59471000","longitude":"15.42253000","wikiDataId":"Q318442"},{"id":87765,"Name":"Powiat żarski","state_id":1631,"state_code":"LB","state_name":"Lubusz Voivodeship","country_id":176,"country_code":"PL","country_name":"Poland","latitude":"51.62858000","longitude":"14.96170000","wikiDataId":"Q318459"},{"id":87742,"Name":"Powiat zielonogórski","state_id":1631,"state_code":"LB","state_name":"Lubusz Voivodeship","country_id":176,"country_code":"PL","country_name":"Poland","latitude":"51.93326000","longitude":"15.44403000","wikiDataId":"Q716072"},{"id":87817,"Name":"Przewóz","state_id":1631,"state_code":"LB","state_name":"Lubusz Voivodeship","country_id":176,"country_code":"PL","country_name":"Poland","latitude":"51.48053000","longitude":"14.95188000","wikiDataId":"Q4831262"},{"id":87822,"Name":"Przyborów","state_id":1631,"state_code":"LB","state_name":"Lubusz Voivodeship","country_id":176,"country_code":"PL","country_name":"Poland","latitude":"51.79991000","longitude":"15.76890000","wikiDataId":"Q7253535"},{"id":87831,"Name":"Przytoczna","state_id":1631,"state_code":"LB","state_name":"Lubusz Voivodeship","country_id":176,"country_code":"PL","country_name":"Poland","latitude":"52.57755000","longitude":"15.67878000","wikiDataId":"Q1003300"},{"id":87842,"Name":"Pszczew","state_id":1631,"state_code":"LB","state_name":"Lubusz Voivodeship","country_id":176,"country_code":"PL","country_name":"Poland","latitude":"52.47724000","longitude":"15.78160000","wikiDataId":"Q2309437"},{"id":88022,"Name":"Rzepin","state_id":1631,"state_code":"LB","state_name":"Lubusz Voivodeship","country_id":176,"country_code":"PL","country_name":"Poland","latitude":"52.34640000","longitude":"14.83227000","wikiDataId":"Q2325072"},{"id":88050,"Name":"Santok","state_id":1631,"state_code":"LB","state_name":"Lubusz Voivodeship","country_id":176,"country_code":"PL","country_name":"Poland","latitude":"52.73785000","longitude":"15.41021000","wikiDataId":"Q1015339"},{"id":88069,"Name":"Siedlisko","state_id":1631,"state_code":"LB","state_name":"Lubusz Voivodeship","country_id":176,"country_code":"PL","country_name":"Poland","latitude":"51.76864000","longitude":"15.81396000","wikiDataId":"Q2324832"},{"id":88079,"Name":"Sieniawa","state_id":1631,"state_code":"LB","state_name":"Lubusz Voivodeship","country_id":176,"country_code":"PL","country_name":"Poland","latitude":"52.36344000","longitude":"15.37768000","wikiDataId":"Q7511082"},{"id":88080,"Name":"Sieniawa Żarska","state_id":1631,"state_code":"LB","state_name":"Lubusz Voivodeship","country_id":176,"country_code":"PL","country_name":"Poland","latitude":"51.64007000","longitude":"15.06045000","wikiDataId":"Q3889867"},{"id":88123,"Name":"Skąpe","state_id":1631,"state_code":"LB","state_name":"Lubusz Voivodeship","country_id":176,"country_code":"PL","country_name":"Poland","latitude":"52.15292000","longitude":"15.45845000","wikiDataId":"Q954116"},{"id":88120,"Name":"Skwierzyna","state_id":1631,"state_code":"LB","state_name":"Lubusz Voivodeship","country_id":176,"country_code":"PL","country_name":"Poland","latitude":"52.59914000","longitude":"15.50652000","wikiDataId":"Q994585"},{"id":88334,"Name":"Sława","state_id":1631,"state_code":"LB","state_name":"Lubusz Voivodeship","country_id":176,"country_code":"PL","country_name":"Poland","latitude":"51.87623000","longitude":"16.07205000","wikiDataId":"Q1005492"},{"id":88344,"Name":"Słońsk","state_id":1631,"state_code":"LB","state_name":"Lubusz Voivodeship","country_id":176,"country_code":"PL","country_name":"Poland","latitude":"52.56345000","longitude":"14.80526000","wikiDataId":"Q1012582"},{"id":88345,"Name":"Słubice","state_id":1631,"state_code":"LB","state_name":"Lubusz Voivodeship","country_id":176,"country_code":"PL","country_name":"Poland","latitude":"52.35088000","longitude":"14.56065000","wikiDataId":"Q200709"},{"id":88185,"Name":"Stare Kurowo","state_id":1631,"state_code":"LB","state_name":"Lubusz Voivodeship","country_id":176,"country_code":"PL","country_name":"Poland","latitude":"52.85669000","longitude":"15.67749000","wikiDataId":"Q1861063"},{"id":88227,"Name":"Strzelce Krajeńskie","state_id":1631,"state_code":"LB","state_name":"Lubusz Voivodeship","country_id":176,"country_code":"PL","country_name":"Poland","latitude":"52.87726000","longitude":"15.52978000","wikiDataId":"Q717399"},{"id":88256,"Name":"Sulechów","state_id":1631,"state_code":"LB","state_name":"Lubusz Voivodeship","country_id":176,"country_code":"PL","country_name":"Poland","latitude":"52.08362000","longitude":"15.62513000","wikiDataId":"Q457865"},{"id":88841,"Name":"Świdnica","state_id":1631,"state_code":"LB","state_name":"Lubusz Voivodeship","country_id":176,"country_code":"PL","country_name":"Poland","latitude":"51.88836000","longitude":"15.39013000","wikiDataId":"Q7095"},{"id":88846,"Name":"Świebodzin","state_id":1631,"state_code":"LB","state_name":"Lubusz Voivodeship","country_id":176,"country_code":"PL","country_name":"Poland","latitude":"52.24751000","longitude":"15.53355000","wikiDataId":"Q773270"},{"id":88289,"Name":"Szczaniec","state_id":1631,"state_code":"LB","state_name":"Lubusz Voivodeship","country_id":176,"country_code":"PL","country_name":"Poland","latitude":"52.26874000","longitude":"15.68170000","wikiDataId":"Q2291623"},{"id":88312,"Name":"Szlichtyngowa","state_id":1631,"state_code":"LB","state_name":"Lubusz Voivodeship","country_id":176,"country_code":"PL","country_name":"Poland","latitude":"51.71222000","longitude":"16.24427000","wikiDataId":"Q991866"},{"id":88313,"Name":"Szprotawa","state_id":1631,"state_code":"LB","state_name":"Lubusz Voivodeship","country_id":176,"country_code":"PL","country_name":"Poland","latitude":"51.56563000","longitude":"15.53664000","wikiDataId":"Q165066"},{"id":88385,"Name":"Torzym","state_id":1631,"state_code":"LB","state_name":"Lubusz Voivodeship","country_id":176,"country_code":"PL","country_name":"Poland","latitude":"52.31331000","longitude":"15.08243000","wikiDataId":"Q995903"},{"id":88397,"Name":"Trzciel","state_id":1631,"state_code":"LB","state_name":"Lubusz Voivodeship","country_id":176,"country_code":"PL","country_name":"Poland","latitude":"52.36504000","longitude":"15.87306000","wikiDataId":"Q523287"},{"id":88402,"Name":"Trzebiechów","state_id":1631,"state_code":"LB","state_name":"Lubusz Voivodeship","country_id":176,"country_code":"PL","country_name":"Poland","latitude":"52.02113000","longitude":"15.73620000","wikiDataId":"Q1014572"},{"id":88403,"Name":"Trzebiel","state_id":1631,"state_code":"LB","state_name":"Lubusz Voivodeship","country_id":176,"country_code":"PL","country_name":"Poland","latitude":"51.63496000","longitude":"14.81609000","wikiDataId":"Q150086"},{"id":88423,"Name":"Tuplice","state_id":1631,"state_code":"LB","state_name":"Lubusz Voivodeship","country_id":176,"country_code":"PL","country_name":"Poland","latitude":"51.67639000","longitude":"14.82914000","wikiDataId":"Q149853"},{"id":88552,"Name":"Witnica","state_id":1631,"state_code":"LB","state_name":"Lubusz Voivodeship","country_id":176,"country_code":"PL","country_name":"Poland","latitude":"52.67318000","longitude":"14.89765000","wikiDataId":"Q988636"},{"id":88610,"Name":"Wschowa","state_id":1631,"state_code":"LB","state_name":"Lubusz Voivodeship","country_id":176,"country_code":"PL","country_name":"Poland","latitude":"51.80705000","longitude":"16.31663000","wikiDataId":"Q717938"},{"id":88612,"Name":"Wymiarki","state_id":1631,"state_code":"LB","state_name":"Lubusz Voivodeship","country_id":176,"country_code":"PL","country_name":"Poland","latitude":"51.51109000","longitude":"15.08208000","wikiDataId":"Q1809663"},{"id":88661,"Name":"Zabór","state_id":1631,"state_code":"LB","state_name":"Lubusz Voivodeship","country_id":176,"country_code":"PL","country_name":"Poland","latitude":"51.95194000","longitude":"15.71676000","wikiDataId":"Q2161966"},{"id":88872,"Name":"Żagań","state_id":1631,"state_code":"LB","state_name":"Lubusz Voivodeship","country_id":176,"country_code":"PL","country_name":"Poland","latitude":"51.61759000","longitude":"15.31486000","wikiDataId":"Q158459"},{"id":88877,"Name":"Żary","state_id":1631,"state_code":"LB","state_name":"Lubusz Voivodeship","country_id":176,"country_code":"PL","country_name":"Poland","latitude":"51.64205000","longitude":"15.13727000","wikiDataId":"Q148849"},{"id":88714,"Name":"Zbąszynek","state_id":1631,"state_code":"LB","state_name":"Lubusz Voivodeship","country_id":176,"country_code":"PL","country_name":"Poland","latitude":"52.24315000","longitude":"15.81654000","wikiDataId":"Q168902"},{"id":88728,"Name":"Zielona Góra","state_id":1631,"state_code":"LB","state_name":"Lubusz Voivodeship","country_id":176,"country_code":"PL","country_name":"Poland","latitude":"51.93768000","longitude":"15.51216000","wikiDataId":"Q318384"},{"id":88736,"Name":"Zwierzyń","state_id":1631,"state_code":"LB","state_name":"Lubusz Voivodeship","country_id":176,"country_code":"PL","country_name":"Poland","latitude":"52.83212000","longitude":"15.56763000","wikiDataId":"Q7274482"}]