[{"id":18944,"Name":"Ancud","state_id":2835,"state_code":"LL","state_name":"Los Lagos","country_id":44,"country_code":"CL","country_name":"Chile","latitude":"-41.87070000","longitude":"-73.81622000","wikiDataId":"Q3597"},{"id":18953,"Name":"Calbuco","state_id":2835,"state_code":"LL","state_name":"Los Lagos","country_id":44,"country_code":"CL","country_name":"Chile","latitude":"-41.77338000","longitude":"-73.13049000","wikiDataId":"Q3691"},{"id":18956,"Name":"Castro","state_id":2835,"state_code":"LL","state_name":"Los Lagos","country_id":44,"country_code":"CL","country_name":"Chile","latitude":"-42.47210000","longitude":"-73.77319000","wikiDataId":"Q3744"},{"id":18959,"Name":"Chaitén","state_id":2835,"state_code":"LL","state_name":"Los Lagos","country_id":44,"country_code":"CL","country_name":"Chile","latitude":"-42.91596000","longitude":"-72.70632000","wikiDataId":"Q3759"},{"id":18965,"Name":"Chonchi","state_id":2835,"state_code":"LL","state_name":"Los Lagos","country_id":44,"country_code":"CL","country_name":"Chile","latitude":"-42.62387000","longitude":"-73.77500000","wikiDataId":"Q3788"},{"id":148477,"Name":"Cochamó","state_id":2835,"state_code":"LL","state_name":"Los Lagos","country_id":44,"country_code":"CL","country_name":"Chile","latitude":"-41.50000000","longitude":"-72.31666667","wikiDataId":"Q3797"},{"id":148478,"Name":"Curaco de Vélez","state_id":2835,"state_code":"LL","state_name":"Los Lagos","country_id":44,"country_code":"CL","country_name":"Chile","latitude":"-42.43970000","longitude":"-73.60290000","wikiDataId":"Q3888"},{"id":18980,"Name":"Dalcahue","state_id":2835,"state_code":"LL","state_name":"Los Lagos","country_id":44,"country_code":"CL","country_name":"Chile","latitude":"-42.37845000","longitude":"-73.65011000","wikiDataId":"Q13031"},{"id":148480,"Name":"Fresia","state_id":2835,"state_code":"LL","state_name":"Los Lagos","country_id":44,"country_code":"CL","country_name":"Chile","latitude":"-41.15364000","longitude":"-73.42102000","wikiDataId":"Q13052"},{"id":148481,"Name":"Frutillar","state_id":2835,"state_code":"LL","state_name":"Los Lagos","country_id":44,"country_code":"CL","country_name":"Chile","latitude":"-41.08716000","longitude":"-73.09563000","wikiDataId":"Q23660602"},{"id":18984,"Name":"Futaleufú","state_id":2835,"state_code":"LL","state_name":"Los Lagos","country_id":44,"country_code":"CL","country_name":"Chile","latitude":"-43.18492000","longitude":"-71.86722000","wikiDataId":"Q13060"},{"id":148482,"Name":"Hualaihué","state_id":2835,"state_code":"LL","state_name":"Los Lagos","country_id":44,"country_code":"CL","country_name":"Chile","latitude":"-42.01666667","longitude":"-72.68333333","wikiDataId":"Q13072"},{"id":19058,"Name":"Llanquihue","state_id":2835,"state_code":"LL","state_name":"Los Lagos","country_id":44,"country_code":"CL","country_name":"Chile","latitude":"-41.34285000","longitude":"-72.65800000","wikiDataId":"Q14500"},{"id":148483,"Name":"Los Muermos","state_id":2835,"state_code":"LL","state_name":"Los Lagos","country_id":44,"country_code":"CL","country_name":"Chile","latitude":"-41.40000000","longitude":"-73.48333333","wikiDataId":"Q16906"},{"id":148484,"Name":"Maullín","state_id":2835,"state_code":"LL","state_name":"Los Lagos","country_id":44,"country_code":"CL","country_name":"Chile","latitude":"-41.61666667","longitude":"-73.60000000","wikiDataId":"Q16927"},{"id":19018,"Name":"Osorno","state_id":2835,"state_code":"LL","state_name":"Los Lagos","country_id":44,"country_code":"CL","country_name":"Chile","latitude":"-40.57395000","longitude":"-73.13348000","wikiDataId":"Q51059"},{"id":19021,"Name":"Palena","state_id":2835,"state_code":"LL","state_name":"Los Lagos","country_id":44,"country_code":"CL","country_name":"Chile","latitude":"-43.61876000","longitude":"-71.80434000","wikiDataId":"Q51073"},{"id":19085,"Name":"Puerto Montt","state_id":2835,"state_code":"LL","state_name":"Los Lagos","country_id":44,"country_code":"CL","country_name":"Chile","latitude":"-41.46930000","longitude":"-72.94237000","wikiDataId":"Q36214"},{"id":148485,"Name":"Puerto Octay","state_id":2835,"state_code":"LL","state_name":"Los Lagos","country_id":44,"country_code":"CL","country_name":"Chile","latitude":"-40.96666667","longitude":"-72.90000000","wikiDataId":"Q51595"},{"id":19087,"Name":"Puerto Varas","state_id":2835,"state_code":"LL","state_name":"Los Lagos","country_id":44,"country_code":"CL","country_name":"Chile","latitude":"-41.31946000","longitude":"-72.98538000","wikiDataId":"Q51596"},{"id":148486,"Name":"Puqueldón","state_id":2835,"state_code":"LL","state_name":"Los Lagos","country_id":44,"country_code":"CL","country_name":"Chile","latitude":"-42.60001000","longitude":"-73.67458000","wikiDataId":"Q2118779"},{"id":19089,"Name":"Purranque","state_id":2835,"state_code":"LL","state_name":"Los Lagos","country_id":44,"country_code":"CL","country_name":"Chile","latitude":"-40.91305000","longitude":"-73.15913000","wikiDataId":"Q51601"},{"id":148479,"Name":"Puyehue","state_id":2835,"state_code":"LL","state_name":"Los Lagos","country_id":44,"country_code":"CL","country_name":"Chile","latitude":"-40.70968010","longitude":"-72.64190560","wikiDataId":"Q15084"},{"id":148487,"Name":"Queilén","state_id":2835,"state_code":"LL","state_name":"Los Lagos","country_id":44,"country_code":"CL","country_name":"Chile","latitude":"-42.85572000","longitude":"-73.56436000","wikiDataId":"Q51607"},{"id":19091,"Name":"Quellón","state_id":2835,"state_code":"LL","state_name":"Los Lagos","country_id":44,"country_code":"CL","country_name":"Chile","latitude":"-43.11819000","longitude":"-73.61661000","wikiDataId":"Q51608"},{"id":148488,"Name":"Quemchi","state_id":2835,"state_code":"LL","state_name":"Los Lagos","country_id":44,"country_code":"CL","country_name":"Chile","latitude":"-42.13333333","longitude":"-73.51666667","wikiDataId":"Q51609"},{"id":148489,"Name":"Quinchao","state_id":2835,"state_code":"LL","state_name":"Los Lagos","country_id":44,"country_code":"CL","country_name":"Chile","latitude":"-42.53333333","longitude":"-73.41666667","wikiDataId":"Q56111"},{"id":148490,"Name":"Río Negro","state_id":2835,"state_code":"LL","state_name":"Los Lagos","country_id":44,"country_code":"CL","country_name":"Chile","latitude":"-40.79615000","longitude":"-73.21614000","wikiDataId":"Q56130"},{"id":148491,"Name":"San Juan de la Costa","state_id":2835,"state_code":"LL","state_name":"Los Lagos","country_id":44,"country_code":"CL","country_name":"Chile","latitude":"-40.51666667","longitude":"-73.40000000","wikiDataId":"Q187856"},{"id":148492,"Name":"San Pablo","state_id":2835,"state_code":"LL","state_name":"Los Lagos","country_id":44,"country_code":"CL","country_name":"Chile","latitude":"-40.40000000","longitude":"-73.01666667","wikiDataId":"Q187873"}]