[{"id":57446,"Name":"Bet Dagan","state_id":1367,"state_code":"M","state_name":"Central District","country_id":106,"country_code":"IL","country_name":"Israel","latitude":"32.00191000","longitude":"34.82977000","wikiDataId":"Q814900"},{"id":57449,"Name":"Bet Yiẕẖaq","state_id":1367,"state_code":"M","state_name":"Central District","country_id":106,"country_code":"IL","country_name":"Israel","latitude":"32.32751000","longitude":"34.88878000","wikiDataId":"Q2920289"},{"id":57450,"Name":"Bnei Ayish","state_id":1367,"state_code":"M","state_name":"Central District","country_id":106,"country_code":"IL","country_name":"Israel","latitude":"31.78333000","longitude":"34.75000000","wikiDataId":"Q2915758"},{"id":57463,"Name":"Elyakhin","state_id":1367,"state_code":"M","state_name":"Central District","country_id":106,"country_code":"IL","country_name":"Israel","latitude":"32.40793000","longitude":"34.92433000","wikiDataId":"Q2920239"},{"id":57467,"Name":"Eṭ Ṭaiyiba","state_id":1367,"state_code":"M","state_name":"Central District","country_id":106,"country_code":"IL","country_name":"Israel","latitude":"32.26616000","longitude":"35.00893000","wikiDataId":"Q1022481"},{"id":57466,"Name":"Even Yehuda","state_id":1367,"state_code":"M","state_name":"Central District","country_id":106,"country_code":"IL","country_name":"Israel","latitude":"32.26959000","longitude":"34.88759000","wikiDataId":"Q2915760"},{"id":57468,"Name":"Gan Yavne","state_id":1367,"state_code":"M","state_name":"Central District","country_id":106,"country_code":"IL","country_name":"Israel","latitude":"31.78737000","longitude":"34.70659000","wikiDataId":"Q924849"},{"id":57469,"Name":"Ganei Tikva","state_id":1367,"state_code":"M","state_name":"Central District","country_id":106,"country_code":"IL","country_name":"Israel","latitude":"32.05971000","longitude":"34.87320000","wikiDataId":"Q2920123"},{"id":57470,"Name":"Gedera","state_id":1367,"state_code":"M","state_name":"Central District","country_id":106,"country_code":"IL","country_name":"Israel","latitude":"31.81456000","longitude":"34.77998000","wikiDataId":"Q921505"},{"id":57478,"Name":"Hod HaSharon","state_id":1367,"state_code":"M","state_name":"Central District","country_id":106,"country_code":"IL","country_name":"Israel","latitude":"32.15934000","longitude":"34.89320000","wikiDataId":"Q152379"},{"id":57483,"Name":"Jaljūlya","state_id":1367,"state_code":"M","state_name":"Central District","country_id":106,"country_code":"IL","country_name":"Israel","latitude":"32.15470000","longitude":"34.95372000","wikiDataId":"Q180294"},{"id":57491,"Name":"Kafr Qāsim","state_id":1367,"state_code":"M","state_name":"Central District","country_id":106,"country_code":"IL","country_name":"Israel","latitude":"32.11406000","longitude":"34.97624000","wikiDataId":"Q152659"},{"id":57494,"Name":"Kefar H̱abad","state_id":1367,"state_code":"M","state_name":"Central District","country_id":106,"country_code":"IL","country_name":"Israel","latitude":"31.98793000","longitude":"34.85160000","wikiDataId":"Q2570492"},{"id":57499,"Name":"Kefar Yona","state_id":1367,"state_code":"M","state_name":"Central District","country_id":106,"country_code":"IL","country_name":"Israel","latitude":"32.31669000","longitude":"34.93507000","wikiDataId":"Q2640074"},{"id":57500,"Name":"Kfar Saba","state_id":1367,"state_code":"M","state_name":"Central District","country_id":106,"country_code":"IL","country_name":"Israel","latitude":"32.17500000","longitude":"34.90694000","wikiDataId":"Q152436"},{"id":57503,"Name":"Lapid","state_id":1367,"state_code":"M","state_name":"Central District","country_id":106,"country_code":"IL","country_name":"Israel","latitude":"31.91764000","longitude":"35.03222000","wikiDataId":"Q2509463"},{"id":57505,"Name":"Lod","state_id":1367,"state_code":"M","state_name":"Central District","country_id":106,"country_code":"IL","country_name":"Israel","latitude":"31.94670000","longitude":"34.89030000","wikiDataId":"Q207540"},{"id":57507,"Name":"Mazkeret Batya","state_id":1367,"state_code":"M","state_name":"Central District","country_id":106,"country_code":"IL","country_name":"Israel","latitude":"31.85357000","longitude":"34.84646000","wikiDataId":"Q1914736"},{"id":57515,"Name":"Modi‘in Makkabbim Re‘ut","state_id":1367,"state_code":"M","state_name":"Central District","country_id":106,"country_code":"IL","country_name":"Israel","latitude":"31.89385000","longitude":"35.01504000","wikiDataId":"Q168140"},{"id":57525,"Name":"Neẖalim","state_id":1367,"state_code":"M","state_name":"Central District","country_id":106,"country_code":"IL","country_name":"Israel","latitude":"32.06012000","longitude":"34.91069000","wikiDataId":"Q2614192"},{"id":57522,"Name":"Ness Ziona","state_id":1367,"state_code":"M","state_name":"Central District","country_id":106,"country_code":"IL","country_name":"Israel","latitude":"31.92933000","longitude":"34.79868000","wikiDataId":"Q168162"},{"id":57523,"Name":"Netanya","state_id":1367,"state_code":"M","state_name":"Central District","country_id":106,"country_code":"IL","country_name":"Israel","latitude":"32.33291000","longitude":"34.85992000","wikiDataId":"Q192225"},{"id":57526,"Name":"Nirit","state_id":1367,"state_code":"M","state_name":"Central District","country_id":106,"country_code":"IL","country_name":"Israel","latitude":"32.14677000","longitude":"34.98622000","wikiDataId":"Q2614192"},{"id":57527,"Name":"Nof Ayalon","state_id":1367,"state_code":"M","state_name":"Central District","country_id":106,"country_code":"IL","country_name":"Israel","latitude":"31.87111000","longitude":"34.99081000","wikiDataId":"Q2614192"},{"id":57528,"Name":"Nordiyya","state_id":1367,"state_code":"M","state_name":"Central District","country_id":106,"country_code":"IL","country_name":"Israel","latitude":"32.31470000","longitude":"34.89617000","wikiDataId":"Q2920311"},{"id":57531,"Name":"Pardesiyya","state_id":1367,"state_code":"M","state_name":"Central District","country_id":106,"country_code":"IL","country_name":"Israel","latitude":"32.30577000","longitude":"34.90911000","wikiDataId":"Q1018875"},{"id":57533,"Name":"Petaẖ Tiqwa","state_id":1367,"state_code":"M","state_name":"Central District","country_id":106,"country_code":"IL","country_name":"Israel","latitude":"32.08707000","longitude":"34.88747000","wikiDataId":"Q190828"},{"id":57534,"Name":"Qalansuwa","state_id":1367,"state_code":"M","state_name":"Central District","country_id":106,"country_code":"IL","country_name":"Israel","latitude":"32.28493000","longitude":"34.98106000","wikiDataId":"Q190828"},{"id":57541,"Name":"Ra'anana","state_id":1367,"state_code":"M","state_name":"Central District","country_id":106,"country_code":"IL","country_name":"Israel","latitude":"32.18360000","longitude":"34.87386000","wikiDataId":"Q309164"},{"id":57546,"Name":"Ramla","state_id":1367,"state_code":"M","state_name":"Central District","country_id":106,"country_code":"IL","country_name":"Israel","latitude":"31.92923000","longitude":"34.86563000","wikiDataId":"Q221447"},{"id":57548,"Name":"Reẖovot","state_id":1367,"state_code":"M","state_name":"Central District","country_id":106,"country_code":"IL","country_name":"Israel","latitude":"31.89421000","longitude":"34.81199000","wikiDataId":"Q207350"},{"id":57549,"Name":"Rishon LeẔiyyon","state_id":1367,"state_code":"M","state_name":"Central District","country_id":106,"country_code":"IL","country_name":"Israel","latitude":"31.97102000","longitude":"34.78939000","wikiDataId":"Q201051"},{"id":57550,"Name":"Rosh Ha‘Ayin","state_id":1367,"state_code":"M","state_name":"Central District","country_id":106,"country_code":"IL","country_name":"Israel","latitude":"32.09556000","longitude":"34.95664000","wikiDataId":"Q168202"},{"id":57556,"Name":"Savyon","state_id":1367,"state_code":"M","state_name":"Central District","country_id":106,"country_code":"IL","country_name":"Israel","latitude":"32.04966000","longitude":"34.87770000","wikiDataId":"Q592526"},{"id":57560,"Name":"Shoham","state_id":1367,"state_code":"M","state_name":"Central District","country_id":106,"country_code":"IL","country_name":"Israel","latitude":"31.99866000","longitude":"34.94559000","wikiDataId":"Q304448"},{"id":57565,"Name":"Tel Mond","state_id":1367,"state_code":"M","state_name":"Central District","country_id":106,"country_code":"IL","country_name":"Israel","latitude":"32.24995000","longitude":"34.91737000","wikiDataId":"Q2304754"},{"id":57568,"Name":"Tirah","state_id":1367,"state_code":"M","state_name":"Central District","country_id":106,"country_code":"IL","country_name":"Israel","latitude":"32.23410000","longitude":"34.95023000","wikiDataId":"Q167594"},{"id":57573,"Name":"Yavné","state_id":1367,"state_code":"M","state_name":"Central District","country_id":106,"country_code":"IL","country_name":"Israel","latitude":"31.87808000","longitude":"34.73983000","wikiDataId":"Q167677"},{"id":57574,"Name":"Yehud","state_id":1367,"state_code":"M","state_name":"Central District","country_id":106,"country_code":"IL","country_name":"Israel","latitude":"32.03317000","longitude":"34.89091000","wikiDataId":"Q1000887"},{"id":57580,"Name":"Ẕur Moshe","state_id":1367,"state_code":"M","state_name":"Central District","country_id":106,"country_code":"IL","country_name":"Israel","latitude":"32.29819000","longitude":"34.91313000","wikiDataId":"Q2888680"}]