[{"id":52415,"Name":"Agía Foteiní","state_id":2109,"state_code":"M","state_name":"Crete Region","country_id":85,"country_code":"GR","country_name":"Greece","latitude":"35.25459000","longitude":"24.63495000","wikiDataId":"Q12872912"},{"id":52416,"Name":"Agía Galíni","state_id":2109,"state_code":"M","state_name":"Crete Region","country_id":85,"country_code":"GR","country_name":"Greece","latitude":"35.09707000","longitude":"24.68818000","wikiDataId":"Q201088"},{"id":52418,"Name":"Agía Marína","state_id":2109,"state_code":"M","state_name":"Crete Region","country_id":85,"country_code":"GR","country_name":"Greece","latitude":"35.51778000","longitude":"23.92675000","wikiDataId":"Q4692505"},{"id":52427,"Name":"Agía Varvára","state_id":2109,"state_code":"M","state_name":"Crete Region","country_id":85,"country_code":"GR","country_name":"Greece","latitude":"35.13715000","longitude":"25.00131000","wikiDataId":"Q393633"},{"id":53371,"Name":"Ágioi Déka","state_id":2109,"state_code":"M","state_name":"Crete Region","country_id":85,"country_code":"GR","country_name":"Greece","latitude":"35.06667000","longitude":"24.96667000","wikiDataId":"Q4692593"},{"id":53380,"Name":"Ágios Nikólaos","state_id":2109,"state_code":"M","state_name":"Crete Region","country_id":85,"country_code":"GR","country_name":"Greece","latitude":"35.19106000","longitude":"25.71524000","wikiDataId":"Q21555128"},{"id":52467,"Name":"Ano Arhanes","state_id":2109,"state_code":"M","state_name":"Crete Region","country_id":85,"country_code":"GR","country_name":"Greece","latitude":"35.23333000","longitude":"25.16667000","wikiDataId":"Q2466281"},{"id":52480,"Name":"Anógeia","state_id":2109,"state_code":"M","state_name":"Crete Region","country_id":85,"country_code":"GR","country_name":"Greece","latitude":"35.29084000","longitude":"24.88412000","wikiDataId":"Q567511"},{"id":52493,"Name":"Arkalochóri","state_id":2109,"state_code":"M","state_name":"Crete Region","country_id":85,"country_code":"GR","country_name":"Greece","latitude":"35.14634000","longitude":"25.26538000","wikiDataId":"Q2283009"},{"id":52512,"Name":"Asímion","state_id":2109,"state_code":"M","state_name":"Crete Region","country_id":85,"country_code":"GR","country_name":"Greece","latitude":"35.04321000","longitude":"25.09277000","wikiDataId":"Q12179786"},{"id":52517,"Name":"Atsipópoulo","state_id":2109,"state_code":"M","state_name":"Crete Region","country_id":85,"country_code":"GR","country_name":"Greece","latitude":"35.35253000","longitude":"24.43378000","wikiDataId":"Q3566843"},{"id":52530,"Name":"Chaniá","state_id":2109,"state_code":"M","state_name":"Crete Region","country_id":85,"country_code":"GR","country_name":"Greece","latitude":"35.51124000","longitude":"24.02921000","wikiDataId":"Q182299"},{"id":52544,"Name":"Chóra Sfakíon","state_id":2109,"state_code":"M","state_name":"Crete Region","country_id":85,"country_code":"GR","country_name":"Greece","latitude":"35.20176000","longitude":"24.13711000","wikiDataId":"Q1076320"},{"id":52546,"Name":"Darátsos","state_id":2109,"state_code":"M","state_name":"Crete Region","country_id":85,"country_code":"GR","country_name":"Greece","latitude":"35.49955000","longitude":"23.97488000","wikiDataId":"Q205832"},{"id":52582,"Name":"Eloúnda","state_id":2109,"state_code":"M","state_name":"Crete Region","country_id":85,"country_code":"GR","country_name":"Greece","latitude":"35.26500000","longitude":"25.72127000","wikiDataId":"Q659728"},{"id":52623,"Name":"Galatás","state_id":2109,"state_code":"M","state_name":"Crete Region","country_id":85,"country_code":"GR","country_name":"Greece","latitude":"35.49864000","longitude":"23.96341000","wikiDataId":"Q12276095"},{"id":52648,"Name":"Gázi","state_id":2109,"state_code":"M","state_name":"Crete Region","country_id":85,"country_code":"GR","country_name":"Greece","latitude":"35.32531000","longitude":"25.06694000","wikiDataId":"Q2097291"},{"id":52633,"Name":"Georgioupolis","state_id":2109,"state_code":"M","state_name":"Crete Region","country_id":85,"country_code":"GR","country_name":"Greece","latitude":"35.36225000","longitude":"24.26013000","wikiDataId":"Q15725356"},{"id":52636,"Name":"Geráni","state_id":2109,"state_code":"M","state_name":"Crete Region","country_id":85,"country_code":"GR","country_name":"Greece","latitude":"35.51721000","longitude":"23.87818000","wikiDataId":"Q5549851"},{"id":52654,"Name":"Gérgeri","state_id":2109,"state_code":"M","state_name":"Crete Region","country_id":85,"country_code":"GR","country_name":"Greece","latitude":"35.13281000","longitude":"24.94963000","wikiDataId":"Q3104044"},{"id":52641,"Name":"Goúrnes","state_id":2109,"state_code":"M","state_name":"Crete Region","country_id":85,"country_code":"GR","country_name":"Greece","latitude":"35.32626000","longitude":"25.27740000","wikiDataId":"Q12875472"},{"id":52642,"Name":"Gra Liyiá","state_id":2109,"state_code":"M","state_name":"Crete Region","country_id":85,"country_code":"GR","country_name":"Greece","latitude":"35.01467000","longitude":"25.69127000","wikiDataId":"Q12875472"},{"id":52659,"Name":"Ierápetra","state_id":2109,"state_code":"M","state_name":"Crete Region","country_id":85,"country_code":"GR","country_name":"Greece","latitude":"35.01186000","longitude":"25.74234000","wikiDataId":"Q938412"},{"id":52666,"Name":"Irákleion","state_id":2109,"state_code":"M","state_name":"Crete Region","country_id":85,"country_code":"GR","country_name":"Greece","latitude":"35.32787000","longitude":"25.14341000","wikiDataId":"Q160544"},{"id":52692,"Name":"Kalýves","state_id":2109,"state_code":"M","state_name":"Crete Region","country_id":85,"country_code":"GR","country_name":"Greece","latitude":"35.45046000","longitude":"24.17507000","wikiDataId":"Q285734"},{"id":52728,"Name":"Kastélli","state_id":2109,"state_code":"M","state_name":"Crete Region","country_id":85,"country_code":"GR","country_name":"Greece","latitude":"35.20902000","longitude":"25.33773000","wikiDataId":"Q845105"},{"id":52726,"Name":"Kastrí","state_id":2109,"state_code":"M","state_name":"Crete Region","country_id":85,"country_code":"GR","country_name":"Greece","latitude":"34.83460000","longitude":"24.08572000","wikiDataId":"Q21758160"},{"id":52806,"Name":"Káto Asítai","state_id":2109,"state_code":"M","state_name":"Crete Region","country_id":85,"country_code":"GR","country_name":"Greece","latitude":"35.20271000","longitude":"24.99827000","wikiDataId":"Q3564248"},{"id":52809,"Name":"Káto Goúves","state_id":2109,"state_code":"M","state_name":"Crete Region","country_id":85,"country_code":"GR","country_name":"Greece","latitude":"35.32934000","longitude":"25.31353000","wikiDataId":"Q12234195"},{"id":52738,"Name":"Kentrí","state_id":2109,"state_code":"M","state_name":"Crete Region","country_id":85,"country_code":"GR","country_name":"Greece","latitude":"35.03258000","longitude":"25.75280000","wikiDataId":"Q3558285"},{"id":52822,"Name":"Kíssamos","state_id":2109,"state_code":"M","state_name":"Crete Region","country_id":85,"country_code":"GR","country_name":"Greece","latitude":"35.49459000","longitude":"23.65375000","wikiDataId":"Q1021629"},{"id":52756,"Name":"Kokkíni Cháni","state_id":2109,"state_code":"M","state_name":"Crete Region","country_id":85,"country_code":"GR","country_name":"Greece","latitude":"35.32827000","longitude":"25.25810000","wikiDataId":"Q12234402"},{"id":52760,"Name":"Kolympári","state_id":2109,"state_code":"M","state_name":"Crete Region","country_id":85,"country_code":"GR","country_name":"Greece","latitude":"35.54115000","longitude":"23.77995000","wikiDataId":"Q12078328"},{"id":52787,"Name":"Kritsá","state_id":2109,"state_code":"M","state_name":"Crete Region","country_id":85,"country_code":"GR","country_name":"Greece","latitude":"35.15821000","longitude":"25.64459000","wikiDataId":"Q1384932"},{"id":52789,"Name":"Krousón","state_id":2109,"state_code":"M","state_name":"Crete Region","country_id":85,"country_code":"GR","country_name":"Greece","latitude":"35.23062000","longitude":"24.98291000","wikiDataId":"Q640658"},{"id":52855,"Name":"Limín Khersonísou","state_id":2109,"state_code":"M","state_name":"Crete Region","country_id":85,"country_code":"GR","country_name":"Greece","latitude":"35.32297000","longitude":"25.39275000","wikiDataId":"Q1014258"},{"id":52953,"Name":"Mália","state_id":2109,"state_code":"M","state_name":"Crete Region","country_id":85,"country_code":"GR","country_name":"Greece","latitude":"35.28367000","longitude":"25.46262000","wikiDataId":"Q21540690"},{"id":52948,"Name":"Moíres","state_id":2109,"state_code":"M","state_name":"Crete Region","country_id":85,"country_code":"GR","country_name":"Greece","latitude":"35.05143000","longitude":"24.87330000","wikiDataId":"Q1016694"},{"id":52939,"Name":"Mokhós","state_id":2109,"state_code":"M","state_name":"Crete Region","country_id":85,"country_code":"GR","country_name":"Greece","latitude":"35.26342000","longitude":"25.42305000","wikiDataId":"Q3859489"},{"id":52944,"Name":"Mourniés","state_id":2109,"state_code":"M","state_name":"Crete Region","country_id":85,"country_code":"GR","country_name":"Greece","latitude":"35.48228000","longitude":"24.01253000","wikiDataId":"Q3326154"},{"id":52946,"Name":"Mouzourás","state_id":2109,"state_code":"M","state_name":"Crete Region","country_id":85,"country_code":"GR","country_name":"Greece","latitude":"35.53885000","longitude":"24.15554000","wikiDataId":"Q3326154"},{"id":52999,"Name":"Néa Alikarnassós","state_id":2109,"state_code":"M","state_name":"Crete Region","country_id":85,"country_code":"GR","country_name":"Greece","latitude":"35.33977000","longitude":"25.15895000","wikiDataId":"Q1021602"},{"id":53000,"Name":"Néa Anatolí","state_id":2109,"state_code":"M","state_name":"Crete Region","country_id":85,"country_code":"GR","country_name":"Greece","latitude":"35.00920000","longitude":"25.66170000","wikiDataId":"Q1021602"},{"id":52973,"Name":"Neápoli","state_id":2109,"state_code":"M","state_name":"Crete Region","country_id":85,"country_code":"GR","country_name":"Greece","latitude":"35.25627000","longitude":"25.60415000","wikiDataId":"Q1736413"},{"id":52971,"Name":"Nerokoúros","state_id":2109,"state_code":"M","state_name":"Crete Region","country_id":85,"country_code":"GR","country_name":"Greece","latitude":"35.47587000","longitude":"24.03995000","wikiDataId":"Q12249495"},{"id":52986,"Name":"Nomós Irakleíou","state_id":2109,"state_code":"M","state_name":"Crete Region","country_id":85,"country_code":"GR","country_name":"Greece","latitude":"35.32969000","longitude":"25.12985000","wikiDataId":"Q19896769"},{"id":52991,"Name":"Nomós Rethýmnis","state_id":2109,"state_code":"M","state_name":"Crete Region","country_id":85,"country_code":"GR","country_name":"Greece","latitude":"35.25000000","longitude":"24.58333000","wikiDataId":"Q17317934"},{"id":53079,"Name":"Palaióchora","state_id":2109,"state_code":"M","state_name":"Crete Region","country_id":85,"country_code":"GR","country_name":"Greece","latitude":"35.23128000","longitude":"23.68185000","wikiDataId":"Q2047708"},{"id":53083,"Name":"Palekastro","state_id":2109,"state_code":"M","state_name":"Crete Region","country_id":85,"country_code":"GR","country_name":"Greece","latitude":"35.19793000","longitude":"26.25429000","wikiDataId":"Q941860"},{"id":53163,"Name":"Pánormos","state_id":2109,"state_code":"M","state_name":"Crete Region","country_id":85,"country_code":"GR","country_name":"Greece","latitude":"35.41815000","longitude":"24.69091000","wikiDataId":"Q238648"},{"id":53176,"Name":"Pérama","state_id":2109,"state_code":"M","state_name":"Crete Region","country_id":85,"country_code":"GR","country_name":"Greece","latitude":"35.37030000","longitude":"24.70345000","wikiDataId":"Q2070110"},{"id":53114,"Name":"Perivólia","state_id":2109,"state_code":"M","state_name":"Crete Region","country_id":85,"country_code":"GR","country_name":"Greece","latitude":"35.48491000","longitude":"23.99421000","wikiDataId":"Q827238"},{"id":53124,"Name":"Pithári","state_id":2109,"state_code":"M","state_name":"Crete Region","country_id":85,"country_code":"GR","country_name":"Greece","latitude":"35.51672000","longitude":"24.08653000","wikiDataId":"Q58976"},{"id":53142,"Name":"Profítis Ilías","state_id":2109,"state_code":"M","state_name":"Crete Region","country_id":85,"country_code":"GR","country_name":"Greece","latitude":"35.20555000","longitude":"25.09985000","wikiDataId":"Q12198148"},{"id":53185,"Name":"Pýrgos","state_id":2109,"state_code":"M","state_name":"Crete Region","country_id":85,"country_code":"GR","country_name":"Greece","latitude":"35.00611000","longitude":"25.15191000","wikiDataId":"Q12884059"},{"id":53187,"Name":"Rethymno","state_id":2109,"state_code":"M","state_name":"Crete Region","country_id":85,"country_code":"GR","country_name":"Greece","latitude":"35.36555000","longitude":"24.48232000","wikiDataId":"Q200908"},{"id":53210,"Name":"Schísma Eloúndas","state_id":2109,"state_code":"M","state_name":"Crete Region","country_id":85,"country_code":"GR","country_name":"Greece","latitude":"35.25757000","longitude":"25.72796000","wikiDataId":"Q1227707"},{"id":53272,"Name":"Sísion","state_id":2109,"state_code":"M","state_name":"Crete Region","country_id":85,"country_code":"GR","country_name":"Greece","latitude":"35.30770000","longitude":"25.52021000","wikiDataId":"Q3565823"},{"id":53217,"Name":"Sitia","state_id":2109,"state_code":"M","state_name":"Crete Region","country_id":85,"country_code":"GR","country_name":"Greece","latitude":"35.20783000","longitude":"26.10467000","wikiDataId":"Q985549"},{"id":53219,"Name":"Skalánion","state_id":2109,"state_code":"M","state_name":"Crete Region","country_id":85,"country_code":"GR","country_name":"Greece","latitude":"35.28262000","longitude":"25.18684000","wikiDataId":"Q16322951"},{"id":53237,"Name":"Soúda","state_id":2109,"state_code":"M","state_name":"Crete Region","country_id":85,"country_code":"GR","country_name":"Greece","latitude":"35.48717000","longitude":"24.07344000","wikiDataId":"Q544242"},{"id":53244,"Name":"Stalís","state_id":2109,"state_code":"M","state_name":"Crete Region","country_id":85,"country_code":"GR","country_name":"Greece","latitude":"35.29257000","longitude":"25.43292000","wikiDataId":"Q368275"},{"id":53281,"Name":"Thrapsanón","state_id":2109,"state_code":"M","state_name":"Crete Region","country_id":85,"country_code":"GR","country_name":"Greece","latitude":"35.18798000","longitude":"25.28091000","wikiDataId":"Q1142680"},{"id":53302,"Name":"Tílisos","state_id":2109,"state_code":"M","state_name":"Crete Region","country_id":85,"country_code":"GR","country_name":"Greece","latitude":"35.29607000","longitude":"25.01587000","wikiDataId":"Q2707725"},{"id":53296,"Name":"Tsikalariá","state_id":2109,"state_code":"M","state_name":"Crete Region","country_id":85,"country_code":"GR","country_name":"Greece","latitude":"35.47623000","longitude":"24.06274000","wikiDataId":"Q2637021"},{"id":53299,"Name":"Tympáki","state_id":2109,"state_code":"M","state_name":"Crete Region","country_id":85,"country_code":"GR","country_name":"Greece","latitude":"35.07286000","longitude":"24.76851000","wikiDataId":"Q2462767"},{"id":53321,"Name":"Violí Charáki","state_id":2109,"state_code":"M","state_name":"Crete Region","country_id":85,"country_code":"GR","country_name":"Greece","latitude":"35.35864000","longitude":"24.43857000","wikiDataId":"Q213916"},{"id":53337,"Name":"Vrýses","state_id":2109,"state_code":"M","state_name":"Crete Region","country_id":85,"country_code":"GR","country_name":"Greece","latitude":"35.37585000","longitude":"24.20109000","wikiDataId":"Q3563193"},{"id":53359,"Name":"Zarós","state_id":2109,"state_code":"M","state_name":"Crete Region","country_id":85,"country_code":"GR","country_name":"Greece","latitude":"35.13030000","longitude":"24.90412000","wikiDataId":"Q1142647"},{"id":53364,"Name":"Zonianá","state_id":2109,"state_code":"M","state_name":"Crete Region","country_id":85,"country_code":"GR","country_name":"Greece","latitude":"35.29502000","longitude":"24.82944000","wikiDataId":"Q219951"}]