[{"id":52222,"Name":"Bansang","state_id":2669,"state_code":"M","state_name":"Central River Division","country_id":80,"country_code":"GM","country_name":"Gambia The","latitude":"13.43333000","longitude":"-14.65000000","wikiDataId":"Q806951"},{"id":52228,"Name":"Brikama Nding","state_id":2669,"state_code":"M","state_name":"Central River Division","country_id":80,"country_code":"GM","country_name":"Gambia The","latitude":"13.53333000","longitude":"-14.93333000","wikiDataId":"Q916988"},{"id":52233,"Name":"Dankunku","state_id":2669,"state_code":"M","state_name":"Central River Division","country_id":80,"country_code":"GM","country_name":"Gambia The","latitude":"13.56667000","longitude":"-15.31667000","wikiDataId":"Q1164277"},{"id":52236,"Name":"Denton","state_id":2669,"state_code":"M","state_name":"Central River Division","country_id":80,"country_code":"GM","country_name":"Gambia The","latitude":"13.50000000","longitude":"-14.93333000","wikiDataId":"Q1185218"},{"id":52246,"Name":"Fulladu West","state_id":2669,"state_code":"M","state_name":"Central River Division","country_id":80,"country_code":"GM","country_name":"Gambia The","latitude":"13.50000000","longitude":"-14.75000000","wikiDataId":"Q1473729"},{"id":52247,"Name":"Galleh Manda","state_id":2669,"state_code":"M","state_name":"Central River Division","country_id":80,"country_code":"GM","country_name":"Gambia The","latitude":"13.43333000","longitude":"-14.78333000","wikiDataId":"Q1492266"},{"id":52248,"Name":"Georgetown","state_id":2669,"state_code":"M","state_name":"Central River Division","country_id":80,"country_code":"GM","country_name":"Gambia The","latitude":"13.54039000","longitude":"-14.76374000","wikiDataId":"Q1002786"},{"id":52252,"Name":"Jakhaly","state_id":2669,"state_code":"M","state_name":"Central River Division","country_id":80,"country_code":"GM","country_name":"Gambia The","latitude":"13.55000000","longitude":"-14.96667000","wikiDataId":"Q1678844"},{"id":52254,"Name":"Janjanbureh","state_id":2669,"state_code":"M","state_name":"Central River Division","country_id":80,"country_code":"GM","country_name":"Gambia The","latitude":"13.53564000","longitude":"-14.76515000","wikiDataId":"Q1669376"},{"id":52258,"Name":"Jarreng","state_id":2669,"state_code":"M","state_name":"Central River Division","country_id":80,"country_code":"GM","country_name":"Gambia The","latitude":"13.61667000","longitude":"-15.18333000","wikiDataId":"Q1572209"},{"id":52265,"Name":"Karantaba","state_id":2669,"state_code":"M","state_name":"Central River Division","country_id":80,"country_code":"GM","country_name":"Gambia The","latitude":"13.66667000","longitude":"-15.03333000","wikiDataId":"Q1728955"},{"id":52266,"Name":"Kass Wollof","state_id":2669,"state_code":"M","state_name":"Central River Division","country_id":80,"country_code":"GM","country_name":"Gambia The","latitude":"13.78333000","longitude":"-14.93333000","wikiDataId":"Q1728955"},{"id":52280,"Name":"Kuntaur","state_id":2669,"state_code":"M","state_name":"Central River Division","country_id":80,"country_code":"GM","country_name":"Gambia The","latitude":"13.67085000","longitude":"-14.88977000","wikiDataId":"Q1188137"},{"id":52281,"Name":"Kunting","state_id":2669,"state_code":"M","state_name":"Central River Division","country_id":80,"country_code":"GM","country_name":"Gambia The","latitude":"13.53333000","longitude":"-14.66667000","wikiDataId":"Q1319580"},{"id":52285,"Name":"Lower Saloum","state_id":2669,"state_code":"M","state_name":"Central River Division","country_id":80,"country_code":"GM","country_name":"Gambia The","latitude":"13.71667000","longitude":"-15.36667000","wikiDataId":"Q1572755"},{"id":52287,"Name":"Niamina East District","state_id":2669,"state_code":"M","state_name":"Central River Division","country_id":80,"country_code":"GM","country_name":"Gambia The","latitude":"13.63333000","longitude":"-15.08333000","wikiDataId":"Q1626738"},{"id":52288,"Name":"Niamina West District","state_id":2669,"state_code":"M","state_name":"Central River Division","country_id":80,"country_code":"GM","country_name":"Gambia The","latitude":"13.58333000","longitude":"-15.25000000","wikiDataId":"Q1572232"},{"id":52289,"Name":"Niani","state_id":2669,"state_code":"M","state_name":"Central River Division","country_id":80,"country_code":"GM","country_name":"Gambia The","latitude":"13.66667000","longitude":"-14.91667000","wikiDataId":"Q1572266"},{"id":52290,"Name":"Nianija District","state_id":2669,"state_code":"M","state_name":"Central River Division","country_id":80,"country_code":"GM","country_name":"Gambia The","latitude":"13.72900000","longitude":"-15.09100000","wikiDataId":"Q1572202"},{"id":52294,"Name":"Pateh Sam","state_id":2669,"state_code":"M","state_name":"Central River Division","country_id":80,"country_code":"GM","country_name":"Gambia The","latitude":"13.61667000","longitude":"-15.06667000","wikiDataId":"Q2056669"},{"id":52298,"Name":"Sami","state_id":2669,"state_code":"M","state_name":"Central River Division","country_id":80,"country_code":"GM","country_name":"Gambia The","latitude":"13.58333000","longitude":"-15.20000000","wikiDataId":"Q1694805"},{"id":52299,"Name":"Sami District","state_id":2669,"state_code":"M","state_name":"Central River Division","country_id":80,"country_code":"GM","country_name":"Gambia The","latitude":"13.58333000","longitude":"-14.58333000","wikiDataId":"Q728332"},{"id":52303,"Name":"Saruja","state_id":2669,"state_code":"M","state_name":"Central River Division","country_id":80,"country_code":"GM","country_name":"Gambia The","latitude":"13.55000000","longitude":"-14.91667000","wikiDataId":"Q1455939"},{"id":52309,"Name":"Sukuta","state_id":2669,"state_code":"M","state_name":"Central River Division","country_id":80,"country_code":"GM","country_name":"Gambia The","latitude":"13.61667000","longitude":"-14.91667000","wikiDataId":"Q2364187"},{"id":52317,"Name":"Upper Saloum","state_id":2669,"state_code":"M","state_name":"Central River Division","country_id":80,"country_code":"GM","country_name":"Gambia The","latitude":"13.75000000","longitude":"-15.20000000","wikiDataId":"Q1554897"},{"id":52318,"Name":"Wassu","state_id":2669,"state_code":"M","state_name":"Central River Division","country_id":80,"country_code":"GM","country_name":"Gambia The","latitude":"13.69094000","longitude":"-14.87884000","wikiDataId":"Q2552196"}]