[{"id":850,"Name":"Departamento de Capital","state_id":3646,"state_code":"M","state_name":"Mendoza","country_id":11,"country_code":"AR","country_name":"Argentina","latitude":"-32.88469000","longitude":"-68.85826000","wikiDataId":"Q1190324"},{"id":889,"Name":"Departamento de General Alvear","state_id":3646,"state_code":"M","state_name":"Mendoza","country_id":11,"country_code":"AR","country_name":"Argentina","latitude":"-35.16667000","longitude":"-67.33333000","wikiDataId":"Q691062"},{"id":898,"Name":"Departamento de Godoy Cruz","state_id":3646,"state_code":"M","state_name":"Mendoza","country_id":11,"country_code":"AR","country_name":"Argentina","latitude":"-32.93333000","longitude":"-68.86667000","wikiDataId":"Q1190576"},{"id":905,"Name":"Departamento de Guaymallén","state_id":3646,"state_code":"M","state_name":"Mendoza","country_id":11,"country_code":"AR","country_name":"Argentina","latitude":"-32.88333000","longitude":"-68.70000000","wikiDataId":"Q512660"},{"id":919,"Name":"Departamento de La Paz","state_id":3646,"state_code":"M","state_name":"Mendoza","country_id":11,"country_code":"AR","country_name":"Argentina","latitude":"-33.66667000","longitude":"-67.25000000","wikiDataId":"Q584369"},{"id":924,"Name":"Departamento de Las Heras","state_id":3646,"state_code":"M","state_name":"Mendoza","country_id":11,"country_code":"AR","country_name":"Argentina","latitude":"-32.50000000","longitude":"-69.50000000","wikiDataId":"Q1190729"},{"id":926,"Name":"Departamento de Lavalle","state_id":3646,"state_code":"M","state_name":"Mendoza","country_id":11,"country_code":"AR","country_name":"Argentina","latitude":"-32.50000000","longitude":"-68.00000000","wikiDataId":"Q426743"},{"id":932,"Name":"Departamento de Luján","state_id":3646,"state_code":"M","state_name":"Mendoza","country_id":11,"country_code":"AR","country_name":"Argentina","latitude":"-33.00000000","longitude":"-69.33333000","wikiDataId":"Q972194"},{"id":936,"Name":"Departamento de Maipú","state_id":3646,"state_code":"M","state_name":"Mendoza","country_id":11,"country_code":"AR","country_name":"Argentina","latitude":"-33.00000000","longitude":"-68.58333000","wikiDataId":"Q588032"},{"id":938,"Name":"Departamento de Malargüe","state_id":3646,"state_code":"M","state_name":"Mendoza","country_id":11,"country_code":"AR","country_name":"Argentina","latitude":"-36.25000000","longitude":"-69.25000000","wikiDataId":"Q588032"},{"id":967,"Name":"Departamento de Rivadavia","state_id":3646,"state_code":"M","state_name":"Mendoza","country_id":11,"country_code":"AR","country_name":"Argentina","latitude":"-33.18000000","longitude":"-68.46600000","wikiDataId":"Q613945"},{"id":983,"Name":"Departamento de San Carlos","state_id":3646,"state_code":"M","state_name":"Mendoza","country_id":11,"country_code":"AR","country_name":"Argentina","latitude":"-34.00000000","longitude":"-69.00000000","wikiDataId":"Q1191066"},{"id":999,"Name":"Departamento de San Martín","state_id":3646,"state_code":"M","state_name":"Mendoza","country_id":11,"country_code":"AR","country_name":"Argentina","latitude":"-32.83730000","longitude":"-68.24922000","wikiDataId":"Q376089"},{"id":1003,"Name":"Departamento de San Rafael","state_id":3646,"state_code":"M","state_name":"Mendoza","country_id":11,"country_code":"AR","country_name":"Argentina","latitude":"-35.00000000","longitude":"-68.83333000","wikiDataId":"Q2004531"},{"id":1008,"Name":"Departamento de Santa Rosa","state_id":3646,"state_code":"M","state_name":"Mendoza","country_id":11,"country_code":"AR","country_name":"Argentina","latitude":"-33.50000000","longitude":"-68.00000000","wikiDataId":"Q600622"},{"id":1026,"Name":"Departamento de Tunuyán","state_id":3646,"state_code":"M","state_name":"Mendoza","country_id":11,"country_code":"AR","country_name":"Argentina","latitude":"-33.66667000","longitude":"-69.50000000","wikiDataId":"Q1063348"},{"id":1027,"Name":"Departamento de Tupungato","state_id":3646,"state_code":"M","state_name":"Mendoza","country_id":11,"country_code":"AR","country_name":"Argentina","latitude":"-33.25000000","longitude":"-69.25000000","wikiDataId":"Q2317932"},{"id":1122,"Name":"Godoy Cruz","state_id":3646,"state_code":"M","state_name":"Mendoza","country_id":11,"country_code":"AR","country_name":"Argentina","latitude":"-32.92863000","longitude":"-68.83510000","wikiDataId":"Q1189982"},{"id":1219,"Name":"Las Heras","state_id":3646,"state_code":"M","state_name":"Mendoza","country_id":11,"country_code":"AR","country_name":"Argentina","latitude":"-32.85273000","longitude":"-68.82837000","wikiDataId":"Q2707626"},{"id":1278,"Name":"Mendoza","state_id":3646,"state_code":"M","state_name":"Mendoza","country_id":11,"country_code":"AR","country_name":"Argentina","latitude":"-32.89084000","longitude":"-68.82717000","wikiDataId":"Q44237"},{"id":1440,"Name":"San Martín","state_id":3646,"state_code":"M","state_name":"Mendoza","country_id":11,"country_code":"AR","country_name":"Argentina","latitude":"-33.08103000","longitude":"-68.46814000","wikiDataId":"Q1806934"},{"id":1448,"Name":"San Rafael","state_id":3646,"state_code":"M","state_name":"Mendoza","country_id":11,"country_code":"AR","country_name":"Argentina","latitude":"-34.61772000","longitude":"-68.33007000","wikiDataId":"Q23044"}]