[{"id":63140,"Name":"Al Ḩamrā’","state_id":962,"state_code":"MA","state_name":"Mafraq Governorate","country_id":111,"country_code":"JO","country_name":"Jordan","latitude":"32.44017000","longitude":"36.15265000","wikiDataId":"Q3505791"},{"id":63171,"Name":"Mafraq","state_id":962,"state_code":"MA","state_name":"Mafraq Governorate","country_id":111,"country_code":"JO","country_name":"Jordan","latitude":"32.34289000","longitude":"36.20804000","wikiDataId":"Q276747"},{"id":63179,"Name":"Rehab","state_id":962,"state_code":"MA","state_name":"Mafraq Governorate","country_id":111,"country_code":"JO","country_name":"Jordan","latitude":"32.32341000","longitude":"36.09087000","wikiDataId":"Q31572"},{"id":63180,"Name":"Rukban","state_id":962,"state_code":"MA","state_name":"Mafraq Governorate","country_id":111,"country_code":"JO","country_name":"Jordan","latitude":"33.31405000","longitude":"38.70342000","wikiDataId":"Q31572"},{"id":63198,"Name":"Şabḩā","state_id":962,"state_code":"MA","state_name":"Mafraq Governorate","country_id":111,"country_code":"JO","country_name":"Jordan","latitude":"32.32696000","longitude":"36.50159000","wikiDataId":"Q148062"},{"id":63191,"Name":"Umm al Qiţţayn","state_id":962,"state_code":"MA","state_name":"Mafraq Governorate","country_id":111,"country_code":"JO","country_name":"Jordan","latitude":"32.31449000","longitude":"36.62826000","wikiDataId":"Q131955"}]