[{"id":131405,"Name":"Bindura","state_id":1955,"state_code":"MC","state_name":"Mashonaland Central Province","country_id":247,"country_code":"ZW","country_name":"Zimbabwe","latitude":"-17.30192000","longitude":"31.33056000","wikiDataId":"Q863727"},{"id":131406,"Name":"Bindura District","state_id":1955,"state_code":"MC","state_name":"Mashonaland Central Province","country_id":247,"country_code":"ZW","country_name":"Zimbabwe","latitude":"-17.21230000","longitude":"31.30300000","wikiDataId":"Q863727"},{"id":131412,"Name":"Centenary","state_id":1955,"state_code":"MC","state_name":"Mashonaland Central Province","country_id":247,"country_code":"ZW","country_name":"Zimbabwe","latitude":"-16.72289000","longitude":"31.11462000","wikiDataId":"Q428532"},{"id":131413,"Name":"Centenary District","state_id":1955,"state_code":"MC","state_name":"Mashonaland Central Province","country_id":247,"country_code":"ZW","country_name":"Zimbabwe","latitude":"-16.41667000","longitude":"31.16667000","wikiDataId":"Q428532"},{"id":131428,"Name":"Concession","state_id":1955,"state_code":"MC","state_name":"Mashonaland Central Province","country_id":247,"country_code":"ZW","country_name":"Zimbabwe","latitude":"-17.38333000","longitude":"30.95000000","wikiDataId":"Q5158594"},{"id":131434,"Name":"Glendale","state_id":1955,"state_code":"MC","state_name":"Mashonaland Central Province","country_id":247,"country_code":"ZW","country_name":"Zimbabwe","latitude":"-17.35514000","longitude":"31.06718000","wikiDataId":"Q31917291"},{"id":131437,"Name":"Guruve District","state_id":1955,"state_code":"MC","state_name":"Mashonaland Central Province","country_id":247,"country_code":"ZW","country_name":"Zimbabwe","latitude":"-16.37206000","longitude":"30.60607000","wikiDataId":"Q3756018"},{"id":131472,"Name":"Mazowe","state_id":1955,"state_code":"MC","state_name":"Mashonaland Central Province","country_id":247,"country_code":"ZW","country_name":"Zimbabwe","latitude":"-17.50404000","longitude":"30.97388000","wikiDataId":"Q6798645"},{"id":131473,"Name":"Mazowe District","state_id":1955,"state_code":"MC","state_name":"Mashonaland Central Province","country_id":247,"country_code":"ZW","country_name":"Zimbabwe","latitude":"-17.28080000","longitude":"30.93231000","wikiDataId":"Q1756321"},{"id":131476,"Name":"Mount Darwin","state_id":1955,"state_code":"MC","state_name":"Mashonaland Central Province","country_id":247,"country_code":"ZW","country_name":"Zimbabwe","latitude":"-16.77251000","longitude":"31.58381000","wikiDataId":"Q127792"},{"id":131485,"Name":"Mvurwi","state_id":1955,"state_code":"MC","state_name":"Mashonaland Central Province","country_id":247,"country_code":"ZW","country_name":"Zimbabwe","latitude":"-17.03333000","longitude":"30.85000000","wikiDataId":"Q6944595"},{"id":131498,"Name":"Rushinga District","state_id":1955,"state_code":"MC","state_name":"Mashonaland Central Province","country_id":247,"country_code":"ZW","country_name":"Zimbabwe","latitude":"-16.60792000","longitude":"32.31434000","wikiDataId":"Q991725"},{"id":131500,"Name":"Shamva","state_id":1955,"state_code":"MC","state_name":"Mashonaland Central Province","country_id":247,"country_code":"ZW","country_name":"Zimbabwe","latitude":"-17.31159000","longitude":"31.57561000","wikiDataId":"Q606345"},{"id":131501,"Name":"Shamva District","state_id":1955,"state_code":"MC","state_name":"Mashonaland Central Province","country_id":247,"country_code":"ZW","country_name":"Zimbabwe","latitude":"-17.12366000","longitude":"31.64146000","wikiDataId":"Q606345"}]