[{"id":31903,"Name":"Abanilla","state_id":1176,"state_code":"MC","state_name":"Murcia","country_id":207,"country_code":"ES","country_name":"Spain","latitude":"38.20537000","longitude":"-1.04153000","wikiDataId":"Q1635711"},{"id":31905,"Name":"Abarán","state_id":1176,"state_code":"MC","state_name":"Murcia","country_id":207,"country_code":"ES","country_name":"Spain","latitude":"38.20551000","longitude":"-1.39907000","wikiDataId":"Q305593"},{"id":38574,"Name":"Águilas","state_id":1176,"state_code":"MC","state_name":"Murcia","country_id":207,"country_code":"ES","country_name":"Spain","latitude":"37.40630000","longitude":"-1.58289000","wikiDataId":"Q249941"},{"id":32057,"Name":"Albudeite","state_id":1176,"state_code":"MC","state_name":"Murcia","country_id":207,"country_code":"ES","country_name":"Spain","latitude":"38.02895000","longitude":"-1.38664000","wikiDataId":"Q1404671"},{"id":32084,"Name":"Alcantarilla","state_id":1176,"state_code":"MC","state_name":"Murcia","country_id":207,"country_code":"ES","country_name":"Spain","latitude":"37.96939000","longitude":"-1.21714000","wikiDataId":"Q1770483"},{"id":32182,"Name":"Aledo","state_id":1176,"state_code":"MC","state_name":"Murcia","country_id":207,"country_code":"ES","country_name":"Spain","latitude":"37.79341000","longitude":"-1.57356000","wikiDataId":"Q23988780"},{"id":32229,"Name":"Alguazas","state_id":1176,"state_code":"MC","state_name":"Murcia","country_id":207,"country_code":"ES","country_name":"Spain","latitude":"38.05356000","longitude":"-1.25051000","wikiDataId":"Q1770951"},{"id":32236,"Name":"Alhama de Murcia","state_id":1176,"state_code":"MC","state_name":"Murcia","country_id":207,"country_code":"ES","country_name":"Spain","latitude":"37.85103000","longitude":"-1.42507000","wikiDataId":"Q954556"},{"id":32430,"Name":"Archena","state_id":1176,"state_code":"MC","state_name":"Murcia","country_id":207,"country_code":"ES","country_name":"Spain","latitude":"38.11631000","longitude":"-1.30043000","wikiDataId":"Q632621"},{"id":32546,"Name":"Atamaría","state_id":1176,"state_code":"MC","state_name":"Murcia","country_id":207,"country_code":"ES","country_name":"Spain","latitude":"37.59989000","longitude":"-0.80682000","wikiDataId":"Q31912792"},{"id":32677,"Name":"Barrio de la Concepción","state_id":1176,"state_code":"MC","state_name":"Murcia","country_id":207,"country_code":"ES","country_name":"Spain","latitude":"37.60000000","longitude":"-1.00000000","wikiDataId":"Q628122"},{"id":32800,"Name":"Beniel","state_id":1176,"state_code":"MC","state_name":"Murcia","country_id":207,"country_code":"ES","country_name":"Spain","latitude":"38.04636000","longitude":"-1.00233000","wikiDataId":"Q23987814"},{"id":32905,"Name":"Blanca","state_id":1176,"state_code":"MC","state_name":"Murcia","country_id":207,"country_code":"ES","country_name":"Spain","latitude":"38.17910000","longitude":"-1.37473000","wikiDataId":"Q833428"},{"id":33018,"Name":"Bullas","state_id":1176,"state_code":"MC","state_name":"Murcia","country_id":207,"country_code":"ES","country_name":"Spain","latitude":"38.04667000","longitude":"-1.67227000","wikiDataId":"Q986086"},{"id":33131,"Name":"Calasparra","state_id":1176,"state_code":"MC","state_name":"Murcia","country_id":207,"country_code":"ES","country_name":"Spain","latitude":"38.22997000","longitude":"-1.69986000","wikiDataId":"Q1313139"},{"id":33211,"Name":"Campos del Río","state_id":1176,"state_code":"MC","state_name":"Murcia","country_id":207,"country_code":"ES","country_name":"Spain","latitude":"38.03966000","longitude":"-1.35306000","wikiDataId":"Q1648520"},{"id":33277,"Name":"Caravaca","state_id":1176,"state_code":"MC","state_name":"Murcia","country_id":207,"country_code":"ES","country_name":"Spain","latitude":"38.10558000","longitude":"-1.86343000","wikiDataId":"Q23986652"},{"id":33336,"Name":"Cartagena","state_id":1176,"state_code":"MC","state_name":"Murcia","country_id":207,"country_code":"ES","country_name":"Spain","latitude":"37.60512000","longitude":"-0.98623000","wikiDataId":"Q162615"},{"id":33560,"Name":"Cehegín","state_id":1176,"state_code":"MC","state_name":"Murcia","country_id":207,"country_code":"ES","country_name":"Spain","latitude":"38.09242000","longitude":"-1.79850000","wikiDataId":"Q1757489"},{"id":33610,"Name":"Ceuti","state_id":1176,"state_code":"MC","state_name":"Murcia","country_id":207,"country_code":"ES","country_name":"Spain","latitude":"38.07859000","longitude":"-1.27467000","wikiDataId":"Q23986853"},{"id":33659,"Name":"Cieza","state_id":1176,"state_code":"MC","state_name":"Murcia","country_id":207,"country_code":"ES","country_name":"Spain","latitude":"38.23998000","longitude":"-1.41987000","wikiDataId":"Q1751930"},{"id":33706,"Name":"Cobatillas","state_id":1176,"state_code":"MC","state_name":"Murcia","country_id":207,"country_code":"ES","country_name":"Spain","latitude":"38.05545000","longitude":"-1.07683000","wikiDataId":"Q767222"},{"id":34009,"Name":"El Plan","state_id":1176,"state_code":"MC","state_name":"Murcia","country_id":207,"country_code":"ES","country_name":"Spain","latitude":"37.65000000","longitude":"-1.01667000","wikiDataId":"Q23993878"},{"id":34104,"Name":"Esparragal","state_id":1176,"state_code":"MC","state_name":"Murcia","country_id":207,"country_code":"ES","country_name":"Spain","latitude":"38.03333000","longitude":"-1.08333000","wikiDataId":"Q577501"},{"id":34231,"Name":"Fortuna","state_id":1176,"state_code":"MC","state_name":"Murcia","country_id":207,"country_code":"ES","country_name":"Spain","latitude":"38.18140000","longitude":"-1.12590000","wikiDataId":"Q1768071"},{"id":34308,"Name":"Fuente-Álamo de Murcia","state_id":1176,"state_code":"MC","state_name":"Murcia","country_id":207,"country_code":"ES","country_name":"Spain","latitude":"37.72389000","longitude":"-1.16972000","wikiDataId":"Q23985956"},{"id":34828,"Name":"Jumilla","state_id":1176,"state_code":"MC","state_name":"Murcia","country_id":207,"country_code":"ES","country_name":"Spain","latitude":"38.47917000","longitude":"-1.32500000","wikiDataId":"Q917173"},{"id":34893,"Name":"La Manga del Mar Menor","state_id":1176,"state_code":"MC","state_name":"Murcia","country_id":207,"country_code":"ES","country_name":"Spain","latitude":"37.64129000","longitude":"-0.71651000","wikiDataId":"Q13148"},{"id":34931,"Name":"La Torrecilla","state_id":1176,"state_code":"MC","state_name":"Murcia","country_id":207,"country_code":"ES","country_name":"Spain","latitude":"37.62363000","longitude":"-1.72785000","wikiDataId":"Q948677"},{"id":34932,"Name":"La Unión","state_id":1176,"state_code":"MC","state_name":"Murcia","country_id":207,"country_code":"ES","country_name":"Spain","latitude":"37.61915000","longitude":"-0.87799000","wikiDataId":"Q1228759"},{"id":34993,"Name":"Las Torres de Cotillas","state_id":1176,"state_code":"MC","state_name":"Murcia","country_id":207,"country_code":"ES","country_name":"Spain","latitude":"38.02822000","longitude":"-1.24188000","wikiDataId":"Q762427"},{"id":35046,"Name":"Librilla","state_id":1176,"state_code":"MC","state_name":"Murcia","country_id":207,"country_code":"ES","country_name":"Spain","latitude":"37.88642000","longitude":"-1.35557000","wikiDataId":"Q1010250"},{"id":35092,"Name":"Lo Pagán","state_id":1176,"state_code":"MC","state_name":"Murcia","country_id":207,"country_code":"ES","country_name":"Spain","latitude":"37.81761000","longitude":"-0.78832000","wikiDataId":"Q185409"},{"id":35113,"Name":"Lorca","state_id":1176,"state_code":"MC","state_name":"Murcia","country_id":207,"country_code":"ES","country_name":"Spain","latitude":"37.67119000","longitude":"-1.70170000","wikiDataId":"Q24012545"},{"id":35115,"Name":"Lorquí","state_id":1176,"state_code":"MC","state_name":"Murcia","country_id":207,"country_code":"ES","country_name":"Spain","latitude":"38.08261000","longitude":"-1.25103000","wikiDataId":"Q1982966"},{"id":35116,"Name":"Los Alcázares","state_id":1176,"state_code":"MC","state_name":"Murcia","country_id":207,"country_code":"ES","country_name":"Spain","latitude":"37.74425000","longitude":"-0.85041000","wikiDataId":"Q1982975"},{"id":35121,"Name":"Los Gabatos","state_id":1176,"state_code":"MC","state_name":"Murcia","country_id":207,"country_code":"ES","country_name":"Spain","latitude":"37.63333000","longitude":"-1.00000000","wikiDataId":"Q1443867"},{"id":35125,"Name":"Los Martínez","state_id":1176,"state_code":"MC","state_name":"Murcia","country_id":207,"country_code":"ES","country_name":"Spain","latitude":"37.81841000","longitude":"-1.07880000","wikiDataId":"Q366948"},{"id":35356,"Name":"Mazarrón","state_id":1176,"state_code":"MC","state_name":"Murcia","country_id":207,"country_code":"ES","country_name":"Spain","latitude":"37.59920000","longitude":"-1.31493000","wikiDataId":"Q913277"},{"id":35478,"Name":"Molina de Segura","state_id":1176,"state_code":"MC","state_name":"Murcia","country_id":207,"country_code":"ES","country_name":"Spain","latitude":"38.05456000","longitude":"-1.20763000","wikiDataId":"Q917883"},{"id":35618,"Name":"Moratalla","state_id":1176,"state_code":"MC","state_name":"Murcia","country_id":207,"country_code":"ES","country_name":"Spain","latitude":"38.18928000","longitude":"-1.89183000","wikiDataId":"Q23983215"},{"id":35661,"Name":"Mula","state_id":1176,"state_code":"MC","state_name":"Murcia","country_id":207,"country_code":"ES","country_name":"Spain","latitude":"38.04095000","longitude":"-1.49014000","wikiDataId":"Q512940"},{"id":35671,"Name":"Murcia","state_id":1176,"state_code":"MC","state_name":"Murcia","country_id":207,"country_code":"ES","country_name":"Spain","latitude":"37.98662000","longitude":"-1.14146000","wikiDataId":"Q12225"},{"id":35871,"Name":"Ojós","state_id":1176,"state_code":"MC","state_name":"Murcia","country_id":207,"country_code":"ES","country_name":"Spain","latitude":"38.14700000","longitude":"-1.34261000","wikiDataId":"Q944160"},{"id":36245,"Name":"Pliego","state_id":1176,"state_code":"MC","state_name":"Murcia","country_id":207,"country_code":"ES","country_name":"Spain","latitude":"37.98946000","longitude":"-1.50444000","wikiDataId":"Q1228773"},{"id":36445,"Name":"Puerto Lumbreras","state_id":1176,"state_code":"MC","state_name":"Murcia","country_id":207,"country_code":"ES","country_name":"Spain","latitude":"37.56329000","longitude":"-1.80974000","wikiDataId":"Q613784"},{"id":36621,"Name":"Ricote","state_id":1176,"state_code":"MC","state_name":"Murcia","country_id":207,"country_code":"ES","country_name":"Spain","latitude":"38.15338000","longitude":"-1.36557000","wikiDataId":"Q582038"},{"id":36840,"Name":"San Javier","state_id":1176,"state_code":"MC","state_name":"Murcia","country_id":207,"country_code":"ES","country_name":"Spain","latitude":"37.80626000","longitude":"-0.83736000","wikiDataId":"Q23980292"},{"id":36910,"Name":"San Pedro del Pinatar","state_id":1176,"state_code":"MC","state_name":"Murcia","country_id":207,"country_code":"ES","country_name":"Spain","latitude":"37.83568000","longitude":"-0.79102000","wikiDataId":"Q1630369"},{"id":36945,"Name":"Sangonera la Verde","state_id":1176,"state_code":"MC","state_name":"Murcia","country_id":207,"country_code":"ES","country_name":"Spain","latitude":"37.92862000","longitude":"-1.20794000","wikiDataId":"Q970554"},{"id":37026,"Name":"Santa Cruz","state_id":1176,"state_code":"MC","state_name":"Murcia","country_id":207,"country_code":"ES","country_name":"Spain","latitude":"38.02180000","longitude":"-1.05749000","wikiDataId":"Q1766906"},{"id":37116,"Name":"Santiago de la Ribera","state_id":1176,"state_code":"MC","state_name":"Murcia","country_id":207,"country_code":"ES","country_name":"Spain","latitude":"37.79681000","longitude":"-0.80544000","wikiDataId":"Q1650219"},{"id":37145,"Name":"Santomera","state_id":1176,"state_code":"MC","state_name":"Murcia","country_id":207,"country_code":"ES","country_name":"Spain","latitude":"38.06147000","longitude":"-1.04877000","wikiDataId":"Q1765918"},{"id":37507,"Name":"Torre-Pacheco","state_id":1176,"state_code":"MC","state_name":"Murcia","country_id":207,"country_code":"ES","country_name":"Spain","latitude":"37.74293000","longitude":"-0.95396000","wikiDataId":"Q949880"},{"id":37606,"Name":"Totana","state_id":1176,"state_code":"MC","state_name":"Murcia","country_id":207,"country_code":"ES","country_name":"Spain","latitude":"37.76880000","longitude":"-1.50229000","wikiDataId":"Q338174"},{"id":37678,"Name":"Ulea","state_id":1176,"state_code":"MC","state_name":"Murcia","country_id":207,"country_code":"ES","country_name":"Spain","latitude":"38.14045000","longitude":"-1.33007000","wikiDataId":"Q1767758"},{"id":38431,"Name":"Yecla","state_id":1176,"state_code":"MC","state_name":"Murcia","country_id":207,"country_code":"ES","country_name":"Spain","latitude":"38.61365000","longitude":"-1.11468000","wikiDataId":"Q931116"}]