[{"id":110973,"Name":"Aberdeen","state_id":1401,"state_code":"MD","state_name":"Maryland","country_id":233,"country_code":"US","country_name":"United States","latitude":"39.50956000","longitude":"-76.16412000","wikiDataId":"Q319395"},{"id":110980,"Name":"Aberdeen Proving Ground","state_id":1401,"state_code":"MD","state_name":"Maryland","country_id":233,"country_code":"US","country_name":"United States","latitude":"39.46686000","longitude":"-76.13066000","wikiDataId":"Q319506"},{"id":110993,"Name":"Accokeek","state_id":1401,"state_code":"MD","state_name":"Maryland","country_id":233,"country_code":"US","country_name":"United States","latitude":"38.66762000","longitude":"-77.02831000","wikiDataId":"Q754782"},{"id":111029,"Name":"Adamstown","state_id":1401,"state_code":"MD","state_name":"Maryland","country_id":233,"country_code":"US","country_name":"United States","latitude":"39.31094000","longitude":"-77.47471000","wikiDataId":"Q3886989"},{"id":111044,"Name":"Adelphi","state_id":1401,"state_code":"MD","state_name":"Maryland","country_id":233,"country_code":"US","country_name":"United States","latitude":"39.00317000","longitude":"-76.97192000","wikiDataId":"Q755153"},{"id":111166,"Name":"Algonquin","state_id":1401,"state_code":"MD","state_name":"Maryland","country_id":233,"country_code":"US","country_name":"United States","latitude":"38.58290000","longitude":"-76.10577000","wikiDataId":"Q754683"},{"id":111181,"Name":"Allegany County","state_id":1401,"state_code":"MD","state_name":"Maryland","country_id":233,"country_code":"US","country_name":"United States","latitude":"39.62148000","longitude":"-78.69890000","wikiDataId":"Q156257"},{"id":111332,"Name":"Andrews AFB","state_id":1401,"state_code":"MD","state_name":"Maryland","country_id":233,"country_code":"US","country_name":"United States","latitude":"38.80531000","longitude":"-76.87460000","wikiDataId":"Q509541"},{"id":111352,"Name":"Annapolis","state_id":1401,"state_code":"MD","state_name":"Maryland","country_id":233,"country_code":"US","country_name":"United States","latitude":"38.97845000","longitude":"-76.49218000","wikiDataId":"Q28271"},{"id":111353,"Name":"Anne Arundel County","state_id":1401,"state_code":"MD","state_name":"Maryland","country_id":233,"country_code":"US","country_name":"United States","latitude":"38.99416000","longitude":"-76.56760000","wikiDataId":"Q488701"},{"id":111417,"Name":"Arbutus","state_id":1401,"state_code":"MD","state_name":"Maryland","country_id":233,"country_code":"US","country_name":"United States","latitude":"39.25455000","longitude":"-76.69997000","wikiDataId":"Q630838"},{"id":111439,"Name":"Arden on the Severn","state_id":1401,"state_code":"MD","state_name":"Maryland","country_id":233,"country_code":"US","country_name":"United States","latitude":"39.06594000","longitude":"-76.57885000","wikiDataId":"Q754615"},{"id":111461,"Name":"Arlington","state_id":1401,"state_code":"MD","state_name":"Maryland","country_id":233,"country_code":"US","country_name":"United States","latitude":"39.34857000","longitude":"-76.68324000","wikiDataId":"Q2567888"},{"id":111485,"Name":"Arnold","state_id":1401,"state_code":"MD","state_name":"Maryland","country_id":233,"country_code":"US","country_name":"United States","latitude":"39.03206000","longitude":"-76.50274000","wikiDataId":"Q755581"},{"id":111547,"Name":"Ashton-Sandy Spring","state_id":1401,"state_code":"MD","state_name":"Maryland","country_id":233,"country_code":"US","country_name":"United States","latitude":"39.14976000","longitude":"-77.00504000","wikiDataId":"Q754081"},{"id":111553,"Name":"Aspen Hill","state_id":1401,"state_code":"MD","state_name":"Maryland","country_id":233,"country_code":"US","country_name":"United States","latitude":"39.07955000","longitude":"-77.07303000","wikiDataId":"Q753733"},{"id":111722,"Name":"Baden","state_id":1401,"state_code":"MD","state_name":"Maryland","country_id":233,"country_code":"US","country_name":"United States","latitude":"38.65928000","longitude":"-76.77775000","wikiDataId":"Q4840744"},{"id":111772,"Name":"Ballenger Creek","state_id":1401,"state_code":"MD","state_name":"Maryland","country_id":233,"country_code":"US","country_name":"United States","latitude":"39.37260000","longitude":"-77.43526000","wikiDataId":"Q753926"},{"id":111783,"Name":"Baltimore","state_id":1401,"state_code":"MD","state_name":"Maryland","country_id":233,"country_code":"US","country_name":"United States","latitude":"39.29038000","longitude":"-76.61219000","wikiDataId":"Q5092"},{"id":111784,"Name":"Baltimore County","state_id":1401,"state_code":"MD","state_name":"Maryland","country_id":233,"country_code":"US","country_name":"United States","latitude":"39.44307000","longitude":"-76.61632000","wikiDataId":"Q488668"},{"id":111785,"Name":"Baltimore Highlands","state_id":1401,"state_code":"MD","state_name":"Maryland","country_id":233,"country_code":"US","country_name":"United States","latitude":"39.23316000","longitude":"-76.63663000","wikiDataId":"Q4852876"},{"id":111869,"Name":"Bartonsville","state_id":1401,"state_code":"MD","state_name":"Maryland","country_id":233,"country_code":"US","country_name":"United States","latitude":"39.39260000","longitude":"-77.35804000","wikiDataId":"Q17399824"},{"id":112046,"Name":"Bel Air","state_id":1401,"state_code":"MD","state_name":"Maryland","country_id":233,"country_code":"US","country_name":"United States","latitude":"39.53594000","longitude":"-76.34829000","wikiDataId":"Q754583"},{"id":112047,"Name":"Bel Air North","state_id":1401,"state_code":"MD","state_name":"Maryland","country_id":233,"country_code":"US","country_name":"United States","latitude":"39.55429000","longitude":"-76.37309000","wikiDataId":"Q754706"},{"id":112048,"Name":"Bel Air South","state_id":1401,"state_code":"MD","state_name":"Maryland","country_id":233,"country_code":"US","country_name":"United States","latitude":"39.50506000","longitude":"-76.31977000","wikiDataId":"Q753325"},{"id":112151,"Name":"Beltsville","state_id":1401,"state_code":"MD","state_name":"Maryland","country_id":233,"country_code":"US","country_name":"United States","latitude":"39.03483000","longitude":"-76.90747000","wikiDataId":"Q753707"},{"id":112179,"Name":"Bennsville","state_id":1401,"state_code":"MD","state_name":"Maryland","country_id":233,"country_code":"US","country_name":"United States","latitude":"38.60929000","longitude":"-77.01220000","wikiDataId":"Q511647"},{"id":112234,"Name":"Berlin","state_id":1401,"state_code":"MD","state_name":"Maryland","country_id":233,"country_code":"US","country_name":"United States","latitude":"38.32262000","longitude":"-75.21769000","wikiDataId":"Q614184"},{"id":112266,"Name":"Berwyn Heights","state_id":1401,"state_code":"MD","state_name":"Maryland","country_id":233,"country_code":"US","country_name":"United States","latitude":"38.99400000","longitude":"-76.91053000","wikiDataId":"Q755028"},{"id":112288,"Name":"Bethesda","state_id":1401,"state_code":"MD","state_name":"Maryland","country_id":233,"country_code":"US","country_name":"United States","latitude":"38.98067000","longitude":"-77.10026000","wikiDataId":"Q584451"},{"id":112400,"Name":"Bladensburg","state_id":1401,"state_code":"MD","state_name":"Maryland","country_id":233,"country_code":"US","country_name":"United States","latitude":"38.93928000","longitude":"-76.93386000","wikiDataId":"Q174272"},{"id":112565,"Name":"Boonsboro","state_id":1401,"state_code":"MD","state_name":"Maryland","country_id":233,"country_code":"US","country_name":"United States","latitude":"39.50621000","longitude":"-77.65249000","wikiDataId":"Q756468"},{"id":112623,"Name":"Bowie","state_id":1401,"state_code":"MD","state_name":"Maryland","country_id":233,"country_code":"US","country_name":"United States","latitude":"38.94278000","longitude":"-76.73028000","wikiDataId":"Q755142"},{"id":112626,"Name":"Bowleys Quarters","state_id":1401,"state_code":"MD","state_name":"Maryland","country_id":233,"country_code":"US","country_name":"United States","latitude":"39.33539000","longitude":"-76.39024000","wikiDataId":"Q754481"},{"id":112629,"Name":"Bowling Green","state_id":1401,"state_code":"MD","state_name":"Maryland","country_id":233,"country_code":"US","country_name":"United States","latitude":"39.62370000","longitude":"-78.80446000","wikiDataId":"Q3887975"},{"id":112660,"Name":"Braddock Heights","state_id":1401,"state_code":"MD","state_name":"Maryland","country_id":233,"country_code":"US","country_name":"United States","latitude":"39.41871000","longitude":"-77.50360000","wikiDataId":"Q754993"},{"id":112692,"Name":"Brandywine","state_id":1401,"state_code":"MD","state_name":"Maryland","country_id":233,"country_code":"US","country_name":"United States","latitude":"38.69678000","longitude":"-76.84775000","wikiDataId":"Q753678"},{"id":112728,"Name":"Brentwood","state_id":1401,"state_code":"MD","state_name":"Maryland","country_id":233,"country_code":"US","country_name":"United States","latitude":"38.94317000","longitude":"-76.95664000","wikiDataId":"Q753912"},{"id":112832,"Name":"Brock Hall","state_id":1401,"state_code":"MD","state_name":"Maryland","country_id":233,"country_code":"US","country_name":"United States","latitude":"38.85011000","longitude":"-76.76108000","wikiDataId":"Q3887729"},{"id":112876,"Name":"Brooklyn Park","state_id":1401,"state_code":"MD","state_name":"Maryland","country_id":233,"country_code":"US","country_name":"United States","latitude":"39.22844000","longitude":"-76.61636000","wikiDataId":"Q755109"},{"id":112878,"Name":"Brookmont","state_id":1401,"state_code":"MD","state_name":"Maryland","country_id":233,"country_code":"US","country_name":"United States","latitude":"38.94206000","longitude":"-77.12026000","wikiDataId":"Q754633"},{"id":112948,"Name":"Brunswick","state_id":1401,"state_code":"MD","state_name":"Maryland","country_id":233,"country_code":"US","country_name":"United States","latitude":"39.31427000","longitude":"-77.62777000","wikiDataId":"Q755813"},{"id":112962,"Name":"Bryans Road","state_id":1401,"state_code":"MD","state_name":"Maryland","country_id":233,"country_code":"US","country_name":"United States","latitude":"38.62706000","longitude":"-77.07303000","wikiDataId":"Q753770"},{"id":112978,"Name":"Buckeystown","state_id":1401,"state_code":"MD","state_name":"Maryland","country_id":233,"country_code":"US","country_name":"United States","latitude":"39.33482000","longitude":"-77.43165000","wikiDataId":"Q616192"},{"id":113098,"Name":"Burtonsville","state_id":1401,"state_code":"MD","state_name":"Maryland","country_id":233,"country_code":"US","country_name":"United States","latitude":"39.11122000","longitude":"-76.93248000","wikiDataId":"Q754958"},{"id":113105,"Name":"Butcher's Hill","state_id":1401,"state_code":"MD","state_name":"Maryland","country_id":233,"country_code":"US","country_name":"United States","latitude":"39.28955000","longitude":"-76.58830000","wikiDataId":"Q2215140"},{"id":113152,"Name":"Cabin John","state_id":1401,"state_code":"MD","state_name":"Maryland","country_id":233,"country_code":"US","country_name":"United States","latitude":"38.97539000","longitude":"-77.15803000","wikiDataId":"Q586576"},{"id":113216,"Name":"California","state_id":1401,"state_code":"MD","state_name":"Maryland","country_id":233,"country_code":"US","country_name":"United States","latitude":"38.30040000","longitude":"-76.50745000","wikiDataId":"Q754623"},{"id":113235,"Name":"Calvert County","state_id":1401,"state_code":"MD","state_name":"Maryland","country_id":233,"country_code":"US","country_name":"United States","latitude":"38.53471000","longitude":"-76.53056000","wikiDataId":"Q501277"},{"id":113236,"Name":"Calverton","state_id":1401,"state_code":"MD","state_name":"Maryland","country_id":233,"country_code":"US","country_name":"United States","latitude":"39.05761000","longitude":"-76.93581000","wikiDataId":"Q754233"},{"id":113250,"Name":"Cambridge","state_id":1401,"state_code":"MD","state_name":"Maryland","country_id":233,"country_code":"US","country_name":"United States","latitude":"38.56317000","longitude":"-76.07883000","wikiDataId":"Q755862"},{"id":113293,"Name":"Camp Springs","state_id":1401,"state_code":"MD","state_name":"Maryland","country_id":233,"country_code":"US","country_name":"United States","latitude":"38.80400000","longitude":"-76.90664000","wikiDataId":"Q753851"},{"id":113373,"Name":"Cape Saint Claire","state_id":1401,"state_code":"MD","state_name":"Maryland","country_id":233,"country_code":"US","country_name":"United States","latitude":"39.04317000","longitude":"-76.44496000","wikiDataId":"Q754571"},{"id":113375,"Name":"Capitol Heights","state_id":1401,"state_code":"MD","state_name":"Maryland","country_id":233,"country_code":"US","country_name":"United States","latitude":"38.88511000","longitude":"-76.91581000","wikiDataId":"Q753587"},{"id":113428,"Name":"Carney","state_id":1401,"state_code":"MD","state_name":"Maryland","country_id":233,"country_code":"US","country_name":"United States","latitude":"39.39427000","longitude":"-76.52358000","wikiDataId":"Q755947"},{"id":113437,"Name":"Caroline County","state_id":1401,"state_code":"MD","state_name":"Maryland","country_id":233,"country_code":"US","country_name":"United States","latitude":"38.87173000","longitude":"-75.83160000","wikiDataId":"Q501242"},{"id":113453,"Name":"Carroll County","state_id":1401,"state_code":"MD","state_name":"Maryland","country_id":233,"country_code":"US","country_name":"United States","latitude":"39.56286000","longitude":"-77.02252000","wikiDataId":"Q501323"},{"id":113575,"Name":"Catonsville","state_id":1401,"state_code":"MD","state_name":"Maryland","country_id":233,"country_code":"US","country_name":"United States","latitude":"39.27205000","longitude":"-76.73192000","wikiDataId":"Q755075"},{"id":113590,"Name":"Cavetown","state_id":1401,"state_code":"MD","state_name":"Maryland","country_id":233,"country_code":"US","country_name":"United States","latitude":"39.64426000","longitude":"-77.58582000","wikiDataId":"Q753969"},{"id":113598,"Name":"Cecil County","state_id":1401,"state_code":"MD","state_name":"Maryland","country_id":233,"country_code":"US","country_name":"United States","latitude":"39.56242000","longitude":"-75.94811000","wikiDataId":"Q385365"},{"id":113693,"Name":"Centreville","state_id":1401,"state_code":"MD","state_name":"Maryland","country_id":233,"country_code":"US","country_name":"United States","latitude":"39.04178000","longitude":"-76.06633000","wikiDataId":"Q754606"},{"id":113757,"Name":"Charles County","state_id":1401,"state_code":"MD","state_name":"Maryland","country_id":233,"country_code":"US","country_name":"United States","latitude":"38.47368000","longitude":"-77.01348000","wikiDataId":"Q501319"},{"id":113760,"Name":"Charles Village","state_id":1401,"state_code":"MD","state_name":"Maryland","country_id":233,"country_code":"US","country_name":"United States","latitude":"39.32316000","longitude":"-76.61330000","wikiDataId":"Q5083136"},{"id":113771,"Name":"Charlestown","state_id":1401,"state_code":"MD","state_name":"Maryland","country_id":233,"country_code":"US","country_name":"United States","latitude":"39.57373000","longitude":"-75.97495000","wikiDataId":"Q754637"},{"id":113784,"Name":"Charlotte Hall","state_id":1401,"state_code":"MD","state_name":"Maryland","country_id":233,"country_code":"US","country_name":"United States","latitude":"38.48096000","longitude":"-76.77802000","wikiDataId":"Q755591"},{"id":113875,"Name":"Chesapeake Beach","state_id":1401,"state_code":"MD","state_name":"Maryland","country_id":233,"country_code":"US","country_name":"United States","latitude":"38.68623000","longitude":"-76.53468000","wikiDataId":"Q755111"},{"id":113876,"Name":"Chesapeake Ranch Estates","state_id":1401,"state_code":"MD","state_name":"Maryland","country_id":233,"country_code":"US","country_name":"United States","latitude":"38.34624000","longitude":"-76.41773000","wikiDataId":"Q5092874"},{"id":113883,"Name":"Chester","state_id":1401,"state_code":"MD","state_name":"Maryland","country_id":233,"country_code":"US","country_name":"United States","latitude":"38.97539000","longitude":"-76.28940000","wikiDataId":"Q753806"},{"id":113910,"Name":"Chestertown","state_id":1401,"state_code":"MD","state_name":"Maryland","country_id":233,"country_code":"US","country_name":"United States","latitude":"39.20900000","longitude":"-76.06661000","wikiDataId":"Q755851"},{"id":113919,"Name":"Cheverly","state_id":1401,"state_code":"MD","state_name":"Maryland","country_id":233,"country_code":"US","country_name":"United States","latitude":"38.92817000","longitude":"-76.91581000","wikiDataId":"Q754443"},{"id":113921,"Name":"Chevy Chase","state_id":1401,"state_code":"MD","state_name":"Maryland","country_id":233,"country_code":"US","country_name":"United States","latitude":"39.00287000","longitude":"-77.07115000","wikiDataId":"Q754478"},{"id":113923,"Name":"Chevy Chase Village","state_id":1401,"state_code":"MD","state_name":"Maryland","country_id":233,"country_code":"US","country_name":"United States","latitude":"38.96928000","longitude":"-77.07887000","wikiDataId":"Q753764"},{"id":113955,"Name":"Chillum","state_id":1401,"state_code":"MD","state_name":"Maryland","country_id":233,"country_code":"US","country_name":"United States","latitude":"38.96372000","longitude":"-76.99081000","wikiDataId":"Q754960"},{"id":114048,"Name":"City of Baltimore","state_id":1401,"state_code":"MD","state_name":"Maryland","country_id":233,"country_code":"US","country_name":"United States","latitude":"39.29038000","longitude":"-76.61219000","wikiDataId":"Q13188841"},{"id":114143,"Name":"Clarksburg","state_id":1401,"state_code":"MD","state_name":"Maryland","country_id":233,"country_code":"US","country_name":"United States","latitude":"39.23872000","longitude":"-77.27943000","wikiDataId":"Q754074"},{"id":114272,"Name":"Clinton","state_id":1401,"state_code":"MD","state_name":"Maryland","country_id":233,"country_code":"US","country_name":"United States","latitude":"38.76511000","longitude":"-76.89831000","wikiDataId":"Q755090"},{"id":114308,"Name":"Clover Hill","state_id":1401,"state_code":"MD","state_name":"Maryland","country_id":233,"country_code":"US","country_name":"United States","latitude":"39.45621000","longitude":"-77.42887000","wikiDataId":"Q754587"},{"id":114313,"Name":"Cloverly","state_id":1401,"state_code":"MD","state_name":"Maryland","country_id":233,"country_code":"US","country_name":"United States","latitude":"39.10816000","longitude":"-76.99775000","wikiDataId":"Q754904"},{"id":114345,"Name":"Cobb Island","state_id":1401,"state_code":"MD","state_name":"Maryland","country_id":233,"country_code":"US","country_name":"United States","latitude":"38.25846000","longitude":"-76.84386000","wikiDataId":"Q3888371"},{"id":114355,"Name":"Cockeysville","state_id":1401,"state_code":"MD","state_name":"Maryland","country_id":233,"country_code":"US","country_name":"United States","latitude":"39.48122000","longitude":"-76.64386000","wikiDataId":"Q754698"},{"id":114403,"Name":"Colesville","state_id":1401,"state_code":"MD","state_name":"Maryland","country_id":233,"country_code":"US","country_name":"United States","latitude":"39.07566000","longitude":"-77.00192000","wikiDataId":"Q3295716"},{"id":114414,"Name":"College Park","state_id":1401,"state_code":"MD","state_name":"Maryland","country_id":233,"country_code":"US","country_name":"United States","latitude":"38.98067000","longitude":"-76.93692000","wikiDataId":"Q668676"},{"id":114441,"Name":"Colmar Manor","state_id":1401,"state_code":"MD","state_name":"Maryland","country_id":233,"country_code":"US","country_name":"United States","latitude":"38.93317000","longitude":"-76.94581000","wikiDataId":"Q755042"},{"id":114467,"Name":"Columbia","state_id":1401,"state_code":"MD","state_name":"Maryland","country_id":233,"country_code":"US","country_name":"United States","latitude":"39.24038000","longitude":"-76.83942000","wikiDataId":"Q397905"},{"id":114625,"Name":"Coral Hills","state_id":1401,"state_code":"MD","state_name":"Maryland","country_id":233,"country_code":"US","country_name":"United States","latitude":"38.87039000","longitude":"-76.92108000","wikiDataId":"Q754697"},{"id":114690,"Name":"Cottage City","state_id":1401,"state_code":"MD","state_name":"Maryland","country_id":233,"country_code":"US","country_name":"United States","latitude":"38.93817000","longitude":"-76.94831000","wikiDataId":"Q753577"},{"id":114793,"Name":"Cresaptown","state_id":1401,"state_code":"MD","state_name":"Maryland","country_id":233,"country_code":"US","country_name":"United States","latitude":"39.59287000","longitude":"-78.83335000","wikiDataId":"Q5184301"},{"id":114822,"Name":"Crisfield","state_id":1401,"state_code":"MD","state_name":"Maryland","country_id":233,"country_code":"US","country_name":"United States","latitude":"37.98346000","longitude":"-75.85382000","wikiDataId":"Q49301"},{"id":114833,"Name":"Crofton","state_id":1401,"state_code":"MD","state_name":"Maryland","country_id":233,"country_code":"US","country_name":"United States","latitude":"39.00178000","longitude":"-76.68747000","wikiDataId":"Q755950"},{"id":114841,"Name":"Croom","state_id":1401,"state_code":"MD","state_name":"Maryland","country_id":233,"country_code":"US","country_name":"United States","latitude":"38.75262000","longitude":"-76.76386000","wikiDataId":"Q261100"},{"id":114869,"Name":"Crownsville","state_id":1401,"state_code":"MD","state_name":"Maryland","country_id":233,"country_code":"US","country_name":"United States","latitude":"39.02844000","longitude":"-76.60135000","wikiDataId":"Q754492"},{"id":114907,"Name":"Cumberland","state_id":1401,"state_code":"MD","state_name":"Maryland","country_id":233,"country_code":"US","country_name":"United States","latitude":"39.65287000","longitude":"-78.76252000","wikiDataId":"Q754868"},{"id":115009,"Name":"Damascus","state_id":1401,"state_code":"MD","state_name":"Maryland","country_id":233,"country_code":"US","country_name":"United States","latitude":"39.28844000","longitude":"-77.20387000","wikiDataId":"Q754122"},{"id":115053,"Name":"Darnestown","state_id":1401,"state_code":"MD","state_name":"Maryland","country_id":233,"country_code":"US","country_name":"United States","latitude":"39.10344000","longitude":"-77.29082000","wikiDataId":"Q753634"},{"id":115065,"Name":"Davidsonville","state_id":1401,"state_code":"MD","state_name":"Maryland","country_id":233,"country_code":"US","country_name":"United States","latitude":"38.92289000","longitude":"-76.62830000","wikiDataId":"Q5241683"},{"id":115144,"Name":"Deale","state_id":1401,"state_code":"MD","state_name":"Maryland","country_id":233,"country_code":"US","country_name":"United States","latitude":"38.77651000","longitude":"-76.55524000","wikiDataId":"Q753567"},{"id":115245,"Name":"Denton","state_id":1401,"state_code":"MD","state_name":"Maryland","country_id":233,"country_code":"US","country_name":"United States","latitude":"38.88456000","longitude":"-75.82716000","wikiDataId":"Q754313"},{"id":115268,"Name":"Derwood","state_id":1401,"state_code":"MD","state_name":"Maryland","country_id":233,"country_code":"US","country_name":"United States","latitude":"39.11733000","longitude":"-77.16109000","wikiDataId":"Q923226"},{"id":115355,"Name":"District Heights","state_id":1401,"state_code":"MD","state_name":"Maryland","country_id":233,"country_code":"US","country_name":"United States","latitude":"38.85761000","longitude":"-76.88942000","wikiDataId":"Q755193"},{"id":115410,"Name":"Dorchester County","state_id":1401,"state_code":"MD","state_name":"Maryland","country_id":233,"country_code":"US","country_name":"United States","latitude":"38.42261000","longitude":"-76.08332000","wikiDataId":"Q501263"},{"id":115481,"Name":"Drum Point","state_id":1401,"state_code":"MD","state_name":"Maryland","country_id":233,"country_code":"US","country_name":"United States","latitude":"38.32679000","longitude":"-76.42606000","wikiDataId":"Q22074940"},{"id":115526,"Name":"Dundalk","state_id":1401,"state_code":"MD","state_name":"Maryland","country_id":233,"country_code":"US","country_name":"United States","latitude":"39.25066000","longitude":"-76.52052000","wikiDataId":"Q754390"},{"id":115537,"Name":"Dunkirk","state_id":1401,"state_code":"MD","state_name":"Maryland","country_id":233,"country_code":"US","country_name":"United States","latitude":"38.72178000","longitude":"-76.66052000","wikiDataId":"Q3021148"},{"id":115540,"Name":"Dunkirk Town Center","state_id":1401,"state_code":"MD","state_name":"Maryland","country_id":233,"country_code":"US","country_name":"United States","latitude":"38.72039000","longitude":"-76.65857000","wikiDataId":"Q911609"},{"id":115748,"Name":"East Riverdale","state_id":1401,"state_code":"MD","state_name":"Maryland","country_id":233,"country_code":"US","country_name":"United States","latitude":"38.96206000","longitude":"-76.92192000","wikiDataId":"Q754784"},{"id":115785,"Name":"Easton","state_id":1401,"state_code":"MD","state_name":"Maryland","country_id":233,"country_code":"US","country_name":"United States","latitude":"38.77428000","longitude":"-76.07633000","wikiDataId":"Q754306"},{"id":115844,"Name":"Edgemere","state_id":1401,"state_code":"MD","state_name":"Maryland","country_id":233,"country_code":"US","country_name":"United States","latitude":"39.24205000","longitude":"-76.44802000","wikiDataId":"Q754445"},{"id":115852,"Name":"Edgewater","state_id":1401,"state_code":"MD","state_name":"Maryland","country_id":233,"country_code":"US","country_name":"United States","latitude":"38.95706000","longitude":"-76.54996000","wikiDataId":"Q5337831"},{"id":115859,"Name":"Edgewood","state_id":1401,"state_code":"MD","state_name":"Maryland","country_id":233,"country_code":"US","country_name":"United States","latitude":"39.41872000","longitude":"-76.29440000","wikiDataId":"Q755908"},{"id":115880,"Name":"Edmonston","state_id":1401,"state_code":"MD","state_name":"Maryland","country_id":233,"country_code":"US","country_name":"United States","latitude":"38.94678000","longitude":"-76.93109000","wikiDataId":"Q754767"},{"id":115949,"Name":"Eldersburg","state_id":1401,"state_code":"MD","state_name":"Maryland","country_id":233,"country_code":"US","country_name":"United States","latitude":"39.40371000","longitude":"-76.95026000","wikiDataId":"Q754876"},{"id":116011,"Name":"Elkridge","state_id":1401,"state_code":"MD","state_name":"Maryland","country_id":233,"country_code":"US","country_name":"United States","latitude":"39.21261000","longitude":"-76.71358000","wikiDataId":"Q755962"},{"id":116013,"Name":"Elkton","state_id":1401,"state_code":"MD","state_name":"Maryland","country_id":233,"country_code":"US","country_name":"United States","latitude":"39.60678000","longitude":"-75.83327000","wikiDataId":"Q754338"},{"id":116024,"Name":"Ellicott City","state_id":1401,"state_code":"MD","state_name":"Maryland","country_id":233,"country_code":"US","country_name":"United States","latitude":"39.26733000","longitude":"-76.79831000","wikiDataId":"Q730938"},{"id":116106,"Name":"Emmitsburg","state_id":1401,"state_code":"MD","state_name":"Maryland","country_id":233,"country_code":"US","country_name":"United States","latitude":"39.70454000","longitude":"-77.32693000","wikiDataId":"Q754471"},{"id":116191,"Name":"Essex","state_id":1401,"state_code":"MD","state_name":"Maryland","country_id":233,"country_code":"US","country_name":"United States","latitude":"39.30927000","longitude":"-76.47496000","wikiDataId":"Q754704"},{"id":116328,"Name":"Fairland","state_id":1401,"state_code":"MD","state_name":"Maryland","country_id":233,"country_code":"US","country_name":"United States","latitude":"39.07622000","longitude":"-76.95775000","wikiDataId":"Q753727"},{"id":116342,"Name":"Fairmount Heights","state_id":1401,"state_code":"MD","state_name":"Maryland","country_id":233,"country_code":"US","country_name":"United States","latitude":"38.90095000","longitude":"-76.91553000","wikiDataId":"Q754818"},{"id":116364,"Name":"Fairwood","state_id":1401,"state_code":"MD","state_name":"Maryland","country_id":233,"country_code":"US","country_name":"United States","latitude":"38.95665000","longitude":"-76.77772000","wikiDataId":"Q5430926"},{"id":116385,"Name":"Fallston","state_id":1401,"state_code":"MD","state_name":"Maryland","country_id":233,"country_code":"US","country_name":"United States","latitude":"39.51455000","longitude":"-76.41107000","wikiDataId":"Q753603"},{"id":116466,"Name":"Federalsburg","state_id":1401,"state_code":"MD","state_name":"Maryland","country_id":233,"country_code":"US","country_name":"United States","latitude":"38.69428000","longitude":"-75.77216000","wikiDataId":"Q753973"},{"id":116486,"Name":"Ferndale","state_id":1401,"state_code":"MD","state_name":"Maryland","country_id":233,"country_code":"US","country_name":"United States","latitude":"39.18316000","longitude":"-76.64024000","wikiDataId":"Q755132"},{"id":116652,"Name":"Forest Glen","state_id":1401,"state_code":"MD","state_name":"Maryland","country_id":233,"country_code":"US","country_name":"United States","latitude":"39.01455000","longitude":"-77.05470000","wikiDataId":"Q754794"},{"id":116654,"Name":"Forest Heights","state_id":1401,"state_code":"MD","state_name":"Maryland","country_id":233,"country_code":"US","country_name":"United States","latitude":"38.80956000","longitude":"-76.99803000","wikiDataId":"Q754626"},{"id":116672,"Name":"Forestville","state_id":1401,"state_code":"MD","state_name":"Maryland","country_id":233,"country_code":"US","country_name":"United States","latitude":"38.84511000","longitude":"-76.87497000","wikiDataId":"Q753872"},{"id":116712,"Name":"Fort George G Mead Junction","state_id":1401,"state_code":"MD","state_name":"Maryland","country_id":233,"country_code":"US","country_name":"United States","latitude":"39.12594000","longitude":"-76.78914000","wikiDataId":"Q2361460"},{"id":116729,"Name":"Fort Meade","state_id":1401,"state_code":"MD","state_name":"Maryland","country_id":233,"country_code":"US","country_name":"United States","latitude":"39.10815000","longitude":"-76.74323000","wikiDataId":"Q755026"},{"id":116761,"Name":"Fort Washington","state_id":1401,"state_code":"MD","state_name":"Maryland","country_id":233,"country_code":"US","country_name":"United States","latitude":"38.70734000","longitude":"-77.02303000","wikiDataId":"Q754010"},{"id":116786,"Name":"Fountainhead-Orchard Hills","state_id":1401,"state_code":"MD","state_name":"Maryland","country_id":233,"country_code":"US","country_name":"United States","latitude":"39.68636000","longitude":"-77.71901000","wikiDataId":"Q754206"},{"id":116787,"Name":"Four Corners","state_id":1401,"state_code":"MD","state_name":"Maryland","country_id":233,"country_code":"US","country_name":"United States","latitude":"39.02039000","longitude":"-77.01275000","wikiDataId":"Q5475091"},{"id":116885,"Name":"Frederick","state_id":1401,"state_code":"MD","state_name":"Maryland","country_id":233,"country_code":"US","country_name":"United States","latitude":"39.41427000","longitude":"-77.41054000","wikiDataId":"Q472675"},{"id":116888,"Name":"Frederick County","state_id":1401,"state_code":"MD","state_name":"Maryland","country_id":233,"country_code":"US","country_name":"United States","latitude":"39.47222000","longitude":"-77.39799000","wikiDataId":"Q501345"},{"id":116947,"Name":"Friendly","state_id":1401,"state_code":"MD","state_name":"Maryland","country_id":233,"country_code":"US","country_name":"United States","latitude":"38.75178000","longitude":"-76.97859000","wikiDataId":"Q754663"},{"id":116951,"Name":"Friendship Village","state_id":1401,"state_code":"MD","state_name":"Maryland","country_id":233,"country_code":"US","country_name":"United States","latitude":"38.96289000","longitude":"-77.08887000","wikiDataId":"Q754692"},{"id":116964,"Name":"Frostburg","state_id":1401,"state_code":"MD","state_name":"Maryland","country_id":233,"country_code":"US","country_name":"United States","latitude":"39.65814000","longitude":"-78.92836000","wikiDataId":"Q374219"},{"id":116970,"Name":"Fruitland","state_id":1401,"state_code":"MD","state_name":"Maryland","country_id":233,"country_code":"US","country_name":"United States","latitude":"38.32206000","longitude":"-75.62020000","wikiDataId":"Q754982"},{"id":116987,"Name":"Fulton","state_id":1401,"state_code":"MD","state_name":"Maryland","country_id":233,"country_code":"US","country_name":"United States","latitude":"39.15094000","longitude":"-76.92303000","wikiDataId":"Q3886491"},{"id":117019,"Name":"Gaithersburg","state_id":1401,"state_code":"MD","state_name":"Maryland","country_id":233,"country_code":"US","country_name":"United States","latitude":"39.14344000","longitude":"-77.20137000","wikiDataId":"Q752719"},{"id":117045,"Name":"Gambrills","state_id":1401,"state_code":"MD","state_name":"Maryland","country_id":233,"country_code":"US","country_name":"United States","latitude":"39.06705000","longitude":"-76.66524000","wikiDataId":"Q3886319"},{"id":117100,"Name":"Garrett County","state_id":1401,"state_code":"MD","state_name":"Maryland","country_id":233,"country_code":"US","country_name":"United States","latitude":"39.52860000","longitude":"-79.27388000","wikiDataId":"Q501236"},{"id":117101,"Name":"Garrett Park","state_id":1401,"state_code":"MD","state_name":"Maryland","country_id":233,"country_code":"US","country_name":"United States","latitude":"39.03816000","longitude":"-77.09303000","wikiDataId":"Q2575098"},{"id":117102,"Name":"Garrison","state_id":1401,"state_code":"MD","state_name":"Maryland","country_id":233,"country_code":"US","country_name":"United States","latitude":"39.40594000","longitude":"-76.76053000","wikiDataId":"Q756396"},{"id":117172,"Name":"Germantown","state_id":1401,"state_code":"MD","state_name":"Maryland","country_id":233,"country_code":"US","country_name":"United States","latitude":"39.17316000","longitude":"-77.27165000","wikiDataId":"Q755901"},{"id":117253,"Name":"Glassmanor","state_id":1401,"state_code":"MD","state_name":"Maryland","country_id":233,"country_code":"US","country_name":"United States","latitude":"38.81900000","longitude":"-76.99859000","wikiDataId":"Q3885829"},{"id":117262,"Name":"Glen Burnie","state_id":1401,"state_code":"MD","state_name":"Maryland","country_id":233,"country_code":"US","country_name":"United States","latitude":"39.16261000","longitude":"-76.62469000","wikiDataId":"Q754452"},{"id":117275,"Name":"Glenarden","state_id":1401,"state_code":"MD","state_name":"Maryland","country_id":233,"country_code":"US","country_name":"United States","latitude":"38.92928000","longitude":"-76.86164000","wikiDataId":"Q753487"},{"id":117293,"Name":"Glenmont","state_id":1401,"state_code":"MD","state_name":"Maryland","country_id":233,"country_code":"US","country_name":"United States","latitude":"39.05789000","longitude":"-77.04970000","wikiDataId":"Q5568613"},{"id":117297,"Name":"Glenn Dale","state_id":1401,"state_code":"MD","state_name":"Maryland","country_id":233,"country_code":"US","country_name":"United States","latitude":"38.98761000","longitude":"-76.82053000","wikiDataId":"Q753954"},{"id":117333,"Name":"Goddard","state_id":1401,"state_code":"MD","state_name":"Maryland","country_id":233,"country_code":"US","country_name":"United States","latitude":"38.98955000","longitude":"-76.85331000","wikiDataId":"Q755953"},{"id":117347,"Name":"Golden Beach","state_id":1401,"state_code":"MD","state_name":"Maryland","country_id":233,"country_code":"US","country_name":"United States","latitude":"38.48985000","longitude":"-76.68218000","wikiDataId":"Q753316"},{"id":117541,"Name":"Grasonville","state_id":1401,"state_code":"MD","state_name":"Maryland","country_id":233,"country_code":"US","country_name":"United States","latitude":"38.95817000","longitude":"-76.21023000","wikiDataId":"Q754578"},{"id":117582,"Name":"Greater Upper Marlboro","state_id":1401,"state_code":"MD","state_name":"Maryland","country_id":233,"country_code":"US","country_name":"United States","latitude":"38.83142000","longitude":"-76.74827000","wikiDataId":"Q754628"},{"id":117597,"Name":"Green Haven","state_id":1401,"state_code":"MD","state_name":"Maryland","country_id":233,"country_code":"US","country_name":"United States","latitude":"39.13955000","longitude":"-76.54774000","wikiDataId":"Q755842"},{"id":117609,"Name":"Green Valley","state_id":1401,"state_code":"MD","state_name":"Maryland","country_id":233,"country_code":"US","country_name":"United States","latitude":"39.30927000","longitude":"-77.29721000","wikiDataId":"Q1185761"},{"id":117616,"Name":"Greenbelt","state_id":1401,"state_code":"MD","state_name":"Maryland","country_id":233,"country_code":"US","country_name":"United States","latitude":"39.00455000","longitude":"-76.87553000","wikiDataId":"Q755877"},{"id":117666,"Name":"Greensboro","state_id":1401,"state_code":"MD","state_name":"Maryland","country_id":233,"country_code":"US","country_name":"United States","latitude":"38.97372000","longitude":"-75.80493000","wikiDataId":"Q756313"},{"id":117838,"Name":"Hagerstown","state_id":1401,"state_code":"MD","state_name":"Maryland","country_id":233,"country_code":"US","country_name":"United States","latitude":"39.64176000","longitude":"-77.71999000","wikiDataId":"Q755559"},{"id":117857,"Name":"Halfway","state_id":1401,"state_code":"MD","state_name":"Maryland","country_id":233,"country_code":"US","country_name":"United States","latitude":"39.62065000","longitude":"-77.75888000","wikiDataId":"Q756603"},{"id":117923,"Name":"Hampstead","state_id":1401,"state_code":"MD","state_name":"Maryland","country_id":233,"country_code":"US","country_name":"United States","latitude":"39.60483000","longitude":"-76.84998000","wikiDataId":"Q753632"},{"id":117928,"Name":"Hampton","state_id":1401,"state_code":"MD","state_name":"Maryland","country_id":233,"country_code":"US","country_name":"United States","latitude":"39.42288000","longitude":"-76.58469000","wikiDataId":"Q753372"},{"id":117947,"Name":"Hancock","state_id":1401,"state_code":"MD","state_name":"Maryland","country_id":233,"country_code":"US","country_name":"United States","latitude":"39.69898000","longitude":"-78.17973000","wikiDataId":"Q755066"},{"id":117967,"Name":"Hanover","state_id":1401,"state_code":"MD","state_name":"Maryland","country_id":233,"country_code":"US","country_name":"United States","latitude":"39.19289000","longitude":"-76.72414000","wikiDataId":"Q5649355"},{"id":118012,"Name":"Harford County","state_id":1401,"state_code":"MD","state_name":"Maryland","country_id":233,"country_code":"US","country_name":"United States","latitude":"39.53644000","longitude":"-76.29887000","wikiDataId":"Q501284"},{"id":118155,"Name":"Havre de Grace","state_id":1401,"state_code":"MD","state_name":"Maryland","country_id":233,"country_code":"US","country_name":"United States","latitude":"39.54928000","longitude":"-76.09162000","wikiDataId":"Q754475"},{"id":118233,"Name":"Hebron","state_id":1401,"state_code":"MD","state_name":"Maryland","country_id":233,"country_code":"US","country_name":"United States","latitude":"38.42012000","longitude":"-75.68771000","wikiDataId":"Q755030"},{"id":118312,"Name":"Herald Harbor","state_id":1401,"state_code":"MD","state_name":"Maryland","country_id":233,"country_code":"US","country_name":"United States","latitude":"39.05372000","longitude":"-76.56913000","wikiDataId":"Q753879"},{"id":118390,"Name":"Highfield-Cascade","state_id":1401,"state_code":"MD","state_name":"Maryland","country_id":233,"country_code":"US","country_name":"United States","latitude":"39.71616000","longitude":"-77.48282000","wikiDataId":"Q2278858"},{"id":118395,"Name":"Highland","state_id":1401,"state_code":"MD","state_name":"Maryland","country_id":233,"country_code":"US","country_name":"United States","latitude":"39.17900000","longitude":"-76.95748000","wikiDataId":"Q3886853"},{"id":118438,"Name":"Hillandale","state_id":1401,"state_code":"MD","state_name":"Maryland","country_id":233,"country_code":"US","country_name":"United States","latitude":"39.02650000","longitude":"-76.97414000","wikiDataId":"Q754108"},{"id":118441,"Name":"Hillcrest Heights","state_id":1401,"state_code":"MD","state_name":"Maryland","country_id":233,"country_code":"US","country_name":"United States","latitude":"38.83289000","longitude":"-76.95942000","wikiDataId":"Q753976"},{"id":118467,"Name":"Hillsmere Shores","state_id":1401,"state_code":"MD","state_name":"Maryland","country_id":233,"country_code":"US","country_name":"United States","latitude":"38.94011000","longitude":"-76.49496000","wikiDataId":"Q754516"},{"id":118713,"Name":"Howard County","state_id":1401,"state_code":"MD","state_name":"Maryland","country_id":233,"country_code":"US","country_name":"United States","latitude":"39.25072000","longitude":"-76.93119000","wikiDataId":"Q398939"},{"id":118762,"Name":"Hughesville","state_id":1401,"state_code":"MD","state_name":"Maryland","country_id":233,"country_code":"US","country_name":"United States","latitude":"38.53262000","longitude":"-76.78386000","wikiDataId":"Q753704"},{"id":118787,"Name":"Hunt Valley","state_id":1401,"state_code":"MD","state_name":"Maryland","country_id":233,"country_code":"US","country_name":"United States","latitude":"39.49983000","longitude":"-76.64108000","wikiDataId":"Q5944006"},{"id":118810,"Name":"Huntingtown","state_id":1401,"state_code":"MD","state_name":"Maryland","country_id":233,"country_code":"US","country_name":"United States","latitude":"38.61595000","longitude":"-76.61302000","wikiDataId":"Q754761"},{"id":118811,"Name":"Huntingtown Town Center","state_id":1401,"state_code":"MD","state_name":"Maryland","country_id":233,"country_code":"US","country_name":"United States","latitude":"38.62095000","longitude":"-76.61607000","wikiDataId":"Q754761"},{"id":118823,"Name":"Hurlock","state_id":1401,"state_code":"MD","state_name":"Maryland","country_id":233,"country_code":"US","country_name":"United States","latitude":"38.62428000","longitude":"-75.85438000","wikiDataId":"Q755898"},{"id":118844,"Name":"Hyattsville","state_id":1401,"state_code":"MD","state_name":"Maryland","country_id":233,"country_code":"US","country_name":"United States","latitude":"38.95594000","longitude":"-76.94553000","wikiDataId":"Q754367"},{"id":118877,"Name":"Ilchester","state_id":1401,"state_code":"MD","state_name":"Maryland","country_id":233,"country_code":"US","country_name":"United States","latitude":"39.25094000","longitude":"-76.76469000","wikiDataId":"Q3796339"},{"id":118903,"Name":"Indian Head","state_id":1401,"state_code":"MD","state_name":"Maryland","country_id":233,"country_code":"US","country_name":"United States","latitude":"38.60012000","longitude":"-77.16220000","wikiDataId":"Q634154"},{"id":119008,"Name":"Irvington","state_id":1401,"state_code":"MD","state_name":"Maryland","country_id":233,"country_code":"US","country_name":"United States","latitude":"39.28288000","longitude":"-76.68608000","wikiDataId":"Q2128681"},{"id":119135,"Name":"Jarrettsville","state_id":1401,"state_code":"MD","state_name":"Maryland","country_id":233,"country_code":"US","country_name":"United States","latitude":"39.60455000","longitude":"-76.47774000","wikiDataId":"Q754932"},{"id":119164,"Name":"Jefferson","state_id":1401,"state_code":"MD","state_name":"Maryland","country_id":233,"country_code":"US","country_name":"United States","latitude":"39.36205000","longitude":"-77.53165000","wikiDataId":"Q3887456"},{"id":119237,"Name":"Jessup","state_id":1401,"state_code":"MD","state_name":"Maryland","country_id":233,"country_code":"US","country_name":"United States","latitude":"39.14927000","longitude":"-76.77525000","wikiDataId":"Q755574"},{"id":119314,"Name":"Joppatowne","state_id":1401,"state_code":"MD","state_name":"Maryland","country_id":233,"country_code":"US","country_name":"United States","latitude":"39.45789000","longitude":"-76.35524000","wikiDataId":"Q753712"},{"id":119417,"Name":"Keedysville","state_id":1401,"state_code":"MD","state_name":"Maryland","country_id":233,"country_code":"US","country_name":"United States","latitude":"39.48621000","longitude":"-77.69971000","wikiDataId":"Q754521"},{"id":119436,"Name":"Kemp Mill","state_id":1401,"state_code":"MD","state_name":"Maryland","country_id":233,"country_code":"US","country_name":"United States","latitude":"39.03900000","longitude":"-77.01914000","wikiDataId":"Q753650"},{"id":119480,"Name":"Kensington","state_id":1401,"state_code":"MD","state_name":"Maryland","country_id":233,"country_code":"US","country_name":"United States","latitude":"39.02567000","longitude":"-77.07637000","wikiDataId":"Q753414"},{"id":119491,"Name":"Kent County","state_id":1401,"state_code":"MD","state_name":"Maryland","country_id":233,"country_code":"US","country_name":"United States","latitude":"39.23560000","longitude":"-76.09582000","wikiDataId":"Q494228"},{"id":119526,"Name":"Kettering","state_id":1401,"state_code":"MD","state_name":"Maryland","country_id":233,"country_code":"US","country_name":"United States","latitude":"38.88456000","longitude":"-76.81469000","wikiDataId":"Q754385"},{"id":119633,"Name":"Kingstown","state_id":1401,"state_code":"MD","state_name":"Maryland","country_id":233,"country_code":"US","country_name":"United States","latitude":"39.20483000","longitude":"-76.05133000","wikiDataId":"Q754913"},{"id":119635,"Name":"Kingsville","state_id":1401,"state_code":"MD","state_name":"Maryland","country_id":233,"country_code":"US","country_name":"United States","latitude":"39.44872000","longitude":"-76.41774000","wikiDataId":"Q385481"},{"id":119773,"Name":"La Plata","state_id":1401,"state_code":"MD","state_name":"Maryland","country_id":233,"country_code":"US","country_name":"United States","latitude":"38.52929000","longitude":"-76.97525000","wikiDataId":"Q286925"},{"id":119791,"Name":"La Vale","state_id":1401,"state_code":"MD","state_name":"Maryland","country_id":233,"country_code":"US","country_name":"United States","latitude":"39.65564000","longitude":"-78.81058000","wikiDataId":"Q753725"},{"id":119864,"Name":"Lake Arbor","state_id":1401,"state_code":"MD","state_name":"Maryland","country_id":233,"country_code":"US","country_name":"United States","latitude":"38.90789000","longitude":"-76.82969000","wikiDataId":"Q756345"},{"id":119976,"Name":"Lake Shore","state_id":1401,"state_code":"MD","state_name":"Maryland","country_id":233,"country_code":"US","country_name":"United States","latitude":"39.10705000","longitude":"-76.48496000","wikiDataId":"Q756566"},{"id":120102,"Name":"Landover","state_id":1401,"state_code":"MD","state_name":"Maryland","country_id":233,"country_code":"US","country_name":"United States","latitude":"38.93400000","longitude":"-76.89664000","wikiDataId":"Q1811669"},{"id":120103,"Name":"Landover Hills","state_id":1401,"state_code":"MD","state_name":"Maryland","country_id":233,"country_code":"US","country_name":"United States","latitude":"38.94317000","longitude":"-76.89220000","wikiDataId":"Q754689"},{"id":120115,"Name":"Langley Park","state_id":1401,"state_code":"MD","state_name":"Maryland","country_id":233,"country_code":"US","country_name":"United States","latitude":"38.98872000","longitude":"-76.98136000","wikiDataId":"Q753918"},{"id":120117,"Name":"Lanham","state_id":1401,"state_code":"MD","state_name":"Maryland","country_id":233,"country_code":"US","country_name":"United States","latitude":"38.96875000","longitude":"-76.86340000","wikiDataId":"Q3217563"},{"id":120118,"Name":"Lanham-Seabrook","state_id":1401,"state_code":"MD","state_name":"Maryland","country_id":233,"country_code":"US","country_name":"United States","latitude":"38.96835000","longitude":"-76.85108000","wikiDataId":"Q755882"},{"id":120122,"Name":"Lansdowne","state_id":1401,"state_code":"MD","state_name":"Maryland","country_id":233,"country_code":"US","country_name":"United States","latitude":"39.24511000","longitude":"-76.66052000","wikiDataId":"Q3886494"},{"id":120144,"Name":"Largo","state_id":1401,"state_code":"MD","state_name":"Maryland","country_id":233,"country_code":"US","country_name":"United States","latitude":"38.89761000","longitude":"-76.83025000","wikiDataId":"Q753659"},{"id":120189,"Name":"Laurel","state_id":1401,"state_code":"MD","state_name":"Maryland","country_id":233,"country_code":"US","country_name":"United States","latitude":"39.09928000","longitude":"-76.84831000","wikiDataId":"Q755275"},{"id":120252,"Name":"Layhill","state_id":1401,"state_code":"MD","state_name":"Maryland","country_id":233,"country_code":"US","country_name":"United States","latitude":"39.09233000","longitude":"-77.04442000","wikiDataId":"Q5971974"},{"id":120345,"Name":"Leisure World","state_id":1401,"state_code":"MD","state_name":"Maryland","country_id":233,"country_code":"US","country_name":"United States","latitude":"39.10230000","longitude":"-77.06898000","wikiDataId":"Q1088100"},{"id":120390,"Name":"Leonardtown","state_id":1401,"state_code":"MD","state_name":"Maryland","country_id":233,"country_code":"US","country_name":"United States","latitude":"38.29124000","longitude":"-76.63579000","wikiDataId":"Q754573"},{"id":120455,"Name":"Lexington Park","state_id":1401,"state_code":"MD","state_name":"Maryland","country_id":233,"country_code":"US","country_name":"United States","latitude":"38.26679000","longitude":"-76.45384000","wikiDataId":"Q650694"},{"id":120578,"Name":"Linganore","state_id":1401,"state_code":"MD","state_name":"Maryland","country_id":233,"country_code":"US","country_name":"United States","latitude":"39.44038000","longitude":"-77.20804000","wikiDataId":"Q17406615"},{"id":120588,"Name":"Linthicum","state_id":1401,"state_code":"MD","state_name":"Maryland","country_id":233,"country_code":"US","country_name":"United States","latitude":"39.20511000","longitude":"-76.65275000","wikiDataId":"Q753673"},{"id":120671,"Name":"Lochearn","state_id":1401,"state_code":"MD","state_name":"Maryland","country_id":233,"country_code":"US","country_name":"United States","latitude":"39.34066000","longitude":"-76.72219000","wikiDataId":"Q517396"},{"id":120719,"Name":"Lonaconing","state_id":1401,"state_code":"MD","state_name":"Maryland","country_id":233,"country_code":"US","country_name":"United States","latitude":"39.56592000","longitude":"-78.98030000","wikiDataId":"Q755146"},{"id":120725,"Name":"Londontowne","state_id":1401,"state_code":"MD","state_name":"Maryland","country_id":233,"country_code":"US","country_name":"United States","latitude":"38.93345000","longitude":"-76.54941000","wikiDataId":"Q755886"},{"id":120733,"Name":"Long Beach","state_id":1401,"state_code":"MD","state_name":"Maryland","country_id":233,"country_code":"US","country_name":"United States","latitude":"38.46096000","longitude":"-76.46884000","wikiDataId":"Q6672256"},{"id":120891,"Name":"Lusby","state_id":1401,"state_code":"MD","state_name":"Maryland","country_id":233,"country_code":"US","country_name":"United States","latitude":"38.41068000","longitude":"-76.45523000","wikiDataId":"Q755598"},{"id":120895,"Name":"Lutherville","state_id":1401,"state_code":"MD","state_name":"Maryland","country_id":233,"country_code":"US","country_name":"United States","latitude":"39.42122000","longitude":"-76.62608000","wikiDataId":"Q6705768"},{"id":120896,"Name":"Lutherville-Timonium","state_id":1401,"state_code":"MD","state_name":"Maryland","country_id":233,"country_code":"US","country_name":"United States","latitude":"39.43997000","longitude":"-76.61099000","wikiDataId":"Q754456"},{"id":121090,"Name":"Manchester","state_id":1401,"state_code":"MD","state_name":"Maryland","country_id":233,"country_code":"US","country_name":"United States","latitude":"39.66121000","longitude":"-76.88498000","wikiDataId":"Q755118"},{"id":121277,"Name":"Marlboro Meadows","state_id":1401,"state_code":"MD","state_name":"Maryland","country_id":233,"country_code":"US","country_name":"United States","latitude":"38.83622000","longitude":"-76.71497000","wikiDataId":"Q3886619"},{"id":121278,"Name":"Marlboro Village","state_id":1401,"state_code":"MD","state_name":"Maryland","country_id":233,"country_code":"US","country_name":"United States","latitude":"38.83054000","longitude":"-76.76965000","wikiDataId":"Q2919349"},{"id":121286,"Name":"Marlow Heights","state_id":1401,"state_code":"MD","state_name":"Maryland","country_id":233,"country_code":"US","country_name":"United States","latitude":"38.83345000","longitude":"-76.95164000","wikiDataId":"Q754902"},{"id":121287,"Name":"Marlton","state_id":1401,"state_code":"MD","state_name":"Maryland","country_id":233,"country_code":"US","country_name":"United States","latitude":"38.77373000","longitude":"-76.78997000","wikiDataId":"Q753653"},{"id":121355,"Name":"Maryland City","state_id":1401,"state_code":"MD","state_name":"Maryland","country_id":233,"country_code":"US","country_name":"United States","latitude":"39.09205000","longitude":"-76.81775000","wikiDataId":"Q753934"},{"id":121418,"Name":"Maugansville","state_id":1401,"state_code":"MD","state_name":"Maryland","country_id":233,"country_code":"US","country_name":"United States","latitude":"39.69287000","longitude":"-77.74472000","wikiDataId":"Q755880"},{"id":121443,"Name":"Mayo","state_id":1401,"state_code":"MD","state_name":"Maryland","country_id":233,"country_code":"US","country_name":"United States","latitude":"38.88761000","longitude":"-76.51190000","wikiDataId":"Q754311"},{"id":121446,"Name":"Mays Chapel","state_id":1401,"state_code":"MD","state_name":"Maryland","country_id":233,"country_code":"US","country_name":"United States","latitude":"39.43316000","longitude":"-76.64941000","wikiDataId":"Q753757"},{"id":121582,"Name":"Mechanicsville","state_id":1401,"state_code":"MD","state_name":"Maryland","country_id":233,"country_code":"US","country_name":"United States","latitude":"38.44290000","longitude":"-76.74385000","wikiDataId":"Q3888865"},{"id":121626,"Name":"Mellwood","state_id":1401,"state_code":"MD","state_name":"Maryland","country_id":233,"country_code":"US","country_name":"United States","latitude":"38.81039000","longitude":"-76.82414000","wikiDataId":"Q495261"},{"id":121762,"Name":"Middle River","state_id":1401,"state_code":"MD","state_name":"Maryland","country_id":233,"country_code":"US","country_name":"United States","latitude":"39.33427000","longitude":"-76.43941000","wikiDataId":"Q754852"},{"id":121786,"Name":"Middletown","state_id":1401,"state_code":"MD","state_name":"Maryland","country_id":233,"country_code":"US","country_name":"United States","latitude":"39.44371000","longitude":"-77.54471000","wikiDataId":"Q756107"},{"id":121860,"Name":"Milford Mill","state_id":1401,"state_code":"MD","state_name":"Maryland","country_id":233,"country_code":"US","country_name":"United States","latitude":"39.34788000","longitude":"-76.76997000","wikiDataId":"Q753988"},{"id":122004,"Name":"Mitchellville","state_id":1401,"state_code":"MD","state_name":"Maryland","country_id":233,"country_code":"US","country_name":"United States","latitude":"38.92511000","longitude":"-76.74275000","wikiDataId":"Q753993"},{"id":122145,"Name":"Montgomery County","state_id":1401,"state_code":"MD","state_name":"Maryland","country_id":233,"country_code":"US","country_name":"United States","latitude":"39.13638000","longitude":"-77.20424000","wikiDataId":"Q488659"},{"id":122156,"Name":"Montgomery Village","state_id":1401,"state_code":"MD","state_name":"Maryland","country_id":233,"country_code":"US","country_name":"United States","latitude":"39.17677000","longitude":"-77.19526000","wikiDataId":"Q754801"},{"id":122257,"Name":"Morningside","state_id":1401,"state_code":"MD","state_name":"Maryland","country_id":233,"country_code":"US","country_name":"United States","latitude":"38.83011000","longitude":"-76.89136000","wikiDataId":"Q754909"},{"id":122330,"Name":"Mount Airy","state_id":1401,"state_code":"MD","state_name":"Maryland","country_id":233,"country_code":"US","country_name":"United States","latitude":"39.37621000","longitude":"-77.15470000","wikiDataId":"Q753395"},{"id":122387,"Name":"Mount Rainier","state_id":1401,"state_code":"MD","state_name":"Maryland","country_id":233,"country_code":"US","country_name":"United States","latitude":"38.94150000","longitude":"-76.96498000","wikiDataId":"Q754601"},{"id":122421,"Name":"Mountain Lake Park","state_id":1401,"state_code":"MD","state_name":"Maryland","country_id":233,"country_code":"US","country_name":"United States","latitude":"39.39843000","longitude":"-79.38171000","wikiDataId":"Q755820"},{"id":122519,"Name":"Myersville","state_id":1401,"state_code":"MD","state_name":"Maryland","country_id":233,"country_code":"US","country_name":"United States","latitude":"39.50510000","longitude":"-77.56638000","wikiDataId":"Q754644"},{"id":122592,"Name":"National Harbor","state_id":1401,"state_code":"MD","state_name":"Maryland","country_id":233,"country_code":"US","country_name":"United States","latitude":"38.78264000","longitude":"-77.01506000","wikiDataId":"Q3887684"},{"id":122599,"Name":"Naval Academy","state_id":1401,"state_code":"MD","state_name":"Maryland","country_id":233,"country_code":"US","country_name":"United States","latitude":"38.98568000","longitude":"-76.48774000","wikiDataId":"Q567744"},{"id":122681,"Name":"New Carrollton","state_id":1401,"state_code":"MD","state_name":"Maryland","country_id":233,"country_code":"US","country_name":"United States","latitude":"38.96983000","longitude":"-76.87997000","wikiDataId":"Q754415"},{"id":122793,"Name":"New Windsor","state_id":1401,"state_code":"MD","state_name":"Maryland","country_id":233,"country_code":"US","country_name":"United States","latitude":"39.54205000","longitude":"-77.10804000","wikiDataId":"Q756365"},{"id":122977,"Name":"North Beach","state_id":1401,"state_code":"MD","state_name":"Maryland","country_id":233,"country_code":"US","country_name":"United States","latitude":"38.70734000","longitude":"-76.53107000","wikiDataId":"Q754710"},{"id":122979,"Name":"North Bel Air","state_id":1401,"state_code":"MD","state_name":"Maryland","country_id":233,"country_code":"US","country_name":"United States","latitude":"39.53983000","longitude":"-76.35496000","wikiDataId":"Q1085406"},{"id":122989,"Name":"North Bethesda","state_id":1401,"state_code":"MD","state_name":"Maryland","country_id":233,"country_code":"US","country_name":"United States","latitude":"39.04455000","longitude":"-77.11887000","wikiDataId":"Q602896"},{"id":123017,"Name":"North East","state_id":1401,"state_code":"MD","state_name":"Maryland","country_id":233,"country_code":"US","country_name":"United States","latitude":"39.60011000","longitude":"-75.94133000","wikiDataId":"Q571856"},{"id":123046,"Name":"North Kensington","state_id":1401,"state_code":"MD","state_name":"Maryland","country_id":233,"country_code":"US","country_name":"United States","latitude":"39.03039000","longitude":"-77.07248000","wikiDataId":"Q587191"},{"id":123054,"Name":"North Laurel","state_id":1401,"state_code":"MD","state_name":"Maryland","country_id":233,"country_code":"US","country_name":"United States","latitude":"39.13900000","longitude":"-76.87053000","wikiDataId":"Q525718"},{"id":123087,"Name":"North Potomac","state_id":1401,"state_code":"MD","state_name":"Maryland","country_id":233,"country_code":"US","country_name":"United States","latitude":"39.08289000","longitude":"-77.26498000","wikiDataId":"Q518064"},{"id":123284,"Name":"Oakland","state_id":1401,"state_code":"MD","state_name":"Maryland","country_id":233,"country_code":"US","country_name":"United States","latitude":"39.40787000","longitude":"-79.40671000","wikiDataId":"Q755860"},{"id":123326,"Name":"Ocean City","state_id":1401,"state_code":"MD","state_name":"Maryland","country_id":233,"country_code":"US","country_name":"United States","latitude":"38.33650000","longitude":"-75.08491000","wikiDataId":"Q687905"},{"id":123333,"Name":"Ocean Pines","state_id":1401,"state_code":"MD","state_name":"Maryland","country_id":233,"country_code":"US","country_name":"United States","latitude":"38.39539000","longitude":"-75.15574000","wikiDataId":"Q756573"},{"id":123356,"Name":"Odenton","state_id":1401,"state_code":"MD","state_name":"Maryland","country_id":233,"country_code":"US","country_name":"United States","latitude":"39.08400000","longitude":"-76.70025000","wikiDataId":"Q753584"},{"id":123456,"Name":"Olney","state_id":1401,"state_code":"MD","state_name":"Maryland","country_id":233,"country_code":"US","country_name":"United States","latitude":"39.15316000","longitude":"-77.06692000","wikiDataId":"Q754434"},{"id":123652,"Name":"Overlea","state_id":1401,"state_code":"MD","state_name":"Maryland","country_id":233,"country_code":"US","country_name":"United States","latitude":"39.36344000","longitude":"-76.52052000","wikiDataId":"Q754466"},{"id":123668,"Name":"Owings","state_id":1401,"state_code":"MD","state_name":"Maryland","country_id":233,"country_code":"US","country_name":"United States","latitude":"38.71762000","longitude":"-76.60135000","wikiDataId":"Q754934"},{"id":123669,"Name":"Owings Mills","state_id":1401,"state_code":"MD","state_name":"Maryland","country_id":233,"country_code":"US","country_name":"United States","latitude":"39.41955000","longitude":"-76.78025000","wikiDataId":"Q755623"},{"id":123691,"Name":"Oxon Hill","state_id":1401,"state_code":"MD","state_name":"Maryland","country_id":233,"country_code":"US","country_name":"United States","latitude":"38.80345000","longitude":"-76.98970000","wikiDataId":"Q3888021"},{"id":123692,"Name":"Oxon Hill-Glassmanor","state_id":1401,"state_code":"MD","state_name":"Maryland","country_id":233,"country_code":"US","country_name":"United States","latitude":"38.79615000","longitude":"-76.97499000","wikiDataId":"Q754358"},{"id":123825,"Name":"Paramount-Long Meadow","state_id":1401,"state_code":"MD","state_name":"Maryland","country_id":233,"country_code":"US","country_name":"United States","latitude":"39.68042000","longitude":"-77.69290000","wikiDataId":"Q754953"},{"id":123877,"Name":"Parkville","state_id":1401,"state_code":"MD","state_name":"Maryland","country_id":233,"country_code":"US","country_name":"United States","latitude":"39.37733000","longitude":"-76.53969000","wikiDataId":"Q755039"},{"id":123887,"Name":"Parole","state_id":1401,"state_code":"MD","state_name":"Maryland","country_id":233,"country_code":"US","country_name":"United States","latitude":"38.97956000","longitude":"-76.53052000","wikiDataId":"Q749977"},{"id":123895,"Name":"Pasadena","state_id":1401,"state_code":"MD","state_name":"Maryland","country_id":233,"country_code":"US","country_name":"United States","latitude":"39.10733000","longitude":"-76.57108000","wikiDataId":"Q755602"},{"id":124055,"Name":"Peppermill Village","state_id":1401,"state_code":"MD","state_name":"Maryland","country_id":233,"country_code":"US","country_name":"United States","latitude":"38.89472000","longitude":"-76.88654000","wikiDataId":"Q6071934"},{"id":124083,"Name":"Perry Hall","state_id":1401,"state_code":"MD","state_name":"Maryland","country_id":233,"country_code":"US","country_name":"United States","latitude":"39.41261000","longitude":"-76.46357000","wikiDataId":"Q754681"},{"id":124085,"Name":"Perryman","state_id":1401,"state_code":"MD","state_name":"Maryland","country_id":233,"country_code":"US","country_name":"United States","latitude":"39.46955000","longitude":"-76.20440000","wikiDataId":"Q754772"},{"id":124090,"Name":"Perryville","state_id":1401,"state_code":"MD","state_name":"Maryland","country_id":233,"country_code":"US","country_name":"United States","latitude":"39.56011000","longitude":"-76.07134000","wikiDataId":"Q753761"},{"id":124197,"Name":"Pikesville","state_id":1401,"state_code":"MD","state_name":"Maryland","country_id":233,"country_code":"US","country_name":"United States","latitude":"39.37427000","longitude":"-76.72247000","wikiDataId":"Q755020"},{"id":124305,"Name":"Pittsville","state_id":1401,"state_code":"MD","state_name":"Maryland","country_id":233,"country_code":"US","country_name":"United States","latitude":"38.39539000","longitude":"-75.41297000","wikiDataId":"Q753840"},{"id":124373,"Name":"Pleasant Hills","state_id":1401,"state_code":"MD","state_name":"Maryland","country_id":233,"country_code":"US","country_name":"United States","latitude":"39.47955000","longitude":"-76.39413000","wikiDataId":"Q753946"},{"id":124420,"Name":"Pocomoke City","state_id":1401,"state_code":"MD","state_name":"Maryland","country_id":233,"country_code":"US","country_name":"United States","latitude":"38.07568000","longitude":"-75.56798000","wikiDataId":"Q755569"},{"id":124434,"Name":"Point of Rocks","state_id":1401,"state_code":"MD","state_name":"Maryland","country_id":233,"country_code":"US","country_name":"United States","latitude":"39.27594000","longitude":"-77.53915000","wikiDataId":"Q3886924"},{"id":124480,"Name":"Poolesville","state_id":1401,"state_code":"MD","state_name":"Maryland","country_id":233,"country_code":"US","country_name":"United States","latitude":"39.14594000","longitude":"-77.41693000","wikiDataId":"Q755052"},{"id":124582,"Name":"Potomac","state_id":1401,"state_code":"MD","state_name":"Maryland","country_id":233,"country_code":"US","country_name":"United States","latitude":"39.01817000","longitude":"-77.20859000","wikiDataId":"Q755844"},{"id":124583,"Name":"Potomac Heights","state_id":1401,"state_code":"MD","state_name":"Maryland","country_id":233,"country_code":"US","country_name":"United States","latitude":"38.60873000","longitude":"-77.14053000","wikiDataId":"Q754536"},{"id":124585,"Name":"Potomac Park","state_id":1401,"state_code":"MD","state_name":"Maryland","country_id":233,"country_code":"US","country_name":"United States","latitude":"39.61176000","longitude":"-78.80585000","wikiDataId":"Q3885663"},{"id":124673,"Name":"Prince Frederick","state_id":1401,"state_code":"MD","state_name":"Maryland","country_id":233,"country_code":"US","country_name":"United States","latitude":"38.54040000","longitude":"-76.58440000","wikiDataId":"Q754567"},{"id":124676,"Name":"Prince George's County","state_id":1401,"state_code":"MD","state_name":"Maryland","country_id":233,"country_code":"US","country_name":"United States","latitude":"38.82952000","longitude":"-76.84729000","wikiDataId":"Q26807"},{"id":124679,"Name":"Princess Anne","state_id":1401,"state_code":"MD","state_name":"Maryland","country_id":233,"country_code":"US","country_name":"United States","latitude":"38.20290000","longitude":"-75.69243000","wikiDataId":"Q754512"},{"id":124745,"Name":"Pumphrey","state_id":1401,"state_code":"MD","state_name":"Maryland","country_id":233,"country_code":"US","country_name":"United States","latitude":"39.21733000","longitude":"-76.63719000","wikiDataId":"Q756550"},{"id":124785,"Name":"Queen Anne","state_id":1401,"state_code":"MD","state_name":"Maryland","country_id":233,"country_code":"US","country_name":"United States","latitude":"38.89872000","longitude":"-76.67830000","wikiDataId":"Q489642"},{"id":124786,"Name":"Queen Anne's County","state_id":1401,"state_code":"MD","state_name":"Maryland","country_id":233,"country_code":"US","country_name":"United States","latitude":"39.03763000","longitude":"-76.08504000","wikiDataId":"Q511150"},{"id":124789,"Name":"Queenland","state_id":1401,"state_code":"MD","state_name":"Maryland","country_id":233,"country_code":"US","country_name":"United States","latitude":"38.80524000","longitude":"-76.79126000","wikiDataId":"Q6094353"},{"id":124863,"Name":"Randallstown","state_id":1401,"state_code":"MD","state_name":"Maryland","country_id":233,"country_code":"US","country_name":"United States","latitude":"39.36733000","longitude":"-76.79525000","wikiDataId":"Q755604"},{"id":124974,"Name":"Redland","state_id":1401,"state_code":"MD","state_name":"Maryland","country_id":233,"country_code":"US","country_name":"United States","latitude":"39.14539000","longitude":"-77.14415000","wikiDataId":"Q754812"},{"id":125012,"Name":"Reisterstown","state_id":1401,"state_code":"MD","state_name":"Maryland","country_id":233,"country_code":"US","country_name":"United States","latitude":"39.46976000","longitude":"-76.83190000","wikiDataId":"Q755255"},{"id":125125,"Name":"Ridgely","state_id":1401,"state_code":"MD","state_name":"Maryland","country_id":233,"country_code":"US","country_name":"United States","latitude":"38.94789000","longitude":"-75.88438000","wikiDataId":"Q754945"},{"id":125170,"Name":"Rising Sun","state_id":1401,"state_code":"MD","state_name":"Maryland","country_id":233,"country_code":"US","country_name":"United States","latitude":"39.69789000","longitude":"-76.06273000","wikiDataId":"Q754858"},{"id":125175,"Name":"Riva","state_id":1401,"state_code":"MD","state_name":"Maryland","country_id":233,"country_code":"US","country_name":"United States","latitude":"38.95206000","longitude":"-76.57802000","wikiDataId":"Q754654"},{"id":125198,"Name":"Riverdale Park","state_id":1401,"state_code":"MD","state_name":"Maryland","country_id":233,"country_code":"US","country_name":"United States","latitude":"38.96344000","longitude":"-76.93164000","wikiDataId":"Q754948"},{"id":125202,"Name":"Riverside","state_id":1401,"state_code":"MD","state_name":"Maryland","country_id":233,"country_code":"US","country_name":"United States","latitude":"39.47372000","longitude":"-76.24134000","wikiDataId":"Q614798"},{"id":125222,"Name":"Riviera Beach","state_id":1401,"state_code":"MD","state_name":"Maryland","country_id":233,"country_code":"US","country_name":"United States","latitude":"39.16678000","longitude":"-76.50802000","wikiDataId":"Q753544"},{"id":125255,"Name":"Robinwood","state_id":1401,"state_code":"MD","state_name":"Maryland","country_id":233,"country_code":"US","country_name":"United States","latitude":"39.63704000","longitude":"-77.65694000","wikiDataId":"Q981477"},{"id":125278,"Name":"Rock Hall","state_id":1401,"state_code":"MD","state_name":"Maryland","country_id":233,"country_code":"US","country_name":"United States","latitude":"39.13817000","longitude":"-76.23495000","wikiDataId":"Q510434"},{"id":125322,"Name":"Rockville","state_id":1401,"state_code":"MD","state_name":"Maryland","country_id":233,"country_code":"US","country_name":"United States","latitude":"39.08400000","longitude":"-77.15276000","wikiDataId":"Q327022"},{"id":125398,"Name":"Rosaryville","state_id":1401,"state_code":"MD","state_name":"Maryland","country_id":233,"country_code":"US","country_name":"United States","latitude":"38.75678000","longitude":"-76.80969000","wikiDataId":"Q753965"},{"id":125416,"Name":"Rosedale","state_id":1401,"state_code":"MD","state_name":"Maryland","country_id":233,"country_code":"US","country_name":"United States","latitude":"39.32011000","longitude":"-76.51552000","wikiDataId":"Q648142"},{"id":125453,"Name":"Rossmoor","state_id":1401,"state_code":"MD","state_name":"Maryland","country_id":233,"country_code":"US","country_name":"United States","latitude":"39.10372000","longitude":"-77.07109000","wikiDataId":"Q754920"},{"id":125458,"Name":"Rossville","state_id":1401,"state_code":"MD","state_name":"Maryland","country_id":233,"country_code":"US","country_name":"United States","latitude":"39.33844000","longitude":"-76.47968000","wikiDataId":"Q754985"},{"id":125611,"Name":"Saint Charles","state_id":1401,"state_code":"MD","state_name":"Maryland","country_id":233,"country_code":"US","country_name":"United States","latitude":"38.60317000","longitude":"-76.93858000","wikiDataId":"Q755927"},{"id":125652,"Name":"Saint James","state_id":1401,"state_code":"MD","state_name":"Maryland","country_id":233,"country_code":"US","country_name":"United States","latitude":"39.56260000","longitude":"-77.75805000","wikiDataId":"Q2115390"},{"id":125691,"Name":"Saint Mary's County","state_id":1401,"state_code":"MD","state_name":"Maryland","country_id":233,"country_code":"US","country_name":"United States","latitude":"38.21586000","longitude":"-76.52906000","wikiDataId":"Q511120"},{"id":125698,"Name":"Saint Michaels","state_id":1401,"state_code":"MD","state_name":"Maryland","country_id":233,"country_code":"US","country_name":"United States","latitude":"38.78512000","longitude":"-76.22439000","wikiDataId":"Q753688"},{"id":125754,"Name":"Salisbury","state_id":1401,"state_code":"MD","state_name":"Maryland","country_id":233,"country_code":"US","country_name":"United States","latitude":"38.36067000","longitude":"-75.59937000","wikiDataId":"Q755566"},{"id":125971,"Name":"Savage","state_id":1401,"state_code":"MD","state_name":"Maryland","country_id":233,"country_code":"US","country_name":"United States","latitude":"39.13789000","longitude":"-76.82386000","wikiDataId":"Q828729"},{"id":125994,"Name":"Scaggsville","state_id":1401,"state_code":"MD","state_name":"Maryland","country_id":233,"country_code":"US","country_name":"United States","latitude":"39.14511000","longitude":"-76.90025000","wikiDataId":"Q3886356"},{"id":126078,"Name":"Seabrook","state_id":1401,"state_code":"MD","state_name":"Maryland","country_id":233,"country_code":"US","country_name":"United States","latitude":"38.96805000","longitude":"-76.84658000","wikiDataId":"Q936644"},{"id":126103,"Name":"Seat Pleasant","state_id":1401,"state_code":"MD","state_name":"Maryland","country_id":233,"country_code":"US","country_name":"United States","latitude":"38.89622000","longitude":"-76.90664000","wikiDataId":"Q753716"},{"id":126131,"Name":"Selby-on-the-Bay","state_id":1401,"state_code":"MD","state_name":"Maryland","country_id":233,"country_code":"US","country_name":"United States","latitude":"38.91622000","longitude":"-76.52246000","wikiDataId":"Q755839"},{"id":126178,"Name":"Severn","state_id":1401,"state_code":"MD","state_name":"Maryland","country_id":233,"country_code":"US","country_name":"United States","latitude":"39.13705000","longitude":"-76.69830000","wikiDataId":"Q755156"},{"id":126179,"Name":"Severna Park","state_id":1401,"state_code":"MD","state_name":"Maryland","country_id":233,"country_code":"US","country_name":"United States","latitude":"39.07039000","longitude":"-76.54524000","wikiDataId":"Q755102"},{"id":126207,"Name":"Shady Side","state_id":1401,"state_code":"MD","state_name":"Maryland","country_id":233,"country_code":"US","country_name":"United States","latitude":"38.84178000","longitude":"-76.51218000","wikiDataId":"Q754732"},{"id":126426,"Name":"Silver Hill","state_id":1401,"state_code":"MD","state_name":"Maryland","country_id":233,"country_code":"US","country_name":"United States","latitude":"38.84178000","longitude":"-76.94581000","wikiDataId":"Q7516063"},{"id":126434,"Name":"Silver Spring","state_id":1401,"state_code":"MD","state_name":"Maryland","country_id":233,"country_code":"US","country_name":"United States","latitude":"38.99067000","longitude":"-77.02609000","wikiDataId":"Q755741"},{"id":126524,"Name":"Smithsburg","state_id":1401,"state_code":"MD","state_name":"Maryland","country_id":233,"country_code":"US","country_name":"United States","latitude":"39.65482000","longitude":"-77.57277000","wikiDataId":"Q754588"},{"id":126545,"Name":"Snow Hill","state_id":1401,"state_code":"MD","state_name":"Maryland","country_id":233,"country_code":"US","country_name":"United States","latitude":"38.17706000","longitude":"-75.39270000","wikiDataId":"Q754519"},{"id":126570,"Name":"Solomons","state_id":1401,"state_code":"MD","state_name":"Maryland","country_id":233,"country_code":"US","country_name":"United States","latitude":"38.31846000","longitude":"-76.45412000","wikiDataId":"Q753730"},{"id":126579,"Name":"Somerset","state_id":1401,"state_code":"MD","state_name":"Maryland","country_id":233,"country_code":"US","country_name":"United States","latitude":"38.96594000","longitude":"-77.09609000","wikiDataId":"Q753952"},{"id":126586,"Name":"Somerset County","state_id":1401,"state_code":"MD","state_name":"Maryland","country_id":233,"country_code":"US","country_name":"United States","latitude":"38.08007000","longitude":"-75.85347000","wikiDataId":"Q511135"},{"id":126621,"Name":"South Bel Air","state_id":1401,"state_code":"MD","state_name":"Maryland","country_id":233,"country_code":"US","country_name":"United States","latitude":"39.53316000","longitude":"-76.33746000","wikiDataId":"Q2570675"},{"id":126658,"Name":"South Gate","state_id":1401,"state_code":"MD","state_name":"Maryland","country_id":233,"country_code":"US","country_name":"United States","latitude":"39.12900000","longitude":"-76.62580000","wikiDataId":"Q754528"},{"id":126682,"Name":"South Kensington","state_id":1401,"state_code":"MD","state_name":"Maryland","country_id":233,"country_code":"US","country_name":"United States","latitude":"39.01900000","longitude":"-77.07998000","wikiDataId":"Q754646"},{"id":126686,"Name":"South Laurel","state_id":1401,"state_code":"MD","state_name":"Maryland","country_id":233,"country_code":"US","country_name":"United States","latitude":"39.06983000","longitude":"-76.85025000","wikiDataId":"Q754862"},{"id":126831,"Name":"Spencerville","state_id":1401,"state_code":"MD","state_name":"Maryland","country_id":233,"country_code":"US","country_name":"United States","latitude":"39.11427000","longitude":"-76.97831000","wikiDataId":"Q3885732"},{"id":126872,"Name":"Spring Ridge","state_id":1401,"state_code":"MD","state_name":"Maryland","country_id":233,"country_code":"US","country_name":"United States","latitude":"39.40149000","longitude":"-77.35248000","wikiDataId":"Q2327597"},{"id":126884,"Name":"Springdale","state_id":1401,"state_code":"MD","state_name":"Maryland","country_id":233,"country_code":"US","country_name":"United States","latitude":"38.93761000","longitude":"-76.83886000","wikiDataId":"Q753629"},{"id":127047,"Name":"Stevensville","state_id":1401,"state_code":"MD","state_name":"Maryland","country_id":233,"country_code":"US","country_name":"United States","latitude":"38.98067000","longitude":"-76.31440000","wikiDataId":"Q755246"},{"id":127178,"Name":"Suitland","state_id":1401,"state_code":"MD","state_name":"Maryland","country_id":233,"country_code":"US","country_name":"United States","latitude":"38.84872000","longitude":"-76.92386000","wikiDataId":"Q3886817"},{"id":127179,"Name":"Suitland-Silver Hill","state_id":1401,"state_code":"MD","state_name":"Maryland","country_id":233,"country_code":"US","country_name":"United States","latitude":"38.84685000","longitude":"-76.92591000","wikiDataId":"Q754720"},{"id":127203,"Name":"Summerfield","state_id":1401,"state_code":"MD","state_name":"Maryland","country_id":233,"country_code":"US","country_name":"United States","latitude":"38.90454000","longitude":"-76.86830000","wikiDataId":"Q6135493"},{"id":127352,"Name":"Sykesville","state_id":1401,"state_code":"MD","state_name":"Maryland","country_id":233,"country_code":"US","country_name":"United States","latitude":"39.37371000","longitude":"-76.96776000","wikiDataId":"Q753667"},{"id":127382,"Name":"Takoma Park","state_id":1401,"state_code":"MD","state_name":"Maryland","country_id":233,"country_code":"US","country_name":"United States","latitude":"38.97789000","longitude":"-77.00748000","wikiDataId":"Q754271"},{"id":127384,"Name":"Talbot County","state_id":1401,"state_code":"MD","state_name":"Maryland","country_id":233,"country_code":"US","country_name":"United States","latitude":"38.74910000","longitude":"-76.17862000","wikiDataId":"Q511084"},{"id":127411,"Name":"Taneytown","state_id":1401,"state_code":"MD","state_name":"Maryland","country_id":233,"country_code":"US","country_name":"United States","latitude":"39.65788000","longitude":"-77.17443000","wikiDataId":"Q754640"},{"id":127502,"Name":"Temple Hills","state_id":1401,"state_code":"MD","state_name":"Maryland","country_id":233,"country_code":"US","country_name":"United States","latitude":"38.81400000","longitude":"-76.94553000","wikiDataId":"Q754167"},{"id":127629,"Name":"Thurmont","state_id":1401,"state_code":"MD","state_name":"Maryland","country_id":233,"country_code":"US","country_name":"United States","latitude":"39.62371000","longitude":"-77.41082000","wikiDataId":"Q755596"},{"id":127663,"Name":"Timonium","state_id":1401,"state_code":"MD","state_name":"Maryland","country_id":233,"country_code":"US","country_name":"United States","latitude":"39.43705000","longitude":"-76.61969000","wikiDataId":"Q7806933"},{"id":127768,"Name":"Towson","state_id":1401,"state_code":"MD","state_name":"Maryland","country_id":233,"country_code":"US","country_name":"United States","latitude":"39.40150000","longitude":"-76.60191000","wikiDataId":"Q755615"},{"id":127781,"Name":"Trappe","state_id":1401,"state_code":"MD","state_name":"Maryland","country_id":233,"country_code":"US","country_name":"United States","latitude":"38.65845000","longitude":"-76.05800000","wikiDataId":"Q753815"},{"id":127786,"Name":"Travilah","state_id":1401,"state_code":"MD","state_name":"Maryland","country_id":233,"country_code":"US","country_name":"United States","latitude":"39.06900000","longitude":"-77.26304000","wikiDataId":"Q753423"},{"id":128032,"Name":"University Park","state_id":1401,"state_code":"MD","state_name":"Maryland","country_id":233,"country_code":"US","country_name":"United States","latitude":"38.97039000","longitude":"-76.94192000","wikiDataId":"Q753491"},{"id":128046,"Name":"Upper Marlboro","state_id":1401,"state_code":"MD","state_name":"Maryland","country_id":233,"country_code":"US","country_name":"United States","latitude":"38.81595000","longitude":"-76.74969000","wikiDataId":"Q753334"},{"id":128060,"Name":"Urbana","state_id":1401,"state_code":"MD","state_name":"Maryland","country_id":233,"country_code":"US","country_name":"United States","latitude":"39.32594000","longitude":"-77.35137000","wikiDataId":"Q3482438"},{"id":128375,"Name":"Waldorf","state_id":1401,"state_code":"MD","state_name":"Maryland","country_id":233,"country_code":"US","country_name":"United States","latitude":"38.62456000","longitude":"-76.93914000","wikiDataId":"Q755056"},{"id":128389,"Name":"Walker Mill","state_id":1401,"state_code":"MD","state_name":"Maryland","country_id":233,"country_code":"US","country_name":"United States","latitude":"38.87539000","longitude":"-76.88831000","wikiDataId":"Q754593"},{"id":128390,"Name":"Walkersville","state_id":1401,"state_code":"MD","state_name":"Maryland","country_id":233,"country_code":"US","country_name":"United States","latitude":"39.48621000","longitude":"-77.35193000","wikiDataId":"Q755672"},{"id":128560,"Name":"Washington County","state_id":1401,"state_code":"MD","state_name":"Maryland","country_id":233,"country_code":"US","country_name":"United States","latitude":"39.60367000","longitude":"-77.81398000","wikiDataId":"Q511164"},{"id":128860,"Name":"West Elkridge","state_id":1401,"state_code":"MD","state_name":"Maryland","country_id":233,"country_code":"US","country_name":"United States","latitude":"39.20705000","longitude":"-76.72692000","wikiDataId":"Q952475"},{"id":128912,"Name":"West Laurel","state_id":1401,"state_code":"MD","state_name":"Maryland","country_id":233,"country_code":"US","country_name":"United States","latitude":"39.10122000","longitude":"-76.89970000","wikiDataId":"Q754866"},{"id":128943,"Name":"West Ocean City","state_id":1401,"state_code":"MD","state_name":"Maryland","country_id":233,"country_code":"US","country_name":"United States","latitude":"38.33150000","longitude":"-75.10685000","wikiDataId":"Q754685"},{"id":129026,"Name":"Westernport","state_id":1401,"state_code":"MD","state_name":"Maryland","country_id":233,"country_code":"US","country_name":"United States","latitude":"39.48537000","longitude":"-79.04475000","wikiDataId":"Q754524"},{"id":129043,"Name":"Westminster","state_id":1401,"state_code":"MD","state_name":"Maryland","country_id":233,"country_code":"US","country_name":"United States","latitude":"39.57538000","longitude":"-76.99581000","wikiDataId":"Q755018"},{"id":129069,"Name":"Westphalia","state_id":1401,"state_code":"MD","state_name":"Maryland","country_id":233,"country_code":"US","country_name":"United States","latitude":"38.84539000","longitude":"-76.81108000","wikiDataId":"Q6167009"},{"id":129112,"Name":"Wheaton","state_id":1401,"state_code":"MD","state_name":"Maryland","country_id":233,"country_code":"US","country_name":"United States","latitude":"39.03983000","longitude":"-77.05526000","wikiDataId":"Q7991947"},{"id":129145,"Name":"White Marsh","state_id":1401,"state_code":"MD","state_name":"Maryland","country_id":233,"country_code":"US","country_name":"United States","latitude":"39.38372000","longitude":"-76.43218000","wikiDataId":"Q2542346"},{"id":129148,"Name":"White Oak","state_id":1401,"state_code":"MD","state_name":"Maryland","country_id":233,"country_code":"US","country_name":"United States","latitude":"39.03983000","longitude":"-76.99303000","wikiDataId":"Q753641"},{"id":129222,"Name":"Wicomico County","state_id":1401,"state_code":"MD","state_name":"Maryland","country_id":233,"country_code":"US","country_name":"United States","latitude":"38.36942000","longitude":"-75.63151000","wikiDataId":"Q511106"},{"id":129279,"Name":"Williamsport","state_id":1401,"state_code":"MD","state_name":"Maryland","country_id":233,"country_code":"US","country_name":"United States","latitude":"39.60065000","longitude":"-77.82055000","wikiDataId":"Q755892"},{"id":129338,"Name":"Wilson-Conococheague","state_id":1401,"state_code":"MD","state_name":"Maryland","country_id":233,"country_code":"US","country_name":"United States","latitude":"39.65351000","longitude":"-77.83157000","wikiDataId":"Q755062"},{"id":129534,"Name":"Woodlawn","state_id":1401,"state_code":"MD","state_name":"Maryland","country_id":233,"country_code":"US","country_name":"United States","latitude":"39.32288000","longitude":"-76.72803000","wikiDataId":"Q754435"},{"id":129544,"Name":"Woodmore","state_id":1401,"state_code":"MD","state_name":"Maryland","country_id":233,"country_code":"US","country_name":"United States","latitude":"38.92122000","longitude":"-76.80303000","wikiDataId":"Q753530"},{"id":129552,"Name":"Woodsboro","state_id":1401,"state_code":"MD","state_name":"Maryland","country_id":233,"country_code":"US","country_name":"United States","latitude":"39.53316000","longitude":"-77.31471000","wikiDataId":"Q755889"},{"id":129586,"Name":"Worcester County","state_id":1401,"state_code":"MD","state_name":"Maryland","country_id":233,"country_code":"US","country_name":"United States","latitude":"38.21650000","longitude":"-75.29667000","wikiDataId":"Q494072"}]