[{"id":68023,"Name":"Acachuén","state_id":3450,"state_code":"MEX","state_name":"Estado de México","country_id":142,"country_code":"MX","country_name":"Mexico","latitude":"19.84715000","longitude":"-102.09272000","wikiDataId":"Q20129499"},{"id":68031,"Name":"Acalpican de Morelos","state_id":3450,"state_code":"MEX","state_name":"Estado de México","country_id":142,"country_code":"MX","country_name":"Mexico","latitude":"18.01854000","longitude":"-102.34033000","wikiDataId":"Q1577295"},{"id":68032,"Name":"Acambay","state_id":3450,"state_code":"MEX","state_name":"Estado de México","country_id":142,"country_code":"MX","country_name":"Mexico","latitude":"19.95522000","longitude":"-99.84428000","wikiDataId":"Q535078"},{"id":68054,"Name":"Acatzingo (Acatzingo de la Piedra)","state_id":3450,"state_code":"MEX","state_name":"Estado de México","country_id":142,"country_code":"MX","country_name":"Mexico","latitude":"18.92389000","longitude":"-99.58861000","wikiDataId":"Q20236922"},{"id":68063,"Name":"Acolman de Netzahualcóyotl","state_id":3450,"state_code":"MEX","state_name":"Estado de México","country_id":142,"country_code":"MX","country_name":"Mexico","latitude":"19.63976000","longitude":"-98.90777000","wikiDataId":"Q1862947"},{"id":68079,"Name":"Acuitlapilco","state_id":3450,"state_code":"MEX","state_name":"Estado de México","country_id":142,"country_code":"MX","country_name":"Mexico","latitude":"18.90873000","longitude":"-99.78464000","wikiDataId":"Q20232045"},{"id":68082,"Name":"Aculco de Espinoza","state_id":3450,"state_code":"MEX","state_name":"Estado de México","country_id":142,"country_code":"MX","country_name":"Mexico","latitude":"20.09867000","longitude":"-99.82757000","wikiDataId":"Q3354618"},{"id":68104,"Name":"Agua Blanca","state_id":3450,"state_code":"MEX","state_name":"Estado de México","country_id":142,"country_code":"MX","country_name":"Mexico","latitude":"19.22056000","longitude":"-99.47056000","wikiDataId":"Q20130737"},{"id":68107,"Name":"Agua Caliente","state_id":3450,"state_code":"MEX","state_name":"Estado de México","country_id":142,"country_code":"MX","country_name":"Mexico","latitude":"19.90011000","longitude":"-100.17186000","wikiDataId":"Q20130737"},{"id":68111,"Name":"Agua Escondida","state_id":3450,"state_code":"MEX","state_name":"Estado de México","country_id":142,"country_code":"MX","country_name":"Mexico","latitude":"19.97893000","longitude":"-99.57829000","wikiDataId":"Q20131591"},{"id":68133,"Name":"Ahuacatitlán","state_id":3450,"state_code":"MEX","state_name":"Estado de México","country_id":142,"country_code":"MX","country_name":"Mexico","latitude":"18.89414000","longitude":"-99.70867000","wikiDataId":"Q20205391"},{"id":68134,"Name":"Ahuacatitlán Cuarto y Quinto Cuartel","state_id":3450,"state_code":"MEX","state_name":"Estado de México","country_id":142,"country_code":"MX","country_name":"Mexico","latitude":"19.96222000","longitude":"-99.98694000","wikiDataId":"Q20133287"},{"id":68178,"Name":"Alborada Jaltenco","state_id":3450,"state_code":"MEX","state_name":"Estado de México","country_id":142,"country_code":"MX","country_name":"Mexico","latitude":"19.66194000","longitude":"-99.06889000","wikiDataId":"Q16487070"},{"id":68215,"Name":"Almoloya de Alquisiras","state_id":3450,"state_code":"MEX","state_name":"Estado de México","country_id":142,"country_code":"MX","country_name":"Mexico","latitude":"18.84217000","longitude":"-99.86416000","wikiDataId":"Q2429880"},{"id":68216,"Name":"Almoloya del Río","state_id":3450,"state_code":"MEX","state_name":"Estado de México","country_id":142,"country_code":"MX","country_name":"Mexico","latitude":"19.16046000","longitude":"-99.48740000","wikiDataId":"Q3409798"},{"id":68235,"Name":"Amanalco de Becerra","state_id":3450,"state_code":"MEX","state_name":"Estado de México","country_id":142,"country_code":"MX","country_name":"Mexico","latitude":"19.31667000","longitude":"-100.01667000","wikiDataId":"Q20135393"},{"id":68239,"Name":"Amatepec","state_id":3450,"state_code":"MEX","state_name":"Estado de México","country_id":142,"country_code":"MX","country_name":"Mexico","latitude":"18.68222000","longitude":"-100.18583000","wikiDataId":"Q2135975"},{"id":68252,"Name":"Amecameca","state_id":3450,"state_code":"MEX","state_name":"Estado de México","country_id":142,"country_code":"MX","country_name":"Mexico","latitude":"19.12384000","longitude":"-98.76649000","wikiDataId":"Q4064121"},{"id":68260,"Name":"Ampliación San Mateo (Colonia Solidaridad)","state_id":3450,"state_code":"MEX","state_name":"Estado de México","country_id":142,"country_code":"MX","country_name":"Mexico","latitude":"19.61639000","longitude":"-99.14722000","wikiDataId":"Q20274497"},{"id":68261,"Name":"Ampliación Tezoyuca","state_id":3450,"state_code":"MEX","state_name":"Estado de México","country_id":142,"country_code":"MX","country_name":"Mexico","latitude":"19.58057000","longitude":"-98.92053000","wikiDataId":"Q20274497"},{"id":68301,"Name":"Apaxco de Ocampo","state_id":3450,"state_code":"MEX","state_name":"Estado de México","country_id":142,"country_code":"MX","country_name":"Mexico","latitude":"19.97512000","longitude":"-99.17112000","wikiDataId":"Q3574317"},{"id":68334,"Name":"Arbolada los Sauces","state_id":3450,"state_code":"MEX","state_name":"Estado de México","country_id":142,"country_code":"MX","country_name":"Mexico","latitude":"19.81583000","longitude":"-99.04417000","wikiDataId":"Q20274541"},{"id":68346,"Name":"Arenal","state_id":3450,"state_code":"MEX","state_name":"Estado de México","country_id":142,"country_code":"MX","country_name":"Mexico","latitude":"19.38111000","longitude":"-98.94278000","wikiDataId":"Q20274548"},{"id":68400,"Name":"Atenguillo","state_id":3450,"state_code":"MEX","state_name":"Estado de México","country_id":142,"country_code":"MX","country_name":"Mexico","latitude":"19.56361000","longitude":"-98.87639000","wikiDataId":"Q20252636"},{"id":68407,"Name":"Atizapán","state_id":3450,"state_code":"MEX","state_name":"Estado de México","country_id":142,"country_code":"MX","country_name":"Mexico","latitude":"19.25000000","longitude":"-99.55000000","wikiDataId":"Q20139242"},{"id":68411,"Name":"Atlacomulco de Fabela","state_id":3450,"state_code":"MEX","state_name":"Estado de México","country_id":142,"country_code":"MX","country_name":"Mexico","latitude":"19.79919000","longitude":"-99.87500000","wikiDataId":"Q1323910"},{"id":68418,"Name":"Atlatongo","state_id":3450,"state_code":"MEX","state_name":"Estado de México","country_id":142,"country_code":"MX","country_name":"Mexico","latitude":"19.66776000","longitude":"-98.90402000","wikiDataId":"Q20264766"},{"id":68419,"Name":"Atlautla","state_id":3450,"state_code":"MEX","state_name":"Estado de México","country_id":142,"country_code":"MX","country_name":"Mexico","latitude":"19.02188000","longitude":"-98.77859000","wikiDataId":"Q23047418"},{"id":68448,"Name":"Axapusco","state_id":3450,"state_code":"MEX","state_name":"Estado de México","country_id":142,"country_code":"MX","country_name":"Mexico","latitude":"19.72456000","longitude":"-98.75863000","wikiDataId":"Q4830200"},{"id":68453,"Name":"Axotlán","state_id":3450,"state_code":"MEX","state_name":"Estado de México","country_id":142,"country_code":"MX","country_name":"Mexico","latitude":"19.69417000","longitude":"-99.23944000","wikiDataId":"Q20237008"},{"id":68461,"Name":"Ayapango","state_id":3450,"state_code":"MEX","state_name":"Estado de México","country_id":142,"country_code":"MX","country_name":"Mexico","latitude":"19.12692000","longitude":"-98.79988000","wikiDataId":"Q3308521"},{"id":68525,"Name":"Barrio Bordo Nuevo","state_id":3450,"state_code":"MEX","state_name":"Estado de México","country_id":142,"country_code":"MX","country_name":"Mexico","latitude":"19.37917000","longitude":"-99.67333000","wikiDataId":"Q20274727"},{"id":68526,"Name":"Barrio Chiquichuca","state_id":3450,"state_code":"MEX","state_name":"Estado de México","country_id":142,"country_code":"MX","country_name":"Mexico","latitude":"19.32139000","longitude":"-100.21278000","wikiDataId":"Q20237029"},{"id":68527,"Name":"Barrio Cuarto (La Loma)","state_id":3450,"state_code":"MEX","state_name":"Estado de México","country_id":142,"country_code":"MX","country_name":"Mexico","latitude":"19.76861000","longitude":"-99.67694000","wikiDataId":"Q20274728"},{"id":68536,"Name":"Barrio de Arriba de San Juan Xoconusco","state_id":3450,"state_code":"MEX","state_name":"Estado de México","country_id":142,"country_code":"MX","country_name":"Mexico","latitude":"19.32040000","longitude":"-100.27020000","wikiDataId":"Q20237228"},{"id":68537,"Name":"Barrio de Boyecha","state_id":3450,"state_code":"MEX","state_name":"Estado de México","country_id":142,"country_code":"MX","country_name":"Mexico","latitude":"19.70778000","longitude":"-99.68444000","wikiDataId":"Q20141682"},{"id":68538,"Name":"Barrio de Canales","state_id":3450,"state_code":"MEX","state_name":"Estado de México","country_id":142,"country_code":"MX","country_name":"Mexico","latitude":"19.37333000","longitude":"-99.37556000","wikiDataId":"Q20274730"},{"id":68539,"Name":"Barrio de Centro del Cerrillo","state_id":3450,"state_code":"MEX","state_name":"Estado de México","country_id":142,"country_code":"MX","country_name":"Mexico","latitude":"19.53694000","longitude":"-99.95417000","wikiDataId":"Q20141698"},{"id":68540,"Name":"Barrio de Ensido","state_id":3450,"state_code":"MEX","state_name":"Estado de México","country_id":142,"country_code":"MX","country_name":"Mexico","latitude":"19.49389000","longitude":"-99.37444000","wikiDataId":"Q20274733"},{"id":68541,"Name":"Barrio de España","state_id":3450,"state_code":"MEX","state_name":"Estado de México","country_id":142,"country_code":"MX","country_name":"Mexico","latitude":"19.86139000","longitude":"-99.08167000","wikiDataId":"Q20274735"},{"id":68542,"Name":"Barrio de Guadalupe","state_id":3450,"state_code":"MEX","state_name":"Estado de México","country_id":142,"country_code":"MX","country_name":"Mexico","latitude":"19.23054000","longitude":"-98.93090000","wikiDataId":"Q20141756"},{"id":68544,"Name":"Barrio de Jesús Fracción Primera","state_id":3450,"state_code":"MEX","state_name":"Estado de México","country_id":142,"country_code":"MX","country_name":"Mexico","latitude":"19.36778000","longitude":"-99.68694000","wikiDataId":"Q20274737"},{"id":68554,"Name":"Barrio de la Barranca","state_id":3450,"state_code":"MEX","state_name":"Estado de México","country_id":142,"country_code":"MX","country_name":"Mexico","latitude":"19.43583000","longitude":"-99.55833000","wikiDataId":"Q20237058"},{"id":68545,"Name":"Barrio de México","state_id":3450,"state_code":"MEX","state_name":"Estado de México","country_id":142,"country_code":"MX","country_name":"Mexico","latitude":"19.28250000","longitude":"-99.82833000","wikiDataId":"Q20141929"},{"id":68547,"Name":"Barrio de Puentecillas","state_id":3450,"state_code":"MEX","state_name":"Estado de México","country_id":142,"country_code":"MX","country_name":"Mexico","latitude":"19.53558000","longitude":"-99.98463000","wikiDataId":"Q20237068"},{"id":68548,"Name":"Barrio de San Isidro","state_id":3450,"state_code":"MEX","state_name":"Estado de México","country_id":142,"country_code":"MX","country_name":"Mexico","latitude":"19.52139000","longitude":"-99.95861000","wikiDataId":"Q20237074"},{"id":68549,"Name":"Barrio de San Juan","state_id":3450,"state_code":"MEX","state_name":"Estado de México","country_id":142,"country_code":"MX","country_name":"Mexico","latitude":"19.41420000","longitude":"-99.53717000","wikiDataId":"Q20237079"},{"id":68551,"Name":"Barrio de San Miguel","state_id":3450,"state_code":"MEX","state_name":"Estado de México","country_id":142,"country_code":"MX","country_name":"Mexico","latitude":"19.51232000","longitude":"-99.95467000","wikiDataId":"Q20253424"},{"id":68552,"Name":"Barrio de San Pedro la Cabecera","state_id":3450,"state_code":"MEX","state_name":"Estado de México","country_id":142,"country_code":"MX","country_name":"Mexico","latitude":"19.56528000","longitude":"-99.75000000","wikiDataId":"Q20274749"},{"id":68553,"Name":"Barrio de San Ramón","state_id":3450,"state_code":"MEX","state_name":"Estado de México","country_id":142,"country_code":"MX","country_name":"Mexico","latitude":"19.37361000","longitude":"-99.33111000","wikiDataId":"Q20142019"},{"id":68555,"Name":"Barrio del Cajón","state_id":3450,"state_code":"MEX","state_name":"Estado de México","country_id":142,"country_code":"MX","country_name":"Mexico","latitude":"19.39139000","longitude":"-99.65806000","wikiDataId":"Q20237102"},{"id":68556,"Name":"Barrio el Boncho","state_id":3450,"state_code":"MEX","state_name":"Estado de México","country_id":142,"country_code":"MX","country_name":"Mexico","latitude":"19.42611000","longitude":"-100.10639000","wikiDataId":"Q20142197"},{"id":68557,"Name":"Barrio el Vivero","state_id":3450,"state_code":"MEX","state_name":"Estado de México","country_id":142,"country_code":"MX","country_name":"Mexico","latitude":"19.45306000","longitude":"-100.03528000","wikiDataId":"Q20237130"},{"id":68558,"Name":"Barrio la Joya","state_id":3450,"state_code":"MEX","state_name":"Estado de México","country_id":142,"country_code":"MX","country_name":"Mexico","latitude":"19.42000000","longitude":"-100.09972000","wikiDataId":"Q20253544"},{"id":68559,"Name":"Barrio la Tenería","state_id":3450,"state_code":"MEX","state_name":"Estado de México","country_id":142,"country_code":"MX","country_name":"Mexico","latitude":"19.69361000","longitude":"-99.79194000","wikiDataId":"Q20142520"},{"id":68560,"Name":"Barrio los Tules","state_id":3450,"state_code":"MEX","state_name":"Estado de México","country_id":142,"country_code":"MX","country_name":"Mexico","latitude":"19.42917000","longitude":"-100.07472000","wikiDataId":"Q20274769"},{"id":68531,"Name":"Barrio San Joaquín el Junco","state_id":3450,"state_code":"MEX","state_name":"Estado de México","country_id":142,"country_code":"MX","country_name":"Mexico","latitude":"19.56417000","longitude":"-99.77333000","wikiDataId":"Q20237183"},{"id":68532,"Name":"Barrio San Miguel Dorami","state_id":3450,"state_code":"MEX","state_name":"Estado de México","country_id":142,"country_code":"MX","country_name":"Mexico","latitude":"19.44622000","longitude":"-99.34296000","wikiDataId":"Q20274781"},{"id":68533,"Name":"Barrio Santa Cruz","state_id":3450,"state_code":"MEX","state_name":"Estado de México","country_id":142,"country_code":"MX","country_name":"Mexico","latitude":"19.35139000","longitude":"-99.66278000","wikiDataId":"Q20237211"},{"id":68534,"Name":"Barrio Tepetitlán Emilio Portes Gil","state_id":3450,"state_code":"MEX","state_name":"Estado de México","country_id":142,"country_code":"MX","country_name":"Mexico","latitude":"19.65306000","longitude":"-99.88667000","wikiDataId":"Q20237223"},{"id":68535,"Name":"Barrio Tlatenco","state_id":3450,"state_code":"MEX","state_name":"Estado de México","country_id":142,"country_code":"MX","country_name":"Mexico","latitude":"19.73917000","longitude":"-99.19167000","wikiDataId":"Q20237228"},{"id":68571,"Name":"Bejucos","state_id":3450,"state_code":"MEX","state_name":"Estado de México","country_id":142,"country_code":"MX","country_name":"Mexico","latitude":"18.77802000","longitude":"-100.42778000","wikiDataId":"Q1507960"},{"id":68572,"Name":"Belem","state_id":3450,"state_code":"MEX","state_name":"Estado de México","country_id":142,"country_code":"MX","country_name":"Mexico","latitude":"19.63334000","longitude":"-98.79664000","wikiDataId":"Q1507960"},{"id":68595,"Name":"Benito Juárez","state_id":3450,"state_code":"MEX","state_name":"Estado de México","country_id":142,"country_code":"MX","country_name":"Mexico","latitude":"19.43765000","longitude":"-99.85384000","wikiDataId":"Q4888100"},{"id":68620,"Name":"Bobashi de Guadalupe","state_id":3450,"state_code":"MEX","state_name":"Estado de México","country_id":142,"country_code":"MX","country_name":"Mexico","latitude":"19.87583000","longitude":"-99.91167000","wikiDataId":"Q20144577"},{"id":68642,"Name":"Boshindó","state_id":3450,"state_code":"MEX","state_name":"Estado de México","country_id":142,"country_code":"MX","country_name":"Mexico","latitude":"19.91922000","longitude":"-99.84075000","wikiDataId":"Q8250809"},{"id":68645,"Name":"Bosques de la Magdalena","state_id":3450,"state_code":"MEX","state_name":"Estado de México","country_id":142,"country_code":"MX","country_name":"Mexico","latitude":"19.35778000","longitude":"-98.94750000","wikiDataId":"Q20145208"},{"id":68670,"Name":"Buenavista","state_id":3450,"state_code":"MEX","state_name":"Estado de México","country_id":142,"country_code":"MX","country_name":"Mexico","latitude":"19.60833000","longitude":"-99.16944000","wikiDataId":"Q1801492"},{"id":68687,"Name":"Buenos Aires","state_id":3450,"state_code":"MEX","state_name":"Estado de México","country_id":142,"country_code":"MX","country_name":"Mexico","latitude":"19.61745000","longitude":"-99.66790000","wikiDataId":"Q20229054"},{"id":68701,"Name":"Cabecera de Indígenas","state_id":3450,"state_code":"MEX","state_name":"Estado de México","country_id":142,"country_code":"MX","country_name":"Mexico","latitude":"19.37213000","longitude":"-100.13667000","wikiDataId":"Q20257391"},{"id":68709,"Name":"Cacalomacan","state_id":3450,"state_code":"MEX","state_name":"Estado de México","country_id":142,"country_code":"MX","country_name":"Mexico","latitude":"19.25311000","longitude":"-99.70623000","wikiDataId":"Q20236020"},{"id":68721,"Name":"Caja de Agua","state_id":3450,"state_code":"MEX","state_name":"Estado de México","country_id":142,"country_code":"MX","country_name":"Mexico","latitude":"19.64329000","longitude":"-99.36497000","wikiDataId":"Q2038325"},{"id":68738,"Name":"Calimaya","state_id":3450,"state_code":"MEX","state_name":"Estado de México","country_id":142,"country_code":"MX","country_name":"Mexico","latitude":"19.16324000","longitude":"-99.61810000","wikiDataId":"Q3300431"},{"id":68740,"Name":"Calixtlahuaca","state_id":3450,"state_code":"MEX","state_name":"Estado de México","country_id":142,"country_code":"MX","country_name":"Mexico","latitude":"19.33651000","longitude":"-99.68923000","wikiDataId":"Q1027061"},{"id":68750,"Name":"Calvario Buenavista","state_id":3450,"state_code":"MEX","state_name":"Estado de México","country_id":142,"country_code":"MX","country_name":"Mexico","latitude":"19.70387000","longitude":"-99.95674000","wikiDataId":"Q1997497"},{"id":68751,"Name":"Calvario del Carmen","state_id":3450,"state_code":"MEX","state_name":"Estado de México","country_id":142,"country_code":"MX","country_name":"Mexico","latitude":"19.63562000","longitude":"-100.01030000","wikiDataId":"Q1997497"},{"id":68876,"Name":"Cañada de Cisneros","state_id":3450,"state_code":"MEX","state_name":"Estado de México","country_id":142,"country_code":"MX","country_name":"Mexico","latitude":"19.69534000","longitude":"-99.33570000","wikiDataId":"Q20205614"},{"id":68877,"Name":"Cañada de Guadarrama","state_id":3450,"state_code":"MEX","state_name":"Estado de México","country_id":142,"country_code":"MX","country_name":"Mexico","latitude":"19.31272000","longitude":"-99.78972000","wikiDataId":"Q20205614"},{"id":68783,"Name":"Canalejas","state_id":3450,"state_code":"MEX","state_name":"Estado de México","country_id":142,"country_code":"MX","country_name":"Mexico","latitude":"19.97867000","longitude":"-99.60548000","wikiDataId":"Q20236042"},{"id":68808,"Name":"Capula","state_id":3450,"state_code":"MEX","state_name":"Estado de México","country_id":142,"country_code":"MX","country_name":"Mexico","latitude":"18.87018000","longitude":"-99.96075000","wikiDataId":"Q20256434"},{"id":68811,"Name":"Capulhuac de Mirafuentes","state_id":3450,"state_code":"MEX","state_name":"Estado de México","country_id":142,"country_code":"MX","country_name":"Mexico","latitude":"19.19354000","longitude":"-99.46585000","wikiDataId":"Q3308583"},{"id":68815,"Name":"Carapán","state_id":3450,"state_code":"MEX","state_name":"Estado de México","country_id":142,"country_code":"MX","country_name":"Mexico","latitude":"19.86003000","longitude":"-102.03644000","wikiDataId":"Q20275220"},{"id":68849,"Name":"Casa Nueva","state_id":3450,"state_code":"MEX","state_name":"Estado de México","country_id":142,"country_code":"MX","country_name":"Mexico","latitude":"19.83333000","longitude":"-99.20944000","wikiDataId":"Q20237329"},{"id":68854,"Name":"Casas Viejas","state_id":3450,"state_code":"MEX","state_name":"Estado de México","country_id":142,"country_code":"MX","country_name":"Mexico","latitude":"19.15167000","longitude":"-100.10778000","wikiDataId":"Q20237335"},{"id":68855,"Name":"Caserío de Cortés","state_id":3450,"state_code":"MEX","state_name":"Estado de México","country_id":142,"country_code":"MX","country_name":"Mexico","latitude":"19.19861000","longitude":"-98.95444000","wikiDataId":"Q20275318"},{"id":68887,"Name":"Cedro de la Manzana","state_id":3450,"state_code":"MEX","state_name":"Estado de México","country_id":142,"country_code":"MX","country_name":"Mexico","latitude":"19.69213000","longitude":"-100.11656000","wikiDataId":"Q20218036"},{"id":68892,"Name":"Celayita","state_id":3450,"state_code":"MEX","state_name":"Estado de México","country_id":142,"country_code":"MX","country_name":"Mexico","latitude":"20.24113000","longitude":"-99.86142000","wikiDataId":"Q580649"},{"id":68919,"Name":"Cerritos del Pilar","state_id":3450,"state_code":"MEX","state_name":"Estado de México","country_id":142,"country_code":"MX","country_name":"Mexico","latitude":"19.44508000","longitude":"-100.01909000","wikiDataId":"Q20241385"},{"id":68935,"Name":"Cerro de San Francisco","state_id":3450,"state_code":"MEX","state_name":"Estado de México","country_id":142,"country_code":"MX","country_name":"Mexico","latitude":"19.37038000","longitude":"-99.35162000","wikiDataId":"Q20237367"},{"id":68939,"Name":"Cerro del Murciélago","state_id":3450,"state_code":"MEX","state_name":"Estado de México","country_id":142,"country_code":"MX","country_name":"Mexico","latitude":"19.28194000","longitude":"-99.75472000","wikiDataId":"Q20275429"},{"id":68931,"Name":"Cerro La Calera","state_id":3450,"state_code":"MEX","state_name":"Estado de México","country_id":142,"country_code":"MX","country_name":"Mexico","latitude":"19.18333000","longitude":"-99.81667000","wikiDataId":"Q20257912"},{"id":68957,"Name":"Chalchihuapan","state_id":3450,"state_code":"MEX","state_name":"Estado de México","country_id":142,"country_code":"MX","country_name":"Mexico","latitude":"18.97694000","longitude":"-99.57472000","wikiDataId":"Q20237404"},{"id":68962,"Name":"Chalco","state_id":3450,"state_code":"MEX","state_name":"Estado de México","country_id":142,"country_code":"MX","country_name":"Mexico","latitude":"19.26174000","longitude":"-98.89775000","wikiDataId":"Q1962104"},{"id":68963,"Name":"Chalma","state_id":3450,"state_code":"MEX","state_name":"Estado de México","country_id":142,"country_code":"MX","country_name":"Mexico","latitude":"18.93048000","longitude":"-99.43505000","wikiDataId":"Q739817"},{"id":68965,"Name":"Chalmita","state_id":3450,"state_code":"MEX","state_name":"Estado de México","country_id":142,"country_code":"MX","country_name":"Mexico","latitude":"18.93433000","longitude":"-99.42325000","wikiDataId":"Q4936711"},{"id":68977,"Name":"Chapa de Mota","state_id":3450,"state_code":"MEX","state_name":"Estado de México","country_id":142,"country_code":"MX","country_name":"Mexico","latitude":"19.82420000","longitude":"-99.55252000","wikiDataId":"Q2990953"},{"id":68982,"Name":"Chaparaco","state_id":3450,"state_code":"MEX","state_name":"Estado de México","country_id":142,"country_code":"MX","country_name":"Mexico","latitude":"19.96061000","longitude":"-102.26092000","wikiDataId":"Q3844596"},{"id":68990,"Name":"Chapultepec","state_id":3450,"state_code":"MEX","state_name":"Estado de México","country_id":142,"country_code":"MX","country_name":"Mexico","latitude":"19.20216000","longitude":"-99.56176000","wikiDataId":"Q20237410"},{"id":69013,"Name":"Chiautla","state_id":3450,"state_code":"MEX","state_name":"Estado de México","country_id":142,"country_code":"MX","country_name":"Mexico","latitude":"19.54895000","longitude":"-98.88236000","wikiDataId":"Q20275581"},{"id":69036,"Name":"Chicoloapan","state_id":3450,"state_code":"MEX","state_name":"Estado de México","country_id":142,"country_code":"MX","country_name":"Mexico","latitude":"19.41687000","longitude":"-98.90202000","wikiDataId":"Q20295608"},{"id":69040,"Name":"Chiconcuac","state_id":3450,"state_code":"MEX","state_name":"Estado de México","country_id":142,"country_code":"MX","country_name":"Mexico","latitude":"19.55939000","longitude":"-98.89884000","wikiDataId":"Q8345331"},{"id":69066,"Name":"Chilchota","state_id":3450,"state_code":"MEX","state_name":"Estado de México","country_id":142,"country_code":"MX","country_name":"Mexico","latitude":"19.84654000","longitude":"-102.11716000","wikiDataId":"Q20275622"},{"id":69073,"Name":"Chiltepec de Hidalgo","state_id":3450,"state_code":"MEX","state_name":"Estado de México","country_id":142,"country_code":"MX","country_name":"Mexico","latitude":"18.91266000","longitude":"-99.83450000","wikiDataId":"Q207935"},{"id":69077,"Name":"Chimalpa Viejo","state_id":3450,"state_code":"MEX","state_name":"Estado de México","country_id":142,"country_code":"MX","country_name":"Mexico","latitude":"19.44956000","longitude":"-99.34435000","wikiDataId":"Q20237425"},{"id":69108,"Name":"Chosto de los Jarros","state_id":3450,"state_code":"MEX","state_name":"Estado de México","country_id":142,"country_code":"MX","country_name":"Mexico","latitude":"19.86333000","longitude":"-99.91000000","wikiDataId":"Q20237434"},{"id":69165,"Name":"Ciudad López Mateos","state_id":3450,"state_code":"MEX","state_name":"Estado de México","country_id":142,"country_code":"MX","country_name":"Mexico","latitude":"19.55793000","longitude":"-99.25675000","wikiDataId":"Q1963483"},{"id":69173,"Name":"Ciudad Nezahualcoyotl","state_id":3450,"state_code":"MEX","state_name":"Estado de México","country_id":142,"country_code":"MX","country_name":"Mexico","latitude":"19.40061000","longitude":"-99.01483000","wikiDataId":"Q210307"},{"id":69203,"Name":"Coacalco","state_id":3450,"state_code":"MEX","state_name":"Estado de México","country_id":142,"country_code":"MX","country_name":"Mexico","latitude":"19.62923000","longitude":"-99.10689000","wikiDataId":"Q20275856"},{"id":69221,"Name":"Coamilpa de Juárez","state_id":3450,"state_code":"MEX","state_name":"Estado de México","country_id":142,"country_code":"MX","country_name":"Mexico","latitude":"19.19778000","longitude":"-99.44361000","wikiDataId":"Q20237465"},{"id":69225,"Name":"Coatepec","state_id":3450,"state_code":"MEX","state_name":"Estado de México","country_id":142,"country_code":"MX","country_name":"Mexico","latitude":"19.38485000","longitude":"-98.84546000","wikiDataId":"Q1104455"},{"id":69228,"Name":"Coatepec Harinas","state_id":3450,"state_code":"MEX","state_name":"Estado de México","country_id":142,"country_code":"MX","country_name":"Mexico","latitude":"18.89492000","longitude":"-99.72153000","wikiDataId":"Q20237467"},{"id":69239,"Name":"Cocotitlán","state_id":3450,"state_code":"MEX","state_name":"Estado de México","country_id":142,"country_code":"MX","country_name":"Mexico","latitude":"19.23336000","longitude":"-98.86596000","wikiDataId":"Q3198880"},{"id":69265,"Name":"Colonia 2 de Septiembre","state_id":3450,"state_code":"MEX","state_name":"Estado de México","country_id":142,"country_code":"MX","country_name":"Mexico","latitude":"19.70056000","longitude":"-99.11667000","wikiDataId":"Q20276162"},{"id":69268,"Name":"Colonia 3 de Mayo","state_id":3450,"state_code":"MEX","state_name":"Estado de México","country_id":142,"country_code":"MX","country_name":"Mexico","latitude":"18.82726000","longitude":"-99.69304000","wikiDataId":"Q20276168"},{"id":69269,"Name":"Colonia 3 de Mayo (La Cruz)","state_id":3450,"state_code":"MEX","state_name":"Estado de México","country_id":142,"country_code":"MX","country_name":"Mexico","latitude":"19.98083000","longitude":"-99.16361000","wikiDataId":"Q20237482"},{"id":69271,"Name":"Colonia Adolfo López Mateos","state_id":3450,"state_code":"MEX","state_name":"Estado de México","country_id":142,"country_code":"MX","country_name":"Mexico","latitude":"19.40056000","longitude":"-99.45944000","wikiDataId":"Q20276175"},{"id":69277,"Name":"Colonia Agrícola Álvaro Obregón","state_id":3450,"state_code":"MEX","state_name":"Estado de México","country_id":142,"country_code":"MX","country_name":"Mexico","latitude":"19.22806000","longitude":"-99.55583000","wikiDataId":"Q20276179"},{"id":69274,"Name":"Colonia Agrícola Analco","state_id":3450,"state_code":"MEX","state_name":"Estado de México","country_id":142,"country_code":"MX","country_name":"Mexico","latitude":"19.34972000","longitude":"-99.47500000","wikiDataId":"Q20276181"},{"id":69405,"Name":"Colonia Álvaro Obregón","state_id":3450,"state_code":"MEX","state_name":"Estado de México","country_id":142,"country_code":"MX","country_name":"Mexico","latitude":"19.37691000","longitude":"-99.49484000","wikiDataId":"Q20246181"},{"id":69281,"Name":"Colonia Arboledas (San Andrés)","state_id":3450,"state_code":"MEX","state_name":"Estado de México","country_id":142,"country_code":"MX","country_name":"Mexico","latitude":"19.20250000","longitude":"-99.58083000","wikiDataId":"Q20276195"},{"id":69282,"Name":"Colonia Aviación Autopan","state_id":3450,"state_code":"MEX","state_name":"Estado de México","country_id":142,"country_code":"MX","country_name":"Mexico","latitude":"19.37917000","longitude":"-99.69278000","wikiDataId":"Q20237498"},{"id":69283,"Name":"Colonia Azteca","state_id":3450,"state_code":"MEX","state_name":"Estado de México","country_id":142,"country_code":"MX","country_name":"Mexico","latitude":"19.07806000","longitude":"-99.65417000","wikiDataId":"Q20276200"},{"id":69284,"Name":"Colonia Bellavista","state_id":3450,"state_code":"MEX","state_name":"Estado de México","country_id":142,"country_code":"MX","country_name":"Mexico","latitude":"19.29820000","longitude":"-99.80879000","wikiDataId":"Q20237504"},{"id":69290,"Name":"Colonia Cuauhtémoc","state_id":3450,"state_code":"MEX","state_name":"Estado de México","country_id":142,"country_code":"MX","country_name":"Mexico","latitude":"19.25122000","longitude":"-99.79717000","wikiDataId":"Q20224364"},{"id":69292,"Name":"Colonia Doctor Gustavo Baz","state_id":3450,"state_code":"MEX","state_name":"Estado de México","country_id":142,"country_code":"MX","country_name":"Mexico","latitude":"19.41056000","longitude":"-99.92167000","wikiDataId":"Q20276265"},{"id":69385,"Name":"Colonia el Mirador","state_id":3450,"state_code":"MEX","state_name":"Estado de México","country_id":142,"country_code":"MX","country_name":"Mexico","latitude":"19.67167000","longitude":"-99.35722000","wikiDataId":"Q20276300"},{"id":69388,"Name":"Colonia el Pirame","state_id":3450,"state_code":"MEX","state_name":"Estado de México","country_id":142,"country_code":"MX","country_name":"Mexico","latitude":"19.24083000","longitude":"-99.47194000","wikiDataId":"Q20276307"},{"id":69389,"Name":"Colonia el Refugio","state_id":3450,"state_code":"MEX","state_name":"Estado de México","country_id":142,"country_code":"MX","country_name":"Mexico","latitude":"19.22694000","longitude":"-99.69417000","wikiDataId":"Q20276314"},{"id":69391,"Name":"Colonia el Salado","state_id":3450,"state_code":"MEX","state_name":"Estado de México","country_id":142,"country_code":"MX","country_name":"Mexico","latitude":"19.58389000","longitude":"-98.99139000","wikiDataId":"Q20276317"},{"id":69296,"Name":"Colonia Emiliano Zapata","state_id":3450,"state_code":"MEX","state_name":"Estado de México","country_id":142,"country_code":"MX","country_name":"Mexico","latitude":"19.39111000","longitude":"-99.52528000","wikiDataId":"Q20237578"},{"id":69298,"Name":"Colonia Emiliano Zapata Ejido de Tenancingo","state_id":3450,"state_code":"MEX","state_name":"Estado de México","country_id":142,"country_code":"MX","country_name":"Mexico","latitude":"18.95361000","longitude":"-99.55889000","wikiDataId":"Q20276325"},{"id":69306,"Name":"Colonia Guadalupe","state_id":3450,"state_code":"MEX","state_name":"Estado de México","country_id":142,"country_code":"MX","country_name":"Mexico","latitude":"19.71306000","longitude":"-99.24972000","wikiDataId":"Q20237608"},{"id":69307,"Name":"Colonia Guadalupe Victoria","state_id":3450,"state_code":"MEX","state_name":"Estado de México","country_id":142,"country_code":"MX","country_name":"Mexico","latitude":"19.49917000","longitude":"-98.91917000","wikiDataId":"Q20129314"},{"id":69308,"Name":"Colonia Guadalupe Victoria (La Capilla)","state_id":3450,"state_code":"MEX","state_name":"Estado de México","country_id":142,"country_code":"MX","country_name":"Mexico","latitude":"19.40222000","longitude":"-99.45417000","wikiDataId":"Q20237606"},{"id":69309,"Name":"Colonia Gustavo Baz Prada","state_id":3450,"state_code":"MEX","state_name":"Estado de México","country_id":142,"country_code":"MX","country_name":"Mexico","latitude":"19.42139000","longitude":"-99.01361000","wikiDataId":"Q20129431"},{"id":69314,"Name":"Colonia Isidro Fabela","state_id":3450,"state_code":"MEX","state_name":"Estado de México","country_id":142,"country_code":"MX","country_name":"Mexico","latitude":"19.30056000","longitude":"-99.52278000","wikiDataId":"Q20129561"},{"id":69318,"Name":"Colonia Juárez","state_id":3450,"state_code":"MEX","state_name":"Estado de México","country_id":142,"country_code":"MX","country_name":"Mexico","latitude":"19.99583000","longitude":"-99.14944000","wikiDataId":"Q20129691"},{"id":69392,"Name":"Colonia la Asunción","state_id":3450,"state_code":"MEX","state_name":"Estado de México","country_id":142,"country_code":"MX","country_name":"Mexico","latitude":"19.69083000","longitude":"-99.06417000","wikiDataId":"Q20129773"},{"id":69395,"Name":"Colonia la Libertad","state_id":3450,"state_code":"MEX","state_name":"Estado de México","country_id":142,"country_code":"MX","country_name":"Mexico","latitude":"19.18528000","longitude":"-99.50278000","wikiDataId":"Q20237621"},{"id":69325,"Name":"Colonia Lázaro Cárdenas","state_id":3450,"state_code":"MEX","state_name":"Estado de México","country_id":142,"country_code":"MX","country_name":"Mexico","latitude":"19.51306000","longitude":"-98.92000000","wikiDataId":"Q20237647"},{"id":69326,"Name":"Colonia Lázaro Cárdenas (Los Hornos)","state_id":3450,"state_code":"MEX","state_name":"Estado de México","country_id":142,"country_code":"MX","country_name":"Mexico","latitude":"19.63167000","longitude":"-99.15333000","wikiDataId":"Q20130268"},{"id":69322,"Name":"Colonia Lindavista","state_id":3450,"state_code":"MEX","state_name":"Estado de México","country_id":142,"country_code":"MX","country_name":"Mexico","latitude":"19.49156000","longitude":"-99.12475000","wikiDataId":"Q20276409"},{"id":69399,"Name":"Colonia los Aguiluchos","state_id":3450,"state_code":"MEX","state_name":"Estado de México","country_id":142,"country_code":"MX","country_name":"Mexico","latitude":"19.72611000","longitude":"-99.09028000","wikiDataId":"Q20276413"},{"id":69400,"Name":"Colonia los Cedros","state_id":3450,"state_code":"MEX","state_name":"Estado de México","country_id":142,"country_code":"MX","country_name":"Mexico","latitude":"19.31167000","longitude":"-99.54111000","wikiDataId":"Q20276416"},{"id":69402,"Name":"Colonia los Remedios","state_id":3450,"state_code":"MEX","state_name":"Estado de México","country_id":142,"country_code":"MX","country_name":"Mexico","latitude":"19.73444000","longitude":"-98.79111000","wikiDataId":"Q20237663"},{"id":69333,"Name":"Colonia Morelos","state_id":3450,"state_code":"MEX","state_name":"Estado de México","country_id":142,"country_code":"MX","country_name":"Mexico","latitude":"19.63778000","longitude":"-99.33917000","wikiDataId":"Q20276438"},{"id":69346,"Name":"Colonia Palma","state_id":3450,"state_code":"MEX","state_name":"Estado de México","country_id":142,"country_code":"MX","country_name":"Mexico","latitude":"19.56444000","longitude":"-99.42417000","wikiDataId":"Q20237680"},{"id":69354,"Name":"Colonia Reforma Tlalmimilolpan","state_id":3450,"state_code":"MEX","state_name":"Estado de México","country_id":142,"country_code":"MX","country_name":"Mexico","latitude":"19.38806000","longitude":"-99.48889000","wikiDataId":"Q20276469"},{"id":69357,"Name":"Colonia Ricardo Flores Magón","state_id":3450,"state_code":"MEX","state_name":"Estado de México","country_id":142,"country_code":"MX","country_name":"Mexico","latitude":"19.26833000","longitude":"-99.75833000","wikiDataId":"Q20131709"},{"id":69359,"Name":"Colonia Rincón Villa del Valle","state_id":3450,"state_code":"MEX","state_name":"Estado de México","country_id":142,"country_code":"MX","country_name":"Mexico","latitude":"19.20966000","longitude":"-100.11917000","wikiDataId":"Q20276471"},{"id":69360,"Name":"Colonia Río Lerma (Tic Ti)","state_id":3450,"state_code":"MEX","state_name":"Estado de México","country_id":142,"country_code":"MX","country_name":"Mexico","latitude":"19.80556000","longitude":"-99.89722000","wikiDataId":"Q20237691"},{"id":69363,"Name":"Colonia San Francisco de Asís","state_id":3450,"state_code":"MEX","state_name":"Estado de México","country_id":142,"country_code":"MX","country_name":"Mexico","latitude":"19.57861000","longitude":"-99.75444000","wikiDataId":"Q20131834"},{"id":69368,"Name":"Colonia San Ramón","state_id":3450,"state_code":"MEX","state_name":"Estado de México","country_id":142,"country_code":"MX","country_name":"Mexico","latitude":"18.96833000","longitude":"-99.57222000","wikiDataId":"Q20132059"},{"id":69373,"Name":"Colonia Tulteca Teopan","state_id":3450,"state_code":"MEX","state_name":"Estado de México","country_id":142,"country_code":"MX","country_name":"Mexico","latitude":"19.56139000","longitude":"-98.84417000","wikiDataId":"Q20132410"},{"id":69379,"Name":"Colonia Wenceslao Labra","state_id":3450,"state_code":"MEX","state_name":"Estado de México","country_id":142,"country_code":"MX","country_name":"Mexico","latitude":"19.82773000","longitude":"-99.12435000","wikiDataId":"Q5777896"},{"id":69409,"Name":"Colorines","state_id":3450,"state_code":"MEX","state_name":"Estado de México","country_id":142,"country_code":"MX","country_name":"Mexico","latitude":"19.17829000","longitude":"-100.21817000","wikiDataId":"Q20132870"},{"id":69434,"Name":"Concepción Caro","state_id":3450,"state_code":"MEX","state_name":"Estado de México","country_id":142,"country_code":"MX","country_name":"Mexico","latitude":"19.77139000","longitude":"-99.90917000","wikiDataId":"Q20133255"},{"id":69440,"Name":"Concepción del Monte","state_id":3450,"state_code":"MEX","state_name":"Estado de México","country_id":142,"country_code":"MX","country_name":"Mexico","latitude":"19.65128000","longitude":"-100.15440000","wikiDataId":"Q10862721"},{"id":69438,"Name":"Concepción Jolalpan","state_id":3450,"state_code":"MEX","state_name":"Estado de México","country_id":142,"country_code":"MX","country_name":"Mexico","latitude":"19.58399000","longitude":"-98.84643000","wikiDataId":"Q20133258"},{"id":69442,"Name":"Concepción la Venta","state_id":3450,"state_code":"MEX","state_name":"Estado de México","country_id":142,"country_code":"MX","country_name":"Mexico","latitude":"19.69144000","longitude":"-100.15181000","wikiDataId":"Q1919318"},{"id":69448,"Name":"Conejeras","state_id":3450,"state_code":"MEX","state_name":"Estado de México","country_id":142,"country_code":"MX","country_name":"Mexico","latitude":"20.01271000","longitude":"-99.96202000","wikiDataId":"Q20276535"},{"id":69455,"Name":"Conjunto Habitacional Ecológico SUTEYM","state_id":3450,"state_code":"MEX","state_name":"Estado de México","country_id":142,"country_code":"MX","country_name":"Mexico","latitude":"19.36889000","longitude":"-99.77861000","wikiDataId":"Q20237716"},{"id":69458,"Name":"Conjunto Urbano la Loma I","state_id":3450,"state_code":"MEX","state_name":"Estado de México","country_id":142,"country_code":"MX","country_name":"Mexico","latitude":"19.32639000","longitude":"-99.73194000","wikiDataId":"Q20237717"},{"id":69467,"Name":"Contepec","state_id":3450,"state_code":"MEX","state_name":"Estado de México","country_id":142,"country_code":"MX","country_name":"Mexico","latitude":"19.95432000","longitude":"-100.16385000","wikiDataId":"Q20236577"},{"id":69501,"Name":"Coscomate del Progreso","state_id":3450,"state_code":"MEX","state_name":"Estado de México","country_id":142,"country_code":"MX","country_name":"Mexico","latitude":"19.93416000","longitude":"-99.51902000","wikiDataId":"Q3847170"},{"id":69521,"Name":"Coyotepec","state_id":3450,"state_code":"MEX","state_name":"Estado de México","country_id":142,"country_code":"MX","country_name":"Mexico","latitude":"19.77722000","longitude":"-99.21295000","wikiDataId":"Q20264008"},{"id":69530,"Name":"Cozotlán Norte","state_id":3450,"state_code":"MEX","state_name":"Estado de México","country_id":142,"country_code":"MX","country_name":"Mexico","latitude":"19.70833000","longitude":"-98.86000000","wikiDataId":"Q20135615"},{"id":69552,"Name":"Cuadrilla de Dolores","state_id":3450,"state_code":"MEX","state_name":"Estado de México","country_id":142,"country_code":"MX","country_name":"Mexico","latitude":"19.14000000","longitude":"-100.06944000","wikiDataId":"Q20276715"},{"id":69551,"Name":"Cuadrilla Vieja","state_id":3450,"state_code":"MEX","state_name":"Estado de México","country_id":142,"country_code":"MX","country_name":"Mexico","latitude":"19.51205000","longitude":"-99.98692000","wikiDataId":"Q20237756"},{"id":69590,"Name":"Cuautitlán","state_id":3450,"state_code":"MEX","state_name":"Estado de México","country_id":142,"country_code":"MX","country_name":"Mexico","latitude":"19.67052000","longitude":"-99.17989000","wikiDataId":"Q27769681"},{"id":69592,"Name":"Cuautlacingo","state_id":3450,"state_code":"MEX","state_name":"Estado de México","country_id":142,"country_code":"MX","country_name":"Mexico","latitude":"19.69405000","longitude":"-98.78385000","wikiDataId":"Q939959"},{"id":69610,"Name":"Cuecuecuatitla","state_id":3450,"state_code":"MEX","state_name":"Estado de México","country_id":142,"country_code":"MX","country_name":"Mexico","latitude":"19.01349000","longitude":"-98.84351000","wikiDataId":"Q3844262"},{"id":69613,"Name":"Cuendo","state_id":3450,"state_code":"MEX","state_name":"Estado de México","country_id":142,"country_code":"MX","country_name":"Mexico","latitude":"19.80028000","longitude":"-99.94778000","wikiDataId":"Q20276801"},{"id":69679,"Name":"Denjhi","state_id":3450,"state_code":"MEX","state_name":"Estado de México","country_id":142,"country_code":"MX","country_name":"Mexico","latitude":"19.92116000","longitude":"-99.53561000","wikiDataId":"Q49911779"},{"id":69682,"Name":"Detiña (San Antonio Detiña)","state_id":3450,"state_code":"MEX","state_name":"Estado de México","country_id":142,"country_code":"MX","country_name":"Mexico","latitude":"19.97028000","longitude":"-99.88389000","wikiDataId":"Q20237772"},{"id":69688,"Name":"Dios Padre","state_id":3450,"state_code":"MEX","state_name":"Estado de México","country_id":142,"country_code":"MX","country_name":"Mexico","latitude":"19.61474000","longitude":"-100.06499000","wikiDataId":"Q20237772"},{"id":69702,"Name":"Dolores","state_id":3450,"state_code":"MEX","state_name":"Estado de México","country_id":142,"country_code":"MX","country_name":"Mexico","latitude":"20.06059000","longitude":"-100.32211000","wikiDataId":"Q20139347"},{"id":69704,"Name":"Dolores Hidalgo","state_id":3450,"state_code":"MEX","state_name":"Estado de México","country_id":142,"country_code":"MX","country_name":"Mexico","latitude":"19.65528000","longitude":"-99.92639000","wikiDataId":"Q20237779"},{"id":69715,"Name":"Dongu","state_id":3450,"state_code":"MEX","state_name":"Estado de México","country_id":142,"country_code":"MX","country_name":"Mexico","latitude":"19.84295000","longitude":"-99.58651000","wikiDataId":"Q20258219"},{"id":69723,"Name":"Dotegiare","state_id":3450,"state_code":"MEX","state_name":"Estado de México","country_id":142,"country_code":"MX","country_name":"Mexico","latitude":"19.70705000","longitude":"-100.04354000","wikiDataId":"Q20140402"},{"id":69725,"Name":"Doxhicho","state_id":3450,"state_code":"MEX","state_name":"Estado de México","country_id":142,"country_code":"MX","country_name":"Mexico","latitude":"19.89999000","longitude":"-99.55727000","wikiDataId":"Q20140458"},{"id":69726,"Name":"Doxteje Barrio Primero","state_id":3450,"state_code":"MEX","state_name":"Estado de México","country_id":142,"country_code":"MX","country_name":"Mexico","latitude":"19.95972000","longitude":"-99.95861000","wikiDataId":"Q20276984"},{"id":69727,"Name":"Doxteje Centro","state_id":3450,"state_code":"MEX","state_name":"Estado de México","country_id":142,"country_code":"MX","country_name":"Mexico","latitude":"19.97528000","longitude":"-99.95472000","wikiDataId":"Q20276985"},{"id":69752,"Name":"Ecatepec de Morelos","state_id":3450,"state_code":"MEX","state_name":"Estado de México","country_id":142,"country_code":"MX","country_name":"Mexico","latitude":"19.60378000","longitude":"-99.05514000","wikiDataId":"Q15121208"},{"id":69753,"Name":"Ecatzingo de Hidalgo","state_id":3450,"state_code":"MEX","state_name":"Estado de México","country_id":142,"country_code":"MX","country_name":"Mexico","latitude":"18.95508000","longitude":"-98.75198000","wikiDataId":"Q20140670"},{"id":69802,"Name":"Ejido de Coscomate del Progreso","state_id":3450,"state_code":"MEX","state_name":"Estado de México","country_id":142,"country_code":"MX","country_name":"Mexico","latitude":"19.93379000","longitude":"-99.54720000","wikiDataId":"Q20247359"},{"id":69803,"Name":"Ejido de Dolores","state_id":3450,"state_code":"MEX","state_name":"Estado de México","country_id":142,"country_code":"MX","country_name":"Mexico","latitude":"19.43083000","longitude":"-99.61278000","wikiDataId":"Q20140983"},{"id":69804,"Name":"Ejido de Guadalupe","state_id":3450,"state_code":"MEX","state_name":"Estado de México","country_id":142,"country_code":"MX","country_name":"Mexico","latitude":"19.63765000","longitude":"-99.27178000","wikiDataId":"Q20140983"},{"id":69807,"Name":"Ejido de la Finca","state_id":3450,"state_code":"MEX","state_name":"Estado de México","country_id":142,"country_code":"MX","country_name":"Mexico","latitude":"18.88635000","longitude":"-99.62693000","wikiDataId":"Q20237803"},{"id":69805,"Name":"Ejido de Mozoquilpan","state_id":3450,"state_code":"MEX","state_name":"Estado de México","country_id":142,"country_code":"MX","country_name":"Mexico","latitude":"19.42417000","longitude":"-99.52833000","wikiDataId":"Q20237803"},{"id":69806,"Name":"Ejido de San Mateo Coapexco","state_id":3450,"state_code":"MEX","state_name":"Estado de México","country_id":142,"country_code":"MX","country_name":"Mexico","latitude":"18.94889000","longitude":"-99.64249000","wikiDataId":"Q20237803"},{"id":69808,"Name":"Ejido del Tejocote","state_id":3450,"state_code":"MEX","state_name":"Estado de México","country_id":142,"country_code":"MX","country_name":"Mexico","latitude":"19.48474000","longitude":"-99.27847000","wikiDataId":"Q20277029"},{"id":69809,"Name":"Ejido del Tunal Nenaxi","state_id":3450,"state_code":"MEX","state_name":"Estado de México","country_id":142,"country_code":"MX","country_name":"Mexico","latitude":"19.74389000","longitude":"-99.90889000","wikiDataId":"Q20237831"},{"id":69810,"Name":"Ejido el Castillo","state_id":3450,"state_code":"MEX","state_name":"Estado de México","country_id":142,"country_code":"MX","country_name":"Mexico","latitude":"19.43583000","longitude":"-99.30583000","wikiDataId":"Q20277031"},{"id":69817,"Name":"Ejido la Soledad","state_id":3450,"state_code":"MEX","state_name":"Estado de México","country_id":142,"country_code":"MX","country_name":"Mexico","latitude":"19.64500000","longitude":"-100.10639000","wikiDataId":"Q20141451"},{"id":69773,"Name":"Ejido Loma de Malacota","state_id":3450,"state_code":"MEX","state_name":"Estado de México","country_id":142,"country_code":"MX","country_name":"Mexico","latitude":"19.65753000","longitude":"-99.67122000","wikiDataId":"Q56475540"},{"id":69777,"Name":"Ejido Miraflores","state_id":3450,"state_code":"MEX","state_name":"Estado de México","country_id":142,"country_code":"MX","country_name":"Mexico","latitude":"19.57000000","longitude":"-99.39750000","wikiDataId":"Q20141603"},{"id":69783,"Name":"Ejido Palma (Ejido San Francisco)","state_id":3450,"state_code":"MEX","state_name":"Estado de México","country_id":142,"country_code":"MX","country_name":"Mexico","latitude":"19.56889000","longitude":"-99.40889000","wikiDataId":"Q20141664"},{"id":69788,"Name":"Ejido San Cristóbal","state_id":3450,"state_code":"MEX","state_name":"Estado de México","country_id":142,"country_code":"MX","country_name":"Mexico","latitude":"19.54250000","longitude":"-98.89417000","wikiDataId":"Q20141758"},{"id":69789,"Name":"Ejido San Diego","state_id":3450,"state_code":"MEX","state_name":"Estado de México","country_id":142,"country_code":"MX","country_name":"Mexico","latitude":"19.41329000","longitude":"-99.82537000","wikiDataId":"Q20141758"},{"id":69791,"Name":"Ejido San Lorenzo Cuauhtenco","state_id":3450,"state_code":"MEX","state_name":"Estado de México","country_id":142,"country_code":"MX","country_name":"Mexico","latitude":"19.30139000","longitude":"-99.75028000","wikiDataId":"Q20277095"},{"id":70266,"Name":"El Águila (La Mesa)","state_id":3450,"state_code":"MEX","state_name":"Estado de México","country_id":142,"country_code":"MX","country_name":"Mexico","latitude":"19.16694000","longitude":"-99.40639000","wikiDataId":"Q20142929"},{"id":69831,"Name":"El Arco","state_id":3450,"state_code":"MEX","state_name":"Estado de México","country_id":142,"country_code":"MX","country_name":"Mexico","latitude":"19.22528000","longitude":"-100.13167000","wikiDataId":"Q20144273"},{"id":69853,"Name":"El Cabi","state_id":3450,"state_code":"MEX","state_name":"Estado de México","country_id":142,"country_code":"MX","country_name":"Mexico","latitude":"19.18986000","longitude":"-98.85371000","wikiDataId":"Q20237954"},{"id":69875,"Name":"El Carmen (El Desierto del Carmen)","state_id":3450,"state_code":"MEX","state_name":"Estado de México","country_id":142,"country_code":"MX","country_name":"Mexico","latitude":"18.92028000","longitude":"-99.55667000","wikiDataId":"Q20148998"},{"id":69878,"Name":"El Carmen Ocotepec","state_id":3450,"state_code":"MEX","state_name":"Estado de México","country_id":142,"country_code":"MX","country_name":"Mexico","latitude":"19.68722000","longitude":"-99.97417000","wikiDataId":"Q20277649"},{"id":69894,"Name":"El Cerrillo Vista Hermosa","state_id":3450,"state_code":"MEX","state_name":"Estado de México","country_id":142,"country_code":"MX","country_name":"Mexico","latitude":"19.32337000","longitude":"-99.54250000","wikiDataId":"Q20277797"},{"id":69895,"Name":"El Cerrito","state_id":3450,"state_code":"MEX","state_name":"Estado de México","country_id":142,"country_code":"MX","country_name":"Mexico","latitude":"19.35528000","longitude":"-99.34833000","wikiDataId":"Q20277814"},{"id":69914,"Name":"El Colorado","state_id":3450,"state_code":"MEX","state_name":"Estado de México","country_id":142,"country_code":"MX","country_name":"Mexico","latitude":"20.09639000","longitude":"-99.76278000","wikiDataId":"Q20238018"},{"id":69915,"Name":"El Coloso","state_id":3450,"state_code":"MEX","state_name":"Estado de México","country_id":142,"country_code":"MX","country_name":"Mexico","latitude":"19.09778000","longitude":"-99.59778000","wikiDataId":"Q20278144"},{"id":69921,"Name":"El Contadero de Matamoros","state_id":3450,"state_code":"MEX","state_name":"Estado de México","country_id":142,"country_code":"MX","country_name":"Mexico","latitude":"19.23734000","longitude":"-99.80990000","wikiDataId":"Q20278144"},{"id":69941,"Name":"El Cóporo","state_id":3450,"state_code":"MEX","state_name":"Estado de México","country_id":142,"country_code":"MX","country_name":"Mexico","latitude":"19.28306000","longitude":"-99.83528000","wikiDataId":"Q20278190"},{"id":69938,"Name":"El Curtidor","state_id":3450,"state_code":"MEX","state_name":"Estado de México","country_id":142,"country_code":"MX","country_name":"Mexico","latitude":"19.29167000","longitude":"-99.83500000","wikiDataId":"Q20278807"},{"id":69954,"Name":"El Esclavo","state_id":3450,"state_code":"MEX","state_name":"Estado de México","country_id":142,"country_code":"MX","country_name":"Mexico","latitude":"19.67667000","longitude":"-99.37139000","wikiDataId":"Q20238057"},{"id":69962,"Name":"El Espinal","state_id":3450,"state_code":"MEX","state_name":"Estado de México","country_id":142,"country_code":"MX","country_name":"Mexico","latitude":"19.46756000","longitude":"-100.06051000","wikiDataId":"Q20223249"},{"id":69980,"Name":"El Habillal","state_id":3450,"state_code":"MEX","state_name":"Estado de México","country_id":142,"country_code":"MX","country_name":"Mexico","latitude":"18.00699000","longitude":"-102.37263000","wikiDataId":"Q20279358"},{"id":69982,"Name":"El Hielo","state_id":3450,"state_code":"MEX","state_name":"Estado de México","country_id":142,"country_code":"MX","country_name":"Mexico","latitude":"19.42583000","longitude":"-99.35556000","wikiDataId":"Q20279378"},{"id":69996,"Name":"El Jacal","state_id":3450,"state_code":"MEX","state_name":"Estado de México","country_id":142,"country_code":"MX","country_name":"Mexico","latitude":"19.40500000","longitude":"-100.08944000","wikiDataId":"Q20238098"},{"id":70025,"Name":"El Llano del Compromiso","state_id":3450,"state_code":"MEX","state_name":"Estado de México","country_id":142,"country_code":"MX","country_name":"Mexico","latitude":"19.25472000","longitude":"-99.47917000","wikiDataId":"Q20238120"},{"id":70024,"Name":"El Llano Santa María","state_id":3450,"state_code":"MEX","state_name":"Estado de México","country_id":142,"country_code":"MX","country_name":"Mexico","latitude":"19.78389000","longitude":"-99.08639000","wikiDataId":"Q20238123"},{"id":70030,"Name":"El Magueyal","state_id":3450,"state_code":"MEX","state_name":"Estado de México","country_id":142,"country_code":"MX","country_name":"Mexico","latitude":"19.94250000","longitude":"-99.57462000","wikiDataId":"Q20238120"},{"id":70042,"Name":"El Mogote","state_id":3450,"state_code":"MEX","state_name":"Estado de México","country_id":142,"country_code":"MX","country_name":"Mexico","latitude":"20.16583000","longitude":"-99.91444000","wikiDataId":"Q20238151"},{"id":70069,"Name":"El Obraje","state_id":3450,"state_code":"MEX","state_name":"Estado de México","country_id":142,"country_code":"MX","country_name":"Mexico","latitude":"19.72269000","longitude":"-99.96259000","wikiDataId":"Q20280048"},{"id":70070,"Name":"El Ocotal","state_id":3450,"state_code":"MEX","state_name":"Estado de México","country_id":142,"country_code":"MX","country_name":"Mexico","latitude":"19.67983000","longitude":"-99.47008000","wikiDataId":"Q20280048"},{"id":70075,"Name":"El Oro de Hidalgo","state_id":3450,"state_code":"MEX","state_name":"Estado de México","country_id":142,"country_code":"MX","country_name":"Mexico","latitude":"19.80272000","longitude":"-100.13081000","wikiDataId":"Q2115222"},{"id":70077,"Name":"El Palacio","state_id":3450,"state_code":"MEX","state_name":"Estado de México","country_id":142,"country_code":"MX","country_name":"Mexico","latitude":"19.35139000","longitude":"-99.35667000","wikiDataId":"Q20238188"},{"id":70084,"Name":"El Palmito","state_id":3450,"state_code":"MEX","state_name":"Estado de México","country_id":142,"country_code":"MX","country_name":"Mexico","latitude":"19.91733000","longitude":"-99.68127000","wikiDataId":"Q20213439"},{"id":70097,"Name":"El Pedregal de Guadalupe Hidalgo","state_id":3450,"state_code":"MEX","state_name":"Estado de México","country_id":142,"country_code":"MX","country_name":"Mexico","latitude":"19.25278000","longitude":"-99.46500000","wikiDataId":"Q20253066"},{"id":70103,"Name":"El Pilar","state_id":3450,"state_code":"MEX","state_name":"Estado de México","country_id":142,"country_code":"MX","country_name":"Mexico","latitude":"20.24201000","longitude":"-101.40209000","wikiDataId":"Q4359610"},{"id":70104,"Name":"El Pino","state_id":3450,"state_code":"MEX","state_name":"Estado de México","country_id":142,"country_code":"MX","country_name":"Mexico","latitude":"19.35139000","longitude":"-98.94833000","wikiDataId":"Q20238228"},{"id":70109,"Name":"El Plan","state_id":3450,"state_code":"MEX","state_name":"Estado de México","country_id":142,"country_code":"MX","country_name":"Mexico","latitude":"19.37452000","longitude":"-99.80049000","wikiDataId":"Q20238230"},{"id":70121,"Name":"El Porvenir I","state_id":3450,"state_code":"MEX","state_name":"Estado de México","country_id":142,"country_code":"MX","country_name":"Mexico","latitude":"19.31694000","longitude":"-99.72889000","wikiDataId":"Q20238235"},{"id":70124,"Name":"El Potrero","state_id":3450,"state_code":"MEX","state_name":"Estado de México","country_id":142,"country_code":"MX","country_name":"Mexico","latitude":"19.30625000","longitude":"-99.99393000","wikiDataId":"Q20254039"},{"id":70126,"Name":"El Potrero de San Diego","state_id":3450,"state_code":"MEX","state_name":"Estado de México","country_id":142,"country_code":"MX","country_name":"Mexico","latitude":"19.48899000","longitude":"-100.08210000","wikiDataId":"Q20254039"},{"id":70135,"Name":"El Progreso Hidalgo","state_id":3450,"state_code":"MEX","state_name":"Estado de México","country_id":142,"country_code":"MX","country_name":"Mexico","latitude":"18.84639000","longitude":"-99.61417000","wikiDataId":"Q20238245"},{"id":70140,"Name":"El Puerto Magú","state_id":3450,"state_code":"MEX","state_name":"Estado de México","country_id":142,"country_code":"MX","country_name":"Mexico","latitude":"19.68846000","longitude":"-99.37290000","wikiDataId":"Q20224156"},{"id":70147,"Name":"El Recodo de San José Axalco","state_id":3450,"state_code":"MEX","state_name":"Estado de México","country_id":142,"country_code":"MX","country_name":"Mexico","latitude":"19.20278000","longitude":"-98.90278000","wikiDataId":"Q20280607"},{"id":70164,"Name":"El Rincón de la Candelaria","state_id":3450,"state_code":"MEX","state_name":"Estado de México","country_id":142,"country_code":"MX","country_name":"Mexico","latitude":"19.79000000","longitude":"-99.84306000","wikiDataId":"Q20238283"},{"id":70165,"Name":"El Rincón de los Perales","state_id":3450,"state_code":"MEX","state_name":"Estado de México","country_id":142,"country_code":"MX","country_name":"Mexico","latitude":"19.54222000","longitude":"-99.82806000","wikiDataId":"Q20238284"},{"id":70170,"Name":"El Rosal","state_id":3450,"state_code":"MEX","state_name":"Estado de México","country_id":142,"country_code":"MX","country_name":"Mexico","latitude":"20.10126000","longitude":"-99.68555000","wikiDataId":"Q41772392"},{"id":70186,"Name":"El Salitre","state_id":3450,"state_code":"MEX","state_name":"Estado de México","country_id":142,"country_code":"MX","country_name":"Mexico","latitude":"18.95250000","longitude":"-99.58972000","wikiDataId":"Q20238307"},{"id":70217,"Name":"El Tepetatal","state_id":3450,"state_code":"MEX","state_name":"Estado de México","country_id":142,"country_code":"MX","country_name":"Mexico","latitude":"19.34581000","longitude":"-99.77086000","wikiDataId":"Q20238364"},{"id":70223,"Name":"El Terrero","state_id":3450,"state_code":"MEX","state_name":"Estado de México","country_id":142,"country_code":"MX","country_name":"Mexico","latitude":"18.79028000","longitude":"-99.64528000","wikiDataId":"Q20129069"},{"id":70286,"Name":"Emiliano Zapata","state_id":3450,"state_code":"MEX","state_name":"Estado de México","country_id":142,"country_code":"MX","country_name":"Mexico","latitude":"19.34361000","longitude":"-98.97472000","wikiDataId":"Q20238407"},{"id":70292,"Name":"Emiliano Zapata (San José Bata)","state_id":3450,"state_code":"MEX","state_name":"Estado de México","country_id":142,"country_code":"MX","country_name":"Mexico","latitude":"19.91111000","longitude":"-99.00667000","wikiDataId":"Q20238405"},{"id":70293,"Name":"Emiliano Zapata (Santo Domingo)","state_id":3450,"state_code":"MEX","state_name":"Estado de México","country_id":142,"country_code":"MX","country_name":"Mexico","latitude":"19.57972000","longitude":"-99.78806000","wikiDataId":"Q20134305"},{"id":70297,"Name":"Emilio Portes Gil","state_id":3450,"state_code":"MEX","state_name":"Estado de México","country_id":142,"country_code":"MX","country_name":"Mexico","latitude":"19.64444000","longitude":"-99.91667000","wikiDataId":"Q20281524"},{"id":70312,"Name":"Epitacio Huerta","state_id":3450,"state_code":"MEX","state_name":"Estado de México","country_id":142,"country_code":"MX","country_name":"Mexico","latitude":"20.13493000","longitude":"-100.29321000","wikiDataId":"Q3845429"},{"id":70376,"Name":"Etúcuaro","state_id":3450,"state_code":"MEX","state_name":"Estado de México","country_id":142,"country_code":"MX","country_name":"Mexico","latitude":"19.89286000","longitude":"-102.12945000","wikiDataId":"Q20136266"},{"id":70382,"Name":"Ex-Hacienda de Guadalupe","state_id":3450,"state_code":"MEX","state_name":"Estado de México","country_id":142,"country_code":"MX","country_name":"Mexico","latitude":"19.80889000","longitude":"-98.97250000","wikiDataId":"Q20281709"},{"id":70388,"Name":"Ex-hacienda de Xalpa","state_id":3450,"state_code":"MEX","state_name":"Estado de México","country_id":142,"country_code":"MX","country_name":"Mexico","latitude":"19.82150000","longitude":"-99.18275000","wikiDataId":"Q20136559"},{"id":70381,"Name":"Ex-Hacienda Santa Inés","state_id":3450,"state_code":"MEX","state_name":"Estado de México","country_id":142,"country_code":"MX","country_name":"Mexico","latitude":"19.70667000","longitude":"-99.07250000","wikiDataId":"Q20281728"},{"id":70386,"Name":"Ex-Rancho San Dimas","state_id":3450,"state_code":"MEX","state_name":"Estado de México","country_id":142,"country_code":"MX","country_name":"Mexico","latitude":"19.17389000","longitude":"-99.56528000","wikiDataId":"Q20238431"},{"id":70498,"Name":"Fábrica Concepción","state_id":3450,"state_code":"MEX","state_name":"Estado de México","country_id":142,"country_code":"MX","country_name":"Mexico","latitude":"19.63445000","longitude":"-100.13596000","wikiDataId":"Q2445418"},{"id":70462,"Name":"Fracción San Roque (El Prieto)","state_id":3450,"state_code":"MEX","state_name":"Estado de México","country_id":142,"country_code":"MX","country_name":"Mexico","latitude":"19.68722000","longitude":"-99.17222000","wikiDataId":"Q20138761"},{"id":70416,"Name":"Fraccionamiento Colinas del Sol","state_id":3450,"state_code":"MEX","state_name":"Estado de México","country_id":142,"country_code":"MX","country_name":"Mexico","latitude":"19.37222000","longitude":"-99.74028000","wikiDataId":"Q20138909"},{"id":70423,"Name":"Fraccionamiento Hacienda del Bosque","state_id":3450,"state_code":"MEX","state_name":"Estado de México","country_id":142,"country_code":"MX","country_name":"Mexico","latitude":"19.72667000","longitude":"-98.96861000","wikiDataId":"Q20282033"},{"id":70453,"Name":"Fraccionamiento la Trinidad","state_id":3450,"state_code":"MEX","state_name":"Estado de México","country_id":142,"country_code":"MX","country_name":"Mexico","latitude":"19.82917000","longitude":"-99.08278000","wikiDataId":"Q20139089"},{"id":70436,"Name":"Fraccionamiento Real de San Pablo","state_id":3450,"state_code":"MEX","state_name":"Estado de México","country_id":142,"country_code":"MX","country_name":"Mexico","latitude":"19.38944000","longitude":"-99.64861000","wikiDataId":"Q20282113"},{"id":70439,"Name":"Fraccionamiento Rinconada del Valle","state_id":3450,"state_code":"MEX","state_name":"Estado de México","country_id":142,"country_code":"MX","country_name":"Mexico","latitude":"19.41111000","longitude":"-99.57417000","wikiDataId":"Q20282121"},{"id":70460,"Name":"Fraccionamiento y Club de Golf los Encinos","state_id":3450,"state_code":"MEX","state_name":"Estado de México","country_id":142,"country_code":"MX","country_name":"Mexico","latitude":"19.28917000","longitude":"-99.48000000","wikiDataId":"Q20139476"},{"id":70489,"Name":"Fresno Nichi","state_id":3450,"state_code":"MEX","state_name":"Estado de México","country_id":142,"country_code":"MX","country_name":"Mexico","latitude":"19.56694000","longitude":"-99.94889000","wikiDataId":"Q20140159"},{"id":70496,"Name":"Fuentes del Valle","state_id":3450,"state_code":"MEX","state_name":"Estado de México","country_id":142,"country_code":"MX","country_name":"Mexico","latitude":"19.63250000","longitude":"-99.13861000","wikiDataId":"Q2445418"},{"id":70507,"Name":"Galaxias Toluca","state_id":3450,"state_code":"MEX","state_name":"Estado de México","country_id":142,"country_code":"MX","country_name":"Mexico","latitude":"19.39806000","longitude":"-99.65000000","wikiDataId":"Q20140387"},{"id":70510,"Name":"Galeana","state_id":3450,"state_code":"MEX","state_name":"Estado de México","country_id":142,"country_code":"MX","country_name":"Mexico","latitude":"20.03585000","longitude":"-101.57150000","wikiDataId":"Q27784876"},{"id":70519,"Name":"Ganzda","state_id":3450,"state_code":"MEX","state_name":"Estado de México","country_id":142,"country_code":"MX","country_name":"Mexico","latitude":"19.99000000","longitude":"-99.84750000","wikiDataId":"Q20140587"},{"id":70564,"Name":"Granjas Ampliación Santa Rosa","state_id":3450,"state_code":"MEX","state_name":"Estado de México","country_id":142,"country_code":"MX","country_name":"Mexico","latitude":"19.59278000","longitude":"-98.96667000","wikiDataId":"Q20142293"},{"id":70577,"Name":"Guadalupe Buenavista","state_id":3450,"state_code":"MEX","state_name":"Estado de México","country_id":142,"country_code":"MX","country_name":"Mexico","latitude":"19.61194000","longitude":"-100.12720000","wikiDataId":"Q5613245"},{"id":70578,"Name":"Guadalupe Cachi","state_id":3450,"state_code":"MEX","state_name":"Estado de México","country_id":142,"country_code":"MX","country_name":"Mexico","latitude":"19.60111000","longitude":"-99.82500000","wikiDataId":"Q20282705"},{"id":70580,"Name":"Guadalupe Coté","state_id":3450,"state_code":"MEX","state_name":"Estado de México","country_id":142,"country_code":"MX","country_name":"Mexico","latitude":"19.61075000","longitude":"-99.98499000","wikiDataId":"Q20142608"},{"id":70594,"Name":"Guadalupe Totoltepec","state_id":3450,"state_code":"MEX","state_name":"Estado de México","country_id":142,"country_code":"MX","country_name":"Mexico","latitude":"19.34833000","longitude":"-99.56417000","wikiDataId":"Q20142874"},{"id":70637,"Name":"Gunyo Poniente (San José Gunyo)","state_id":3450,"state_code":"MEX","state_name":"Estado de México","country_id":142,"country_code":"MX","country_name":"Mexico","latitude":"20.11149000","longitude":"-99.83861000","wikiDataId":"Q20143994"},{"id":70730,"Name":"Huancito","state_id":3450,"state_code":"MEX","state_name":"Estado de México","country_id":142,"country_code":"MX","country_name":"Mexico","latitude":"19.84889000","longitude":"-102.06784000","wikiDataId":"Q604826"},{"id":70761,"Name":"Huehuetoca","state_id":3450,"state_code":"MEX","state_name":"Estado de México","country_id":142,"country_code":"MX","country_name":"Mexico","latitude":"19.82819000","longitude":"-99.20370000","wikiDataId":"Q20283461"},{"id":70768,"Name":"Huemetla","state_id":3450,"state_code":"MEX","state_name":"Estado de México","country_id":142,"country_code":"MX","country_name":"Mexico","latitude":"19.71500000","longitude":"-99.73583000","wikiDataId":"Q20238515"},{"id":70782,"Name":"Hueypoxtla","state_id":3450,"state_code":"MEX","state_name":"Estado de México","country_id":142,"country_code":"MX","country_name":"Mexico","latitude":"19.91301000","longitude":"-99.07384000","wikiDataId":"Q2606751"},{"id":70791,"Name":"Huilango","state_id":3450,"state_code":"MEX","state_name":"Estado de México","country_id":142,"country_code":"MX","country_name":"Mexico","latitude":"19.68056000","longitude":"-99.25639000","wikiDataId":"Q20238517"},{"id":70814,"Name":"Huitzoltepec","state_id":3450,"state_code":"MEX","state_name":"Estado de México","country_id":142,"country_code":"MX","country_name":"Mexico","latitude":"18.76737000","longitude":"-99.80014000","wikiDataId":"Q20146651"},{"id":70818,"Name":"Huixquilucan","state_id":3450,"state_code":"MEX","state_name":"Estado de México","country_id":142,"country_code":"MX","country_name":"Mexico","latitude":"19.35985000","longitude":"-99.35016000","wikiDataId":"Q20146689"},{"id":70819,"Name":"Huixquilucan de Degollado","state_id":3450,"state_code":"MEX","state_name":"Estado de México","country_id":142,"country_code":"MX","country_name":"Mexico","latitude":"19.36028000","longitude":"-99.34980000","wikiDataId":"Q20146689"},{"id":70836,"Name":"Ignacio Allende","state_id":3450,"state_code":"MEX","state_name":"Estado de México","country_id":142,"country_code":"MX","country_name":"Mexico","latitude":"19.34426000","longitude":"-99.36146000","wikiDataId":"Q20146978"},{"id":70929,"Name":"Ixtapaluca","state_id":3450,"state_code":"MEX","state_name":"Estado de México","country_id":142,"country_code":"MX","country_name":"Mexico","latitude":"19.31556000","longitude":"-98.88284000","wikiDataId":"Q1130484"},{"id":70931,"Name":"Ixtapan de la Sal","state_id":3450,"state_code":"MEX","state_name":"Estado de México","country_id":142,"country_code":"MX","country_name":"Mexico","latitude":"18.84369000","longitude":"-99.67671000","wikiDataId":"Q2018330"},{"id":70932,"Name":"Ixtapan del Oro","state_id":3450,"state_code":"MEX","state_name":"Estado de México","country_id":142,"country_code":"MX","country_name":"Mexico","latitude":"19.26303000","longitude":"-100.26459000","wikiDataId":"Q3308590"},{"id":70940,"Name":"Ixtlahuaca de Cuauhtémoc","state_id":3450,"state_code":"MEX","state_name":"Estado de México","country_id":142,"country_code":"MX","country_name":"Mexico","latitude":"19.88139000","longitude":"-98.86028000","wikiDataId":"Q20148085"},{"id":70941,"Name":"Ixtlahuaca de Rayón","state_id":3450,"state_code":"MEX","state_name":"Estado de México","country_id":142,"country_code":"MX","country_name":"Mexico","latitude":"19.56889000","longitude":"-99.76694000","wikiDataId":"Q1962187"},{"id":70960,"Name":"Jacona de Plancarte","state_id":3450,"state_code":"MEX","state_name":"Estado de México","country_id":142,"country_code":"MX","country_name":"Mexico","latitude":"19.95232000","longitude":"-102.30781000","wikiDataId":"Q2446759"},{"id":70974,"Name":"Jalmolonga (La Hacienda)","state_id":3450,"state_code":"MEX","state_name":"Estado de México","country_id":142,"country_code":"MX","country_name":"Mexico","latitude":"18.91835000","longitude":"-99.49407000","wikiDataId":"Q20238543"},{"id":70978,"Name":"Jalpa de los Baños","state_id":3450,"state_code":"MEX","state_name":"Estado de México","country_id":142,"country_code":"MX","country_name":"Mexico","latitude":"19.67833000","longitude":"-99.87389000","wikiDataId":"Q20148517"},{"id":70984,"Name":"Jaltenco","state_id":3450,"state_code":"MEX","state_name":"Estado de México","country_id":142,"country_code":"MX","country_name":"Mexico","latitude":"19.75298000","longitude":"-99.09390000","wikiDataId":"Q114090"},{"id":70999,"Name":"Janambo","state_id":3450,"state_code":"MEX","state_name":"Estado de México","country_id":142,"country_code":"MX","country_name":"Mexico","latitude":"20.20642000","longitude":"-101.52644000","wikiDataId":"Q2448285"},{"id":71000,"Name":"Janamuato","state_id":3450,"state_code":"MEX","state_name":"Estado de México","country_id":142,"country_code":"MX","country_name":"Mexico","latitude":"20.09961000","longitude":"-101.58540000","wikiDataId":"Q2448285"},{"id":71023,"Name":"Jesús Carranza (Rancho de Jesús)","state_id":3450,"state_code":"MEX","state_name":"Estado de México","country_id":142,"country_code":"MX","country_name":"Mexico","latitude":"18.94528000","longitude":"-99.63056000","wikiDataId":"Q20148992"},{"id":71036,"Name":"Jesús del Monte","state_id":3450,"state_code":"MEX","state_name":"Estado de México","country_id":142,"country_code":"MX","country_name":"Mexico","latitude":"19.37500000","longitude":"-99.29444000","wikiDataId":"Q20149010"},{"id":71027,"Name":"Jesús María","state_id":3450,"state_code":"MEX","state_name":"Estado de México","country_id":142,"country_code":"MX","country_name":"Mexico","latitude":"19.41773000","longitude":"-99.99696000","wikiDataId":"Q20284223"},{"id":71039,"Name":"Jicaltepec Autopan","state_id":3450,"state_code":"MEX","state_name":"Estado de México","country_id":142,"country_code":"MX","country_name":"Mexico","latitude":"19.37167000","longitude":"-99.64083000","wikiDataId":"Q20149255"},{"id":71040,"Name":"Jicaltepec Cuexcontitlán","state_id":3450,"state_code":"MEX","state_name":"Estado de México","country_id":142,"country_code":"MX","country_name":"Mexico","latitude":"19.37306000","longitude":"-99.62750000","wikiDataId":"Q20149259"},{"id":71045,"Name":"Jilotepec de Molina Enríquez","state_id":3450,"state_code":"MEX","state_name":"Estado de México","country_id":142,"country_code":"MX","country_name":"Mexico","latitude":"19.95194000","longitude":"-99.53278000","wikiDataId":"Q20149297"},{"id":71046,"Name":"Jilotzingo","state_id":3450,"state_code":"MEX","state_name":"Estado de México","country_id":142,"country_code":"MX","country_name":"Mexico","latitude":"19.86889000","longitude":"-99.06194000","wikiDataId":"Q20284304"},{"id":71056,"Name":"Jiquipilco","state_id":3450,"state_code":"MEX","state_name":"Estado de México","country_id":142,"country_code":"MX","country_name":"Mexico","latitude":"19.55644000","longitude":"-99.60833000","wikiDataId":"Q3300374"},{"id":71067,"Name":"Jocotitlán","state_id":3450,"state_code":"MEX","state_name":"Estado de México","country_id":142,"country_code":"MX","country_name":"Mexico","latitude":"19.70991000","longitude":"-99.78867000","wikiDataId":"Q3241862"},{"id":71083,"Name":"Joquicingo","state_id":3450,"state_code":"MEX","state_name":"Estado de México","country_id":142,"country_code":"MX","country_name":"Mexico","latitude":"19.05032000","longitude":"-99.53375000","wikiDataId":"Q3308471"},{"id":71084,"Name":"Jorge Jiménez Cantú","state_id":3450,"state_code":"MEX","state_name":"Estado de México","country_id":142,"country_code":"MX","country_name":"Mexico","latitude":"19.30972000","longitude":"-98.84667000","wikiDataId":"Q20149707"},{"id":71085,"Name":"Jorobas","state_id":3450,"state_code":"MEX","state_name":"Estado de México","country_id":142,"country_code":"MX","country_name":"Mexico","latitude":"19.82389000","longitude":"-99.24833000","wikiDataId":"Q20149755"},{"id":71132,"Name":"Juchitepec","state_id":3450,"state_code":"MEX","state_name":"Estado de México","country_id":142,"country_code":"MX","country_name":"Mexico","latitude":"19.10059000","longitude":"-98.87880000","wikiDataId":"Q2393522"},{"id":71169,"Name":"La Albarrada (San Francisco la Albarrada)","state_id":3450,"state_code":"MEX","state_name":"Estado de México","country_id":142,"country_code":"MX","country_name":"Mexico","latitude":"19.06750000","longitude":"-100.07528000","wikiDataId":"Q20238575"},{"id":71187,"Name":"La Cabecera","state_id":3450,"state_code":"MEX","state_name":"Estado de México","country_id":142,"country_code":"MX","country_name":"Mexico","latitude":"19.35611000","longitude":"-99.74806000","wikiDataId":"Q20238611"},{"id":71188,"Name":"La Cabecera Concepción","state_id":3450,"state_code":"MEX","state_name":"Estado de México","country_id":142,"country_code":"MX","country_name":"Mexico","latitude":"19.70361000","longitude":"-99.94111000","wikiDataId":"Q20286483"},{"id":71192,"Name":"La Calle","state_id":3450,"state_code":"MEX","state_name":"Estado de México","country_id":142,"country_code":"MX","country_name":"Mexico","latitude":"20.28628000","longitude":"-101.63679000","wikiDataId":"Q20239236"},{"id":71194,"Name":"La Campanilla","state_id":3450,"state_code":"MEX","state_name":"Estado de México","country_id":142,"country_code":"MX","country_name":"Mexico","latitude":"19.50983000","longitude":"-99.94230000","wikiDataId":"Q20239236"},{"id":71207,"Name":"La Cañada","state_id":3450,"state_code":"MEX","state_name":"Estado de México","country_id":142,"country_code":"MX","country_name":"Mexico","latitude":"19.48639000","longitude":"-99.59889000","wikiDataId":"Q20238637"},{"id":71198,"Name":"La Candelaria Tlapala","state_id":3450,"state_code":"MEX","state_name":"Estado de México","country_id":142,"country_code":"MX","country_name":"Mexico","latitude":"19.24042000","longitude":"-98.84766000","wikiDataId":"Q20264226"},{"id":71199,"Name":"La Cantera","state_id":3450,"state_code":"MEX","state_name":"Estado de México","country_id":142,"country_code":"MX","country_name":"Mexico","latitude":"19.86375000","longitude":"-102.40838000","wikiDataId":"Q20264226"},{"id":71204,"Name":"La Caridad","state_id":3450,"state_code":"MEX","state_name":"Estado de México","country_id":142,"country_code":"MX","country_name":"Mexico","latitude":"19.94778000","longitude":"-99.83694000","wikiDataId":"Q20238650"},{"id":71217,"Name":"La Ciénega","state_id":3450,"state_code":"MEX","state_name":"Estado de México","country_id":142,"country_code":"MX","country_name":"Mexico","latitude":"18.95611000","longitude":"-99.58139000","wikiDataId":"Q20238678"},{"id":71220,"Name":"La Colonia","state_id":3450,"state_code":"MEX","state_name":"Estado de México","country_id":142,"country_code":"MX","country_name":"Mexico","latitude":"19.14444000","longitude":"-98.78667000","wikiDataId":"Q20287902"},{"id":71225,"Name":"La Compañía","state_id":3450,"state_code":"MEX","state_name":"Estado de México","country_id":142,"country_code":"MX","country_name":"Mexico","latitude":"19.16460000","longitude":"-100.07966000","wikiDataId":"Q1798725"},{"id":71227,"Name":"La Comunidad","state_id":3450,"state_code":"MEX","state_name":"Estado de México","country_id":142,"country_code":"MX","country_name":"Mexico","latitude":"20.02111000","longitude":"-99.57611000","wikiDataId":"Q20287965"},{"id":71233,"Name":"La Concepción","state_id":3450,"state_code":"MEX","state_name":"Estado de México","country_id":142,"country_code":"MX","country_name":"Mexico","latitude":"19.69611000","longitude":"-99.30028000","wikiDataId":"Q20238713"},{"id":71235,"Name":"La Concepción Coatipac (La Conchita)","state_id":3450,"state_code":"MEX","state_name":"Estado de México","country_id":142,"country_code":"MX","country_name":"Mexico","latitude":"19.18188000","longitude":"-99.56833000","wikiDataId":"Q20238701"},{"id":71238,"Name":"La Concepción de Hidalgo","state_id":3450,"state_code":"MEX","state_name":"Estado de México","country_id":142,"country_code":"MX","country_name":"Mexico","latitude":"19.45054000","longitude":"-99.53139000","wikiDataId":"Q20287978"},{"id":71239,"Name":"La Concepción de los Baños","state_id":3450,"state_code":"MEX","state_name":"Estado de México","country_id":142,"country_code":"MX","country_name":"Mexico","latitude":"19.68249000","longitude":"-99.86104000","wikiDataId":"Q20238702"},{"id":71236,"Name":"La Concepción Enyege","state_id":3450,"state_code":"MEX","state_name":"Estado de México","country_id":142,"country_code":"MX","country_name":"Mexico","latitude":"19.56472000","longitude":"-99.84139000","wikiDataId":"Q20287978"},{"id":71237,"Name":"La Concepción Xochicuautla","state_id":3450,"state_code":"MEX","state_name":"Estado de México","country_id":142,"country_code":"MX","country_name":"Mexico","latitude":"19.38226000","longitude":"-99.44050000","wikiDataId":"Q20287978"},{"id":71245,"Name":"La Constitución Toltepec","state_id":3450,"state_code":"MEX","state_name":"Estado de México","country_id":142,"country_code":"MX","country_name":"Mexico","latitude":"19.34861000","longitude":"-99.54917000","wikiDataId":"Q20288120"},{"id":71253,"Name":"La Cruz y Carrizal","state_id":3450,"state_code":"MEX","state_name":"Estado de México","country_id":142,"country_code":"MX","country_name":"Mexico","latitude":"19.83021000","longitude":"-99.42168000","wikiDataId":"Q20207715"},{"id":71270,"Name":"La Esperanza","state_id":3450,"state_code":"MEX","state_name":"Estado de México","country_id":142,"country_code":"MX","country_name":"Mexico","latitude":"19.68377000","longitude":"-99.51575000","wikiDataId":"Q20228063"},{"id":71283,"Name":"La Estancia Sector Uno (La Estancia)","state_id":3450,"state_code":"MEX","state_name":"Estado de México","country_id":142,"country_code":"MX","country_name":"Mexico","latitude":"19.87056000","longitude":"-99.79167000","wikiDataId":"Q20289643"},{"id":71290,"Name":"La Finca","state_id":3450,"state_code":"MEX","state_name":"Estado de México","country_id":142,"country_code":"MX","country_name":"Mexico","latitude":"18.89047000","longitude":"-99.64028000","wikiDataId":"Q20289919"},{"id":71303,"Name":"La Glorieta","state_id":3450,"state_code":"MEX","state_name":"Estado de México","country_id":142,"country_code":"MX","country_name":"Mexico","latitude":"19.41154000","longitude":"-99.38562000","wikiDataId":"Q20238803"},{"id":71309,"Name":"La Guadalupana","state_id":3450,"state_code":"MEX","state_name":"Estado de México","country_id":142,"country_code":"MX","country_name":"Mexico","latitude":"19.55414000","longitude":"-99.90922000","wikiDataId":"Q48535418"},{"id":71315,"Name":"La Herradura","state_id":3450,"state_code":"MEX","state_name":"Estado de México","country_id":142,"country_code":"MX","country_name":"Mexico","latitude":"19.04000000","longitude":"-99.58472000","wikiDataId":"Q20250900"},{"id":71333,"Name":"La Joya","state_id":3450,"state_code":"MEX","state_name":"Estado de México","country_id":142,"country_code":"MX","country_name":"Mexico","latitude":"19.27639000","longitude":"-99.75889000","wikiDataId":"Q20238842"},{"id":71365,"Name":"La Loma","state_id":3450,"state_code":"MEX","state_name":"Estado de México","country_id":142,"country_code":"MX","country_name":"Mexico","latitude":"20.01966000","longitude":"-100.01027000","wikiDataId":"Q20246456"},{"id":71368,"Name":"La Loma Cuexcontitlán","state_id":3450,"state_code":"MEX","state_name":"Estado de México","country_id":142,"country_code":"MX","country_name":"Mexico","latitude":"19.38000000","longitude":"-99.64889000","wikiDataId":"Q20238873"},{"id":71381,"Name":"La Magdalena","state_id":3450,"state_code":"MEX","state_name":"Estado de México","country_id":142,"country_code":"MX","country_name":"Mexico","latitude":"19.94796000","longitude":"-99.99947000","wikiDataId":"Q20291934"},{"id":71382,"Name":"La Magdalena Chichicaspa","state_id":3450,"state_code":"MEX","state_name":"Estado de México","country_id":142,"country_code":"MX","country_name":"Mexico","latitude":"19.41237000","longitude":"-99.32555000","wikiDataId":"Q21209740"},{"id":71387,"Name":"La Magdalena de los Reyes (La Magdalena)","state_id":3450,"state_code":"MEX","state_name":"Estado de México","country_id":142,"country_code":"MX","country_name":"Mexico","latitude":"19.18972000","longitude":"-99.41000000","wikiDataId":"Q20238912"},{"id":71383,"Name":"La Magdalena Tenexpan","state_id":3450,"state_code":"MEX","state_name":"Estado de México","country_id":142,"country_code":"MX","country_name":"Mexico","latitude":"19.46333000","longitude":"-99.58861000","wikiDataId":"Q20291963"},{"id":71389,"Name":"La Mesa","state_id":3450,"state_code":"MEX","state_name":"Estado de México","country_id":142,"country_code":"MX","country_name":"Mexico","latitude":"19.58748000","longitude":"-100.17373000","wikiDataId":"Q20228104"},{"id":71392,"Name":"La Mesa de Chosto","state_id":3450,"state_code":"MEX","state_name":"Estado de México","country_id":142,"country_code":"MX","country_name":"Mexico","latitude":"19.85250000","longitude":"-99.89028000","wikiDataId":"Q20292215"},{"id":71433,"Name":"La Pastoría","state_id":3450,"state_code":"MEX","state_name":"Estado de México","country_id":142,"country_code":"MX","country_name":"Mexico","latitude":"19.54306000","longitude":"-98.91111000","wikiDataId":"Q20130683"},{"id":71451,"Name":"La Planada","state_id":3450,"state_code":"MEX","state_name":"Estado de México","country_id":142,"country_code":"MX","country_name":"Mexico","latitude":"19.78129000","longitude":"-99.18267000","wikiDataId":"Q20254654"},{"id":71452,"Name":"La Planada (El Arenal)","state_id":3450,"state_code":"MEX","state_name":"Estado de México","country_id":142,"country_code":"MX","country_name":"Mexico","latitude":"19.33333000","longitude":"-99.67694000","wikiDataId":"Q20132201"},{"id":71459,"Name":"La Presita Segundo Cuartel","state_id":3450,"state_code":"MEX","state_name":"Estado de México","country_id":142,"country_code":"MX","country_name":"Mexico","latitude":"20.16278000","longitude":"-99.87278000","wikiDataId":"Q20133016"},{"id":71462,"Name":"La Providencia","state_id":3450,"state_code":"MEX","state_name":"Estado de México","country_id":142,"country_code":"MX","country_name":"Mexico","latitude":"19.75833000","longitude":"-99.14667000","wikiDataId":"Q20133505"},{"id":71466,"Name":"La Puerta del Pilar","state_id":3450,"state_code":"MEX","state_name":"Estado de México","country_id":142,"country_code":"MX","country_name":"Mexico","latitude":"19.46018000","longitude":"-100.01577000","wikiDataId":"Q20293446"},{"id":71468,"Name":"La Purificación","state_id":3450,"state_code":"MEX","state_name":"Estado de México","country_id":142,"country_code":"MX","country_name":"Mexico","latitude":"19.52441000","longitude":"-98.81731000","wikiDataId":"Q20293446"},{"id":71480,"Name":"La Rosa","state_id":3450,"state_code":"MEX","state_name":"Estado de México","country_id":142,"country_code":"MX","country_name":"Mexico","latitude":"19.48519000","longitude":"-99.32984000","wikiDataId":"Q20293754"},{"id":71496,"Name":"La Soledad Barrio","state_id":3450,"state_code":"MEX","state_name":"Estado de México","country_id":142,"country_code":"MX","country_name":"Mexico","latitude":"20.09194000","longitude":"-99.82306000","wikiDataId":"Q20136257"},{"id":71510,"Name":"La Trinidad","state_id":3450,"state_code":"MEX","state_name":"Estado de México","country_id":142,"country_code":"MX","country_name":"Mexico","latitude":"18.96639000","longitude":"-99.58083000","wikiDataId":"Q20137926"},{"id":71536,"Name":"La Y","state_id":3450,"state_code":"MEX","state_name":"Estado de México","country_id":142,"country_code":"MX","country_name":"Mexico","latitude":"19.39806000","longitude":"-99.58972000","wikiDataId":"Q20294598"},{"id":71555,"Name":"Laguna de Tabernillas (El Resbaloso)","state_id":3450,"state_code":"MEX","state_name":"Estado de México","country_id":142,"country_code":"MX","country_name":"Mexico","latitude":"19.46139000","longitude":"-99.87833000","wikiDataId":"Q20140169"},{"id":71604,"Name":"Las Huertas","state_id":3450,"state_code":"MEX","state_name":"Estado de México","country_id":142,"country_code":"MX","country_name":"Mexico","latitude":"19.97222000","longitude":"-99.55611000","wikiDataId":"Q20239058"},{"id":71615,"Name":"Las Manzanas","state_id":3450,"state_code":"MEX","state_name":"Estado de México","country_id":142,"country_code":"MX","country_name":"Mexico","latitude":"19.95069000","longitude":"-99.56109000","wikiDataId":"Q20227387"},{"id":71631,"Name":"Las Peñas","state_id":3450,"state_code":"MEX","state_name":"Estado de México","country_id":142,"country_code":"MX","country_name":"Mexico","latitude":"19.44972000","longitude":"-99.99944000","wikiDataId":"Q20296495"},{"id":71633,"Name":"Las Pintas","state_id":3450,"state_code":"MEX","state_name":"Estado de México","country_id":142,"country_code":"MX","country_name":"Mexico","latitude":"19.89667000","longitude":"-98.88694000","wikiDataId":"Q20239094"},{"id":71636,"Name":"Las Ranas","state_id":3450,"state_code":"MEX","state_name":"Estado de México","country_id":142,"country_code":"MX","country_name":"Mexico","latitude":"20.20860000","longitude":"-101.47810000","wikiDataId":"Q20149230"},{"id":71638,"Name":"Las Rosas","state_id":3450,"state_code":"MEX","state_name":"Estado de México","country_id":142,"country_code":"MX","country_name":"Mexico","latitude":"19.54631000","longitude":"-100.15986000","wikiDataId":"Q20296680"},{"id":71664,"Name":"Lerma de Villada","state_id":3450,"state_code":"MEX","state_name":"Estado de México","country_id":142,"country_code":"MX","country_name":"Mexico","latitude":"19.28881000","longitude":"-99.51163000","wikiDataId":"Q1962179"},{"id":71695,"Name":"Llano de la Y","state_id":3450,"state_code":"MEX","state_name":"Estado de México","country_id":142,"country_code":"MX","country_name":"Mexico","latitude":"19.40278000","longitude":"-99.61639000","wikiDataId":"Q20282447"},{"id":71696,"Name":"Llano de las Flores (Barrio del Hueso)","state_id":3450,"state_code":"MEX","state_name":"Estado de México","country_id":142,"country_code":"MX","country_name":"Mexico","latitude":"19.43583000","longitude":"-99.32250000","wikiDataId":"Q20282457"},{"id":71692,"Name":"Llano de Zacapexco","state_id":3450,"state_code":"MEX","state_name":"Estado de México","country_id":142,"country_code":"MX","country_name":"Mexico","latitude":"19.70405000","longitude":"-99.48507000","wikiDataId":"Q20270009"},{"id":71684,"Name":"Llano Grande","state_id":3450,"state_code":"MEX","state_name":"Estado de México","country_id":142,"country_code":"MX","country_name":"Mexico","latitude":"18.82733000","longitude":"-99.76774000","wikiDataId":"Q20208349"},{"id":71708,"Name":"Loma Alta","state_id":3450,"state_code":"MEX","state_name":"Estado de México","country_id":142,"country_code":"MX","country_name":"Mexico","latitude":"19.68944000","longitude":"-99.44917000","wikiDataId":"Q3845465"},{"id":71710,"Name":"Loma Alta Taxhimay","state_id":3450,"state_code":"MEX","state_name":"Estado de México","country_id":142,"country_code":"MX","country_name":"Mexico","latitude":"19.84222000","longitude":"-99.40806000","wikiDataId":"Q20282672"},{"id":71716,"Name":"Loma Bonita","state_id":3450,"state_code":"MEX","state_name":"Estado de México","country_id":142,"country_code":"MX","country_name":"Mexico","latitude":"19.18722000","longitude":"-100.21500000","wikiDataId":"Q20239157"},{"id":71726,"Name":"Loma de Guadalupe (La Biznaga)","state_id":3450,"state_code":"MEX","state_name":"Estado de México","country_id":142,"country_code":"MX","country_name":"Mexico","latitude":"19.65219000","longitude":"-99.36873000","wikiDataId":"Q20239175"},{"id":71728,"Name":"Loma de Juárez","state_id":3450,"state_code":"MEX","state_name":"Estado de México","country_id":142,"country_code":"MX","country_name":"Mexico","latitude":"19.43523000","longitude":"-100.09020000","wikiDataId":"Q30119571"},{"id":71729,"Name":"Loma de San Francisco","state_id":3450,"state_code":"MEX","state_name":"Estado de México","country_id":142,"country_code":"MX","country_name":"Mexico","latitude":"19.28333000","longitude":"-99.80917000","wikiDataId":"Q20239185"},{"id":71730,"Name":"Loma de San José","state_id":3450,"state_code":"MEX","state_name":"Estado de México","country_id":142,"country_code":"MX","country_name":"Mexico","latitude":"19.64222000","longitude":"-99.32778000","wikiDataId":"Q20282939"},{"id":71731,"Name":"Loma de San Miguel","state_id":3450,"state_code":"MEX","state_name":"Estado de México","country_id":142,"country_code":"MX","country_name":"Mexico","latitude":"19.34194000","longitude":"-99.79167000","wikiDataId":"Q20282943"},{"id":71739,"Name":"Loma del Río","state_id":3450,"state_code":"MEX","state_name":"Estado de México","country_id":142,"country_code":"MX","country_name":"Mexico","latitude":"19.60056000","longitude":"-99.35056000","wikiDataId":"Q20283058"},{"id":71720,"Name":"Loma Larga","state_id":3450,"state_code":"MEX","state_name":"Estado de México","country_id":142,"country_code":"MX","country_name":"Mexico","latitude":"19.62750000","longitude":"-99.34611000","wikiDataId":"Q20239224"},{"id":71721,"Name":"Loma Larga (Barrio de Loma Larga)","state_id":3450,"state_code":"MEX","state_name":"Estado de México","country_id":142,"country_code":"MX","country_name":"Mexico","latitude":"19.86722000","longitude":"-99.11611000","wikiDataId":"Q20239229"},{"id":71744,"Name":"Lomas de Altavista","state_id":3450,"state_code":"MEX","state_name":"Estado de México","country_id":142,"country_code":"MX","country_name":"Mexico","latitude":"19.36139000","longitude":"-98.94472000","wikiDataId":"Q20128638"},{"id":71751,"Name":"Lomas de San Pablo","state_id":3450,"state_code":"MEX","state_name":"Estado de México","country_id":142,"country_code":"MX","country_name":"Mexico","latitude":"19.20250000","longitude":"-98.91778000","wikiDataId":"Q20283252"},{"id":71752,"Name":"Lomas de San Sebastián","state_id":3450,"state_code":"MEX","state_name":"Estado de México","country_id":142,"country_code":"MX","country_name":"Mexico","latitude":"19.38206000","longitude":"-98.93320000","wikiDataId":"Q20283252"},{"id":71755,"Name":"Lomas de Tenopalco","state_id":3450,"state_code":"MEX","state_name":"Estado de México","country_id":142,"country_code":"MX","country_name":"Mexico","latitude":"19.70232000","longitude":"-99.11237000","wikiDataId":"Q20129010"},{"id":71771,"Name":"Los Arana","state_id":3450,"state_code":"MEX","state_name":"Estado de México","country_id":142,"country_code":"MX","country_name":"Mexico","latitude":"19.70981000","longitude":"-99.50222000","wikiDataId":"Q20270237"},{"id":71780,"Name":"Los Berros","state_id":3450,"state_code":"MEX","state_name":"Estado de México","country_id":142,"country_code":"MX","country_name":"Mexico","latitude":"19.39771000","longitude":"-100.04840000","wikiDataId":"Q20131520"},{"id":71807,"Name":"Los Hucuares","state_id":3450,"state_code":"MEX","state_name":"Estado de México","country_id":142,"country_code":"MX","country_name":"Mexico","latitude":"19.89916000","longitude":"-102.49759000","wikiDataId":"Q20229280"},{"id":71823,"Name":"Los Nogales","state_id":3450,"state_code":"MEX","state_name":"Estado de México","country_id":142,"country_code":"MX","country_name":"Mexico","latitude":"19.85734000","longitude":"-102.15612000","wikiDataId":"Q20285372"},{"id":71842,"Name":"Los Remedios","state_id":3450,"state_code":"MEX","state_name":"Estado de México","country_id":142,"country_code":"MX","country_name":"Mexico","latitude":"19.97810000","longitude":"-102.67954000","wikiDataId":"Q3311869"},{"id":71844,"Name":"Los Reyes","state_id":3450,"state_code":"MEX","state_name":"Estado de México","country_id":142,"country_code":"MX","country_name":"Mexico","latitude":"19.68524000","longitude":"-99.76450000","wikiDataId":"Q3311869"},{"id":71847,"Name":"Los Reyes Acaquilpan","state_id":3450,"state_code":"MEX","state_name":"Estado de México","country_id":142,"country_code":"MX","country_name":"Mexico","latitude":"19.36357000","longitude":"-98.97707000","wikiDataId":"Q2276224"},{"id":71848,"Name":"Los Reyes Acatlixhuayán","state_id":3450,"state_code":"MEX","state_name":"Estado de México","country_id":142,"country_code":"MX","country_name":"Mexico","latitude":"19.20889000","longitude":"-98.88242000","wikiDataId":"Q2276224"},{"id":71861,"Name":"Los Saucos","state_id":3450,"state_code":"MEX","state_name":"Estado de México","country_id":142,"country_code":"MX","country_name":"Mexico","latitude":"19.16520000","longitude":"-99.99895000","wikiDataId":"Q20141640"},{"id":71884,"Name":"Luvianos","state_id":3450,"state_code":"MEX","state_name":"Estado de México","country_id":142,"country_code":"MX","country_name":"Mexico","latitude":"18.94554000","longitude":"-100.42448000","wikiDataId":"Q3017880"},{"id":71922,"Name":"Magdalena Atlicpac","state_id":3450,"state_code":"MEX","state_name":"Estado de México","country_id":142,"country_code":"MX","country_name":"Mexico","latitude":"19.36906000","longitude":"-98.94935000","wikiDataId":"Q1656601"},{"id":71945,"Name":"Malinalco","state_id":3450,"state_code":"MEX","state_name":"Estado de México","country_id":142,"country_code":"MX","country_name":"Mexico","latitude":"18.94847000","longitude":"-99.49619000","wikiDataId":"Q1584311"},{"id":71957,"Name":"Manto del Río Ejido","state_id":3450,"state_code":"MEX","state_name":"Estado de México","country_id":142,"country_code":"MX","country_name":"Mexico","latitude":"19.84008000","longitude":"-99.92729000","wikiDataId":"Q957947"},{"id":71969,"Name":"Manzana Quinta (La Cañada)","state_id":3450,"state_code":"MEX","state_name":"Estado de México","country_id":142,"country_code":"MX","country_name":"Mexico","latitude":"19.54222000","longitude":"-99.60250000","wikiDataId":"Q20144853"},{"id":71970,"Name":"Manzana Segunda","state_id":3450,"state_code":"MEX","state_name":"Estado de México","country_id":142,"country_code":"MX","country_name":"Mexico","latitude":"19.56722000","longitude":"-99.59389000","wikiDataId":"Q20144861"},{"id":71971,"Name":"Manzana Sexta Parte Centro","state_id":3450,"state_code":"MEX","state_name":"Estado de México","country_id":142,"country_code":"MX","country_name":"Mexico","latitude":"19.52750000","longitude":"-99.60528000","wikiDataId":"Q20239321"},{"id":71972,"Name":"Manzana Tercera de Santa Cruz Tepexpan","state_id":3450,"state_code":"MEX","state_name":"Estado de México","country_id":142,"country_code":"MX","country_name":"Mexico","latitude":"19.56917000","longitude":"-99.70361000","wikiDataId":"Q20144866"},{"id":72025,"Name":"Mavoro","state_id":3450,"state_code":"MEX","state_name":"Estado de México","country_id":142,"country_code":"MX","country_name":"Mexico","latitude":"19.70417000","longitude":"-99.82222000","wikiDataId":"Q20146494"},{"id":72028,"Name":"Maxtleca de Galeana","state_id":3450,"state_code":"MEX","state_name":"Estado de México","country_id":142,"country_code":"MX","country_name":"Mexico","latitude":"19.02889000","longitude":"-99.55722000","wikiDataId":"Q20146534"},{"id":72034,"Name":"Mayorazgo de León","state_id":3450,"state_code":"MEX","state_name":"Estado de México","country_id":142,"country_code":"MX","country_name":"Mexico","latitude":"19.46889000","longitude":"-99.74365000","wikiDataId":"Q2764644"},{"id":72069,"Name":"Melchor Ocampo","state_id":3450,"state_code":"MEX","state_name":"Estado de México","country_id":142,"country_code":"MX","country_name":"Mexico","latitude":"19.70186000","longitude":"-99.14485000","wikiDataId":"Q20146883"},{"id":72088,"Name":"Metepec","state_id":3450,"state_code":"MEX","state_name":"Estado de México","country_id":142,"country_code":"MX","country_name":"Mexico","latitude":"19.25934000","longitude":"-99.60175000","wikiDataId":"Q1798671"},{"id":72100,"Name":"Mexicaltzingo","state_id":3450,"state_code":"MEX","state_name":"Estado de México","country_id":142,"country_code":"MX","country_name":"Mexico","latitude":"19.21130000","longitude":"-99.58469000","wikiDataId":"Q3308578"},{"id":72103,"Name":"Mextepec","state_id":3450,"state_code":"MEX","state_name":"Estado de México","country_id":142,"country_code":"MX","country_name":"Mexico","latitude":"19.46118000","longitude":"-99.89126000","wikiDataId":"Q20252198"},{"id":72104,"Name":"Mezapa la Fábrica","state_id":3450,"state_code":"MEX","state_name":"Estado de México","country_id":142,"country_code":"MX","country_name":"Mexico","latitude":"19.17556000","longitude":"-99.44528000","wikiDataId":"Q20252218"},{"id":72142,"Name":"Mina México","state_id":3450,"state_code":"MEX","state_name":"Estado de México","country_id":142,"country_code":"MX","country_name":"Mexico","latitude":"19.41014000","longitude":"-99.72771000","wikiDataId":"Q6862661"},{"id":72143,"Name":"Mina Vieja","state_id":3450,"state_code":"MEX","state_name":"Estado de México","country_id":142,"country_code":"MX","country_name":"Mexico","latitude":"19.55250000","longitude":"-99.94389000","wikiDataId":"Q20239355"},{"id":72152,"Name":"Miraflores","state_id":3450,"state_code":"MEX","state_name":"Estado de México","country_id":142,"country_code":"MX","country_name":"Mexico","latitude":"19.22210000","longitude":"-98.80741000","wikiDataId":"Q20146611"},{"id":72183,"Name":"Molino Abajo","state_id":3450,"state_code":"MEX","state_name":"Estado de México","country_id":142,"country_code":"MX","country_name":"Mexico","latitude":"19.44972000","longitude":"-99.60222000","wikiDataId":"Q20149760"},