[{"id":89984,"Name":"Ardusat","state_id":4760,"state_code":"MM","state_name":"Maramureș County","country_id":181,"country_code":"RO","country_name":"Romania","latitude":"47.65000000","longitude":"23.36667000","wikiDataId":"Q990526"},{"id":146723,"Name":"Arduzel","state_id":4760,"state_code":"MM","state_name":"Maramureș County","country_id":181,"country_code":"RO","country_name":"Romania","latitude":"47.44804500","longitude":"23.26686200","wikiDataId":"Q732212"},{"id":146724,"Name":"Arieșu de Câmp","state_id":4760,"state_code":"MM","state_name":"Maramureș County","country_id":181,"country_code":"RO","country_name":"Romania","latitude":"47.63977000","longitude":"23.39872600","wikiDataId":"Q573024"},{"id":146725,"Name":"Arieșu de Pădure","state_id":4760,"state_code":"MM","state_name":"Maramureș County","country_id":181,"country_code":"RO","country_name":"Romania","latitude":"47.58623800","longitude":"23.47910600","wikiDataId":"Q723965"},{"id":89994,"Name":"Ariniş","state_id":4760,"state_code":"MM","state_name":"Maramureș County","country_id":181,"country_code":"RO","country_name":"Romania","latitude":"47.50000000","longitude":"23.23333000","wikiDataId":"Q1190826"},{"id":146726,"Name":"Aspra","state_id":4760,"state_code":"MM","state_name":"Maramureș County","country_id":181,"country_code":"RO","country_name":"Romania","latitude":"47.45021000","longitude":"23.63817900","wikiDataId":"Q778895"},{"id":146727,"Name":"Asuaju de Jos","state_id":4760,"state_code":"MM","state_name":"Maramureș County","country_id":181,"country_code":"RO","country_name":"Romania","latitude":"47.54051900","longitude":"23.22298700","wikiDataId":"Q679463"},{"id":90001,"Name":"Asuaju de Sus","state_id":4760,"state_code":"MM","state_name":"Maramureș County","country_id":181,"country_code":"RO","country_name":"Romania","latitude":"47.56667000","longitude":"23.18333000","wikiDataId":"Q999532"},{"id":146728,"Name":"Baba","state_id":4760,"state_code":"MM","state_name":"Maramureș County","country_id":181,"country_code":"RO","country_name":"Romania","latitude":"47.34026800","longitude":"23.74561100","wikiDataId":"Q755511"},{"id":90029,"Name":"Baia Mare","state_id":4760,"state_code":"MM","state_name":"Maramureș County","country_id":181,"country_code":"RO","country_name":"Romania","latitude":"47.65729000","longitude":"23.56808000","wikiDataId":"Q16898378"},{"id":90030,"Name":"Baia Sprie","state_id":4760,"state_code":"MM","state_name":"Maramureș County","country_id":181,"country_code":"RO","country_name":"Romania","latitude":"47.66189000","longitude":"23.69215000","wikiDataId":"Q16898384"},{"id":90488,"Name":"Băile Borșa","state_id":4760,"state_code":"MM","state_name":"Maramureș County","country_id":181,"country_code":"RO","country_name":"Romania","latitude":"47.68416000","longitude":"24.71391000","wikiDataId":"Q754346"},{"id":90500,"Name":"Băița","state_id":4760,"state_code":"MM","state_name":"Maramureș County","country_id":181,"country_code":"RO","country_name":"Romania","latitude":"47.70614000","longitude":"23.49326000","wikiDataId":"Q12081684"},{"id":90498,"Name":"Băiţa de sub Codru","state_id":4760,"state_code":"MM","state_name":"Maramureș County","country_id":181,"country_code":"RO","country_name":"Romania","latitude":"47.53333000","longitude":"23.15000000","wikiDataId":"Q1179400"},{"id":90495,"Name":"Băiuţ","state_id":4760,"state_code":"MM","state_name":"Maramureș County","country_id":181,"country_code":"RO","country_name":"Romania","latitude":"47.61667000","longitude":"24.00000000","wikiDataId":"Q24332"},{"id":146742,"Name":"Bârgău","state_id":4760,"state_code":"MM","state_name":"Maramureș County","country_id":181,"country_code":"RO","country_name":"Romania","latitude":"47.68343800","longitude":"23.39971200","wikiDataId":"Q755578"},{"id":90455,"Name":"Bârsana","state_id":4760,"state_code":"MM","state_name":"Maramureș County","country_id":181,"country_code":"RO","country_name":"Romania","latitude":"47.81667000","longitude":"24.06667000","wikiDataId":"Q790394"},{"id":90550,"Name":"Băseşti","state_id":4760,"state_code":"MM","state_name":"Maramureș County","country_id":181,"country_code":"RO","country_name":"Romania","latitude":"47.48333000","longitude":"23.15000000","wikiDataId":"Q1188987"},{"id":90096,"Name":"Berbești","state_id":4760,"state_code":"MM","state_name":"Maramureș County","country_id":181,"country_code":"RO","country_name":"Romania","latitude":"47.84865000","longitude":"23.93448000","wikiDataId":"Q781602"},{"id":146729,"Name":"Berchez","state_id":4760,"state_code":"MM","state_name":"Maramureș County","country_id":181,"country_code":"RO","country_name":"Romania","latitude":"47.51892400","longitude":"23.50569300","wikiDataId":"Q716401"},{"id":146730,"Name":"Berința","state_id":4760,"state_code":"MM","state_name":"Maramureș County","country_id":181,"country_code":"RO","country_name":"Romania","latitude":"47.54066900","longitude":"23.67692900","wikiDataId":"Q741486"},{"id":90125,"Name":"Bicaz","state_id":4760,"state_code":"MM","state_name":"Maramureș County","country_id":181,"country_code":"RO","country_name":"Romania","latitude":"47.46667000","longitude":"23.03333000","wikiDataId":"Q794938"},{"id":90144,"Name":"Bistra","state_id":4760,"state_code":"MM","state_name":"Maramureș County","country_id":181,"country_code":"RO","country_name":"Romania","latitude":"47.86667000","longitude":"24.20000000","wikiDataId":"Q866731"},{"id":146731,"Name":"Blidari","state_id":4760,"state_code":"MM","state_name":"Maramureș County","country_id":181,"country_code":"RO","country_name":"Romania","latitude":"47.77970000","longitude":"23.61370400","wikiDataId":"Q547948"},{"id":146732,"Name":"Bocicoel","state_id":4760,"state_code":"MM","state_name":"Maramureș County","country_id":181,"country_code":"RO","country_name":"Romania","latitude":"47.69861111","longitude":"24.31916667","wikiDataId":"Q428427"},{"id":90175,"Name":"Bocicoiu Mare","state_id":4760,"state_code":"MM","state_name":"Maramureș County","country_id":181,"country_code":"RO","country_name":"Romania","latitude":"47.96667000","longitude":"24.00000000","wikiDataId":"Q1093246"},{"id":90187,"Name":"Bogdan Vodă","state_id":4760,"state_code":"MM","state_name":"Maramureș County","country_id":181,"country_code":"RO","country_name":"Romania","latitude":"47.69197000","longitude":"24.26605000","wikiDataId":"Q1098854"},{"id":146733,"Name":"Boiereni","state_id":4760,"state_code":"MM","state_name":"Maramureș County","country_id":181,"country_code":"RO","country_name":"Romania","latitude":"47.38885900","longitude":"23.93048300","wikiDataId":"Q750731"},{"id":90205,"Name":"Boiu Mare","state_id":4760,"state_code":"MM","state_name":"Maramureș County","country_id":181,"country_code":"RO","country_name":"Romania","latitude":"47.40000000","longitude":"23.58333000","wikiDataId":"Q1195051"},{"id":146734,"Name":"Bontăieni","state_id":4760,"state_code":"MM","state_name":"Maramureș County","country_id":181,"country_code":"RO","country_name":"Romania","latitude":"47.61221500","longitude":"23.72160000","wikiDataId":"Q725429"},{"id":90222,"Name":"Borcut","state_id":4760,"state_code":"MM","state_name":"Maramureș County","country_id":181,"country_code":"RO","country_name":"Romania","latitude":"47.48200000","longitude":"23.84071000","wikiDataId":"Q725278"},{"id":90238,"Name":"Borşa","state_id":4760,"state_code":"MM","state_name":"Maramureș County","country_id":181,"country_code":"RO","country_name":"Romania","latitude":"47.65527000","longitude":"24.66328000","wikiDataId":"Q12084264"},{"id":90245,"Name":"Botiza","state_id":4760,"state_code":"MM","state_name":"Maramureș County","country_id":181,"country_code":"RO","country_name":"Romania","latitude":"47.66667000","longitude":"24.15000000","wikiDataId":"Q586692"},{"id":146735,"Name":"Bozânta Mare","state_id":4760,"state_code":"MM","state_name":"Maramureș County","country_id":181,"country_code":"RO","country_name":"Romania","latitude":"47.63965800","longitude":"23.44165500","wikiDataId":"Q724671"},{"id":146736,"Name":"Bozânta Mică","state_id":4760,"state_code":"MM","state_name":"Maramureș County","country_id":181,"country_code":"RO","country_name":"Romania","latitude":"47.63641400","longitude":"23.42235700","wikiDataId":"Q750813"},{"id":90290,"Name":"Breb","state_id":4760,"state_code":"MM","state_name":"Maramureș County","country_id":181,"country_code":"RO","country_name":"Romania","latitude":"47.74854000","longitude":"23.90494000","wikiDataId":"Q724877"},{"id":146737,"Name":"Brebeni","state_id":4760,"state_code":"MM","state_name":"Maramureș County","country_id":181,"country_code":"RO","country_name":"Romania","latitude":"47.50358200","longitude":"23.78135600","wikiDataId":"Q259960"},{"id":146738,"Name":"Buciumi","state_id":4760,"state_code":"MM","state_name":"Maramureș County","country_id":181,"country_code":"RO","country_name":"Romania","latitude":"47.47032600","longitude":"23.48925800","wikiDataId":"Q1328431"},{"id":90381,"Name":"Budeşti","state_id":4760,"state_code":"MM","state_name":"Maramureș County","country_id":181,"country_code":"RO","country_name":"Romania","latitude":"47.73333000","longitude":"23.95000000","wikiDataId":"Q851403"},{"id":146741,"Name":"Bușag","state_id":4760,"state_code":"MM","state_name":"Maramureș County","country_id":181,"country_code":"RO","country_name":"Romania","latitude":"47.65871500","longitude":"23.42775200","wikiDataId":"Q724625"},{"id":146739,"Name":"Buteasa","state_id":4760,"state_code":"MM","state_name":"Maramureș County","country_id":181,"country_code":"RO","country_name":"Romania","latitude":"47.44830300","longitude":"23.54987800","wikiDataId":"Q724640"},{"id":146740,"Name":"Buzești","state_id":4760,"state_code":"MM","state_name":"Maramureș County","country_id":181,"country_code":"RO","country_name":"Romania","latitude":"47.60844900","longitude":"23.35416900","wikiDataId":"Q549035"},{"id":93839,"Name":"Călineşti","state_id":4760,"state_code":"MM","state_name":"Maramureș County","country_id":181,"country_code":"RO","country_name":"Romania","latitude":"47.78423000","longitude":"23.96961000","wikiDataId":"Q999268"},{"id":93802,"Name":"Câmpulung la Tisa","state_id":4760,"state_code":"MM","state_name":"Maramureș County","country_id":181,"country_code":"RO","country_name":"Romania","latitude":"47.98651000","longitude":"23.77263000","wikiDataId":"Q1027789"},{"id":146761,"Name":"Cărbunari","state_id":4760,"state_code":"MM","state_name":"Maramureș County","country_id":181,"country_code":"RO","country_name":"Romania","latitude":"47.57515600","longitude":"23.64403400","wikiDataId":"Q240938"},{"id":146762,"Name":"Cărpiniș","state_id":4760,"state_code":"MM","state_name":"Maramureș County","country_id":181,"country_code":"RO","country_name":"Romania","latitude":"47.57555500","longitude":"23.70336500","wikiDataId":"Q747191"},{"id":146763,"Name":"Cătălina","state_id":4760,"state_code":"MM","state_name":"Maramureș County","country_id":181,"country_code":"RO","country_name":"Romania","latitude":"47.60383500","longitude":"23.54459100","wikiDataId":"Q1115793"},{"id":90592,"Name":"Cavnic","state_id":4760,"state_code":"MM","state_name":"Maramureș County","country_id":181,"country_code":"RO","country_name":"Romania","latitude":"47.66667000","longitude":"23.86667000","wikiDataId":"Q2289293"},{"id":90633,"Name":"Cerneşti","state_id":4760,"state_code":"MM","state_name":"Maramureș County","country_id":181,"country_code":"RO","country_name":"Romania","latitude":"47.51667000","longitude":"23.75000000","wikiDataId":"Q872282"},{"id":146743,"Name":"Cetățele","state_id":4760,"state_code":"MM","state_name":"Maramureș County","country_id":181,"country_code":"RO","country_name":"Romania","latitude":"47.59880900","longitude":"23.73945000","wikiDataId":"Q724881"},{"id":146744,"Name":"Chechiș","state_id":4760,"state_code":"MM","state_name":"Maramureș County","country_id":181,"country_code":"RO","country_name":"Romania","latitude":"47.58441400","longitude":"23.60388500","wikiDataId":"Q724356"},{"id":90654,"Name":"Chelința","state_id":4760,"state_code":"MM","state_name":"Maramureș County","country_id":181,"country_code":"RO","country_name":"Romania","latitude":"47.45311000","longitude":"23.31799000","wikiDataId":"Q739966"},{"id":146745,"Name":"Chiuzbaia","state_id":4760,"state_code":"MM","state_name":"Maramureș County","country_id":181,"country_code":"RO","country_name":"Romania","latitude":"47.69954800","longitude":"23.68056000","wikiDataId":"Q754603"},{"id":90698,"Name":"Cicârlău","state_id":4760,"state_code":"MM","state_name":"Maramureș County","country_id":181,"country_code":"RO","country_name":"Romania","latitude":"47.69155000","longitude":"23.40380000","wikiDataId":"Q1081311"},{"id":146746,"Name":"Ciocotiș","state_id":4760,"state_code":"MM","state_name":"Maramureș County","country_id":181,"country_code":"RO","country_name":"Romania","latitude":"47.55666000","longitude":"23.79649900","wikiDataId":"Q645458"},{"id":146747,"Name":"Ciolt","state_id":4760,"state_code":"MM","state_name":"Maramureș County","country_id":181,"country_code":"RO","country_name":"Romania","latitude":"47.48385400","longitude":"23.50944300","wikiDataId":"Q724373"},{"id":146748,"Name":"Ciuta","state_id":4760,"state_code":"MM","state_name":"Maramureș County","country_id":181,"country_code":"RO","country_name":"Romania","latitude":"47.44713800","longitude":"22.98833000","wikiDataId":"Q755506"},{"id":90774,"Name":"Coaș","state_id":4760,"state_code":"MM","state_name":"Maramureș County","country_id":181,"country_code":"RO","country_name":"Romania","latitude":"47.53957000","longitude":"23.58584000","wikiDataId":"Q1077871"},{"id":146749,"Name":"Codru Butesii","state_id":4760,"state_code":"MM","state_name":"Maramureș County","country_id":181,"country_code":"RO","country_name":"Romania","latitude":"47.46817900","longitude":"23.60146300","wikiDataId":"Q1114863"},{"id":90801,"Name":"Coltău","state_id":4760,"state_code":"MM","state_name":"Maramureș County","country_id":181,"country_code":"RO","country_name":"Romania","latitude":"47.59837000","longitude":"23.52459000","wikiDataId":"Q1068882"},{"id":146750,"Name":"Colțirea","state_id":4760,"state_code":"MM","state_name":"Maramureș County","country_id":181,"country_code":"RO","country_name":"Romania","latitude":"47.60996100","longitude":"23.40519700","wikiDataId":"Q755601"},{"id":90887,"Name":"Comuna Ardusat","state_id":4760,"state_code":"MM","state_name":"Maramureș County","country_id":181,"country_code":"RO","country_name":"Romania","latitude":"47.63241000","longitude":"23.39156000","wikiDataId":"Q5055537"},{"id":90893,"Name":"Comuna Ariniş","state_id":4760,"state_code":"MM","state_name":"Maramureș County","country_id":181,"country_code":"RO","country_name":"Romania","latitude":"47.50757000","longitude":"23.22435000","wikiDataId":"Q16426860"},{"id":90899,"Name":"Comuna Asuaju de Sus","state_id":4760,"state_code":"MM","state_name":"Maramureș County","country_id":181,"country_code":"RO","country_name":"Romania","latitude":"47.55000000","longitude":"23.20000000","wikiDataId":"Q5054856"},{"id":91210,"Name":"Comuna Băiţa de sub Codru","state_id":4760,"state_code":"MM","state_name":"Maramureș County","country_id":181,"country_code":"RO","country_name":"Romania","latitude":"47.53333000","longitude":"23.15000000","wikiDataId":"Q5056671"},{"id":91207,"Name":"Comuna Băiuţ","state_id":4760,"state_code":"MM","state_name":"Maramureș County","country_id":181,"country_code":"RO","country_name":"Romania","latitude":"47.60191000","longitude":"24.00180000","wikiDataId":"Q5056458"},{"id":91192,"Name":"Comuna Bârsana","state_id":4760,"state_code":"MM","state_name":"Maramureș County","country_id":181,"country_code":"RO","country_name":"Romania","latitude":"47.81500000","longitude":"24.05731000","wikiDataId":"Q5063001"},{"id":91244,"Name":"Comuna Băseşti","state_id":4760,"state_code":"MM","state_name":"Maramureș County","country_id":181,"country_code":"RO","country_name":"Romania","latitude":"47.49608000","longitude":"23.10786000","wikiDataId":"Q5054808"},{"id":90982,"Name":"Comuna Bicaz","state_id":4760,"state_code":"MM","state_name":"Maramureș County","country_id":181,"country_code":"RO","country_name":"Romania","latitude":"47.46241000","longitude":"23.01474000","wikiDataId":"Q3813859"},{"id":90996,"Name":"Comuna Bistra","state_id":4760,"state_code":"MM","state_name":"Maramureș County","country_id":181,"country_code":"RO","country_name":"Romania","latitude":"47.86860000","longitude":"24.19291000","wikiDataId":"Q5064031"},{"id":91014,"Name":"Comuna Bocicoiu Mare","state_id":4760,"state_code":"MM","state_name":"Maramureș County","country_id":181,"country_code":"RO","country_name":"Romania","latitude":"47.94673000","longitude":"24.01121000","wikiDataId":"Q16426866"},{"id":91022,"Name":"Comuna Bogdan Vodă","state_id":4760,"state_code":"MM","state_name":"Maramureș County","country_id":181,"country_code":"RO","country_name":"Romania","latitude":"47.69480000","longitude":"24.29548000","wikiDataId":"Q5056010"},{"id":91034,"Name":"Comuna Boiu Mare","state_id":4760,"state_code":"MM","state_name":"Maramureș County","country_id":181,"country_code":"RO","country_name":"Romania","latitude":"47.40202000","longitude":"23.59965000","wikiDataId":"Q5055195"},{"id":91062,"Name":"Comuna Botiza","state_id":4760,"state_code":"MM","state_name":"Maramureș County","country_id":181,"country_code":"RO","country_name":"Romania","latitude":"47.66818000","longitude":"24.15035000","wikiDataId":"Q5054252"},{"id":91145,"Name":"Comuna Budeşti","state_id":4760,"state_code":"MM","state_name":"Maramureș County","country_id":181,"country_code":"RO","country_name":"Romania","latitude":"47.74615000","longitude":"23.94569000","wikiDataId":"Q5055592"},{"id":91571,"Name":"Comuna Călineşti","state_id":4760,"state_code":"MM","state_name":"Maramureș County","country_id":181,"country_code":"RO","country_name":"Romania","latitude":"47.78502000","longitude":"23.97011000","wikiDataId":"Q5055278"},{"id":91544,"Name":"Comuna Câmpulung la Tisa","state_id":4760,"state_code":"MM","state_name":"Maramureș County","country_id":181,"country_code":"RO","country_name":"Romania","latitude":"47.98651000","longitude":"23.77263000","wikiDataId":"Q5063206"},{"id":91292,"Name":"Comuna Cerneşti","state_id":4760,"state_code":"MM","state_name":"Maramureș County","country_id":181,"country_code":"RO","country_name":"Romania","latitude":"47.53576000","longitude":"23.78366000","wikiDataId":"Q5055648"},{"id":91334,"Name":"Comuna Cicârlău","state_id":4760,"state_code":"MM","state_name":"Maramureș County","country_id":181,"country_code":"RO","country_name":"Romania","latitude":"47.70582000","longitude":"23.38142000","wikiDataId":"Q16426872"},{"id":91383,"Name":"Comuna Coaş","state_id":4760,"state_code":"MM","state_name":"Maramureș County","country_id":181,"country_code":"RO","country_name":"Romania","latitude":"47.51282000","longitude":"23.60046000","wikiDataId":"Q5055557"},{"id":91401,"Name":"Comuna Coltãu","state_id":4760,"state_code":"MM","state_name":"Maramureș County","country_id":181,"country_code":"RO","country_name":"Romania","latitude":"47.60118000","longitude":"23.53450000","wikiDataId":"Q12111802"},{"id":91416,"Name":"Comuna Copalnic Mănăştur","state_id":4760,"state_code":"MM","state_name":"Maramureș County","country_id":181,"country_code":"RO","country_name":"Romania","latitude":"47.52250000","longitude":"23.68782000","wikiDataId":"Q5055061"},{"id":91446,"Name":"Comuna Coroieni","state_id":4760,"state_code":"MM","state_name":"Maramureș County","country_id":181,"country_code":"RO","country_name":"Romania","latitude":"47.36635000","longitude":"23.77764000","wikiDataId":"Q5056106"},{"id":91526,"Name":"Comuna Cupşeni","state_id":4760,"state_code":"MM","state_name":"Maramureș County","country_id":181,"country_code":"RO","country_name":"Romania","latitude":"47.53255000","longitude":"23.94243000","wikiDataId":"Q5055170"},{"id":91618,"Name":"Comuna Deseşti","state_id":4760,"state_code":"MM","state_name":"Maramureș County","country_id":181,"country_code":"RO","country_name":"Romania","latitude":"47.77004000","longitude":"23.85900000","wikiDataId":"Q5063421"},{"id":91719,"Name":"Comuna Dumbrăviţa","state_id":4760,"state_code":"MM","state_name":"Maramureș County","country_id":181,"country_code":"RO","country_name":"Romania","latitude":"47.60118000","longitude":"23.65726000","wikiDataId":"Q5054994"},{"id":91822,"Name":"Comuna Fărcaşa","state_id":4760,"state_code":"MM","state_name":"Maramureș County","country_id":181,"country_code":"RO","country_name":"Romania","latitude":"47.59482000","longitude":"23.34826000","wikiDataId":"Q5056033"},{"id":91972,"Name":"Comuna Gârdani","state_id":4760,"state_code":"MM","state_name":"Maramureș County","country_id":181,"country_code":"RO","country_name":"Romania","latitude":"47.55135000","longitude":"23.30880000","wikiDataId":"Q5055340"},{"id":91874,"Name":"Comuna Giuleşti","state_id":4760,"state_code":"MM","state_name":"Maramureș County","country_id":181,"country_code":"RO","country_name":"Romania","latitude":"47.82215000","longitude":"23.92994000","wikiDataId":"Q1527880"},{"id":91928,"Name":"Comuna Groşi","state_id":4760,"state_code":"MM","state_name":"Maramureș County","country_id":181,"country_code":"RO","country_name":"Romania","latitude":"47.61193000","longitude":"23.58661000","wikiDataId":"Q5055219"},{"id":91929,"Name":"Comuna Groşii Ţibleşului","state_id":4760,"state_code":"MM","state_name":"Maramureș County","country_id":181,"country_code":"RO","country_name":"Romania","latitude":"47.48983000","longitude":"24.06368000","wikiDataId":"Q5054221"},{"id":92065,"Name":"Comuna Ieud","state_id":4760,"state_code":"MM","state_name":"Maramureș County","country_id":181,"country_code":"RO","country_name":"Romania","latitude":"47.67739000","longitude":"24.23378000","wikiDataId":"Q5055984"},{"id":92221,"Name":"Comuna Lăpuş","state_id":4760,"state_code":"MM","state_name":"Maramureș County","country_id":181,"country_code":"RO","country_name":"Romania","latitude":"47.49363000","longitude":"24.00646000","wikiDataId":"Q5067803"},{"id":92153,"Name":"Comuna Leordina","state_id":4760,"state_code":"MM","state_name":"Maramureș County","country_id":181,"country_code":"RO","country_name":"Romania","latitude":"47.78306000","longitude":"24.26401000","wikiDataId":"Q5063822"},{"id":92298,"Name":"Comuna Mireşu Mare","state_id":4760,"state_code":"MM","state_name":"Maramureș County","country_id":181,"country_code":"RO","country_name":"Romania","latitude":"47.50011000","longitude":"23.36420000","wikiDataId":"Q16426881"},{"id":92323,"Name":"Comuna Moisei","state_id":4760,"state_code":"MM","state_name":"Maramureș County","country_id":181,"country_code":"RO","country_name":"Romania","latitude":"47.65612000","longitude":"24.53988000","wikiDataId":"Q303099"},{"id":92469,"Name":"Comuna Oarţa De Jos","state_id":4760,"state_code":"MM","state_name":"Maramureș County","country_id":181,"country_code":"RO","country_name":"Romania","latitude":"47.45000000","longitude":"23.10000000","wikiDataId":"Q16426885"},{"id":92478,"Name":"Comuna Ocna Şugatag","state_id":4760,"state_code":"MM","state_name":"Maramureș County","country_id":181,"country_code":"RO","country_name":"Romania","latitude":"47.77493000","longitude":"23.91268000","wikiDataId":"Q12135430"},{"id":92499,"Name":"Comuna Onceşti","state_id":4760,"state_code":"MM","state_name":"Maramureș County","country_id":181,"country_code":"RO","country_name":"Romania","latitude":"47.84814000","longitude":"23.98183000","wikiDataId":"Q5065066"},{"id":92567,"Name":"Comuna Petrova","state_id":4760,"state_code":"MM","state_name":"Maramureș County","country_id":181,"country_code":"RO","country_name":"Romania","latitude":"47.83003000","longitude":"24.21603000","wikiDataId":"Q5063770"},{"id":92643,"Name":"Comuna Poienile de sub Munte","state_id":4760,"state_code":"MM","state_name":"Maramureș County","country_id":181,"country_code":"RO","country_name":"Romania","latitude":"47.82371000","longitude":"24.43674000","wikiDataId":"Q12149439"},{"id":92642,"Name":"Comuna Poienile Izei","state_id":4760,"state_code":"MM","state_name":"Maramureș County","country_id":181,"country_code":"RO","country_name":"Romania","latitude":"47.70309000","longitude":"24.11276000","wikiDataId":"Q5054115"},{"id":92754,"Name":"Comuna Recea","state_id":4760,"state_code":"MM","state_name":"Maramureș County","country_id":181,"country_code":"RO","country_name":"Romania","latitude":"47.63108000","longitude":"23.48610000","wikiDataId":"Q5055754"},{"id":92765,"Name":"Comuna Remetea Chioarului","state_id":4760,"state_code":"MM","state_name":"Maramureș County","country_id":181,"country_code":"RO","country_name":"Romania","latitude":"47.52129000","longitude":"23.52891000","wikiDataId":"Q5055610"},{"id":92767,"Name":"Comuna Remeţi","state_id":4760,"state_code":"MM","state_name":"Maramureș County","country_id":181,"country_code":"RO","country_name":"Romania","latitude":"47.99630000","longitude":"23.58741000","wikiDataId":"Q5060861"},{"id":92768,"Name":"Comuna Repedea","state_id":4760,"state_code":"MM","state_name":"Maramureș County","country_id":181,"country_code":"RO","country_name":"Romania","latitude":"47.83212000","longitude":"24.40142000","wikiDataId":"Q5054670"},{"id":92789,"Name":"Comuna Rona de Jos","state_id":4760,"state_code":"MM","state_name":"Maramureș County","country_id":181,"country_code":"RO","country_name":"Romania","latitude":"47.91667000","longitude":"24.01667000","wikiDataId":"Q5063925"},{"id":92790,"Name":"Comuna Rona de Sus","state_id":4760,"state_code":"MM","state_name":"Maramureș County","country_id":181,"country_code":"RO","country_name":"Romania","latitude":"47.90184000","longitude":"24.03877000","wikiDataId":"Q5063122"},{"id":92793,"Name":"Comuna Rozavlea","state_id":4760,"state_code":"MM","state_name":"Maramureș County","country_id":181,"country_code":"RO","country_name":"Romania","latitude":"47.73791000","longitude":"24.20116000","wikiDataId":"Q5063854"},{"id":92817,"Name":"Comuna Ruşcova","state_id":4760,"state_code":"MM","state_name":"Maramureș County","country_id":181,"country_code":"RO","country_name":"Romania","latitude":"47.79289000","longitude":"24.28546000","wikiDataId":"Q5054306"},{"id":93087,"Name":"Comuna Săcălăşeni","state_id":4760,"state_code":"MM","state_name":"Maramureș County","country_id":181,"country_code":"RO","country_name":"Romania","latitude":"47.57041000","longitude":"23.57207000","wikiDataId":"Q5106613"},{"id":93081,"Name":"Comuna Săcel","state_id":4760,"state_code":"MM","state_name":"Maramureș County","country_id":181,"country_code":"RO","country_name":"Romania","latitude":"47.63690000","longitude":"24.43508000","wikiDataId":"Q5063978"},{"id":93098,"Name":"Comuna Sălsig","state_id":4760,"state_code":"MM","state_name":"Maramureș County","country_id":181,"country_code":"RO","country_name":"Romania","latitude":"47.51934000","longitude":"23.30270000","wikiDataId":"Q5054278"},{"id":93077,"Name":"Comuna Sãpânţa","state_id":4760,"state_code":"MM","state_name":"Maramureș County","country_id":181,"country_code":"RO","country_name":"Romania","latitude":"47.96933000","longitude":"23.69818000","wikiDataId":"Q5053994"},{"id":93110,"Name":"Comuna Sărăsău","state_id":4760,"state_code":"MM","state_name":"Maramureș County","country_id":181,"country_code":"RO","country_name":"Romania","latitude":"47.95000000","longitude":"23.81667000","wikiDataId":"Q5062666"},{"id":92882,"Name":"Comuna Satulung","state_id":4760,"state_code":"MM","state_name":"Maramureș County","country_id":181,"country_code":"RO","country_name":"Romania","latitude":"47.57189000","longitude":"23.41978000","wikiDataId":"Q12150780"},{"id":93515,"Name":"Comuna Şieu","state_id":4760,"state_code":"MM","state_name":"Maramureș County","country_id":181,"country_code":"RO","country_name":"Romania","latitude":"47.72462000","longitude":"24.22389000","wikiDataId":"Q3813549"},{"id":93532,"Name":"Comuna Şişeşti","state_id":4760,"state_code":"MM","state_name":"Maramureș County","country_id":181,"country_code":"RO","country_name":"Romania","latitude":"47.61329000","longitude":"23.74104000","wikiDataId":"Q12171948"},{"id":93008,"Name":"Comuna Strâmtura","state_id":4760,"state_code":"MM","state_name":"Maramureș County","country_id":181,"country_code":"RO","country_name":"Romania","latitude":"47.75156000","longitude":"24.10267000","wikiDataId":"Q5064327"},{"id":93027,"Name":"Comuna Suciu de Sus","state_id":4760,"state_code":"MM","state_name":"Maramureș County","country_id":181,"country_code":"RO","country_name":"Romania","latitude":"47.44309000","longitude":"24.04303000","wikiDataId":"Q5054626"},{"id":93291,"Name":"Comuna Vadu Izei","state_id":4760,"state_code":"MM","state_name":"Maramureș County","country_id":181,"country_code":"RO","country_name":"Romania","latitude":"47.88131000","longitude":"23.96081000","wikiDataId":"Q5063256"},{"id":93299,"Name":"Comuna Valea Chioarului","state_id":4760,"state_code":"MM","state_name":"Maramureș County","country_id":181,"country_code":"RO","country_name":"Romania","latitude":"47.40706000","longitude":"23.46101000","wikiDataId":"Q5055918"},{"id":93363,"Name":"Comuna Vima Micã","state_id":4760,"state_code":"MM","state_name":"Maramureș County","country_id":181,"country_code":"RO","country_name":"Romania","latitude":"47.41766000","longitude":"23.68841000","wikiDataId":"Q5056084"},{"id":93375,"Name":"Comuna Vişeu de Jos","state_id":4760,"state_code":"MM","state_name":"Maramureș County","country_id":181,"country_code":"RO","country_name":"Romania","latitude":"47.72760000","longitude":"24.36306000","wikiDataId":"Q3196290"},{"id":146751,"Name":"Copalnic","state_id":4760,"state_code":"MM","state_name":"Maramureș County","country_id":181,"country_code":"RO","country_name":"Romania","latitude":"47.52041800","longitude":"23.65562700","wikiDataId":"Q755406"},{"id":93601,"Name":"Copalnic Mănăştur","state_id":4760,"state_code":"MM","state_name":"Maramureș County","country_id":181,"country_code":"RO","country_name":"Romania","latitude":"47.50000000","longitude":"23.68333000","wikiDataId":"Q1123291"},{"id":146752,"Name":"Cornești","state_id":4760,"state_code":"MM","state_name":"Maramureș County","country_id":181,"country_code":"RO","country_name":"Romania","latitude":"47.81675500","longitude":"23.96811700","wikiDataId":"Q755430"},{"id":146753,"Name":"Corni","state_id":4760,"state_code":"MM","state_name":"Maramureș County","country_id":181,"country_code":"RO","country_name":"Romania","latitude":"47.47831800","longitude":"23.01904200","wikiDataId":"Q726357"},{"id":93647,"Name":"Coroieni","state_id":4760,"state_code":"MM","state_name":"Maramureș County","country_id":181,"country_code":"RO","country_name":"Romania","latitude":"47.36667000","longitude":"23.76667000","wikiDataId":"Q1105022"},{"id":146754,"Name":"Coruia","state_id":4760,"state_code":"MM","state_name":"Maramureș County","country_id":181,"country_code":"RO","country_name":"Romania","latitude":"47.56334800","longitude":"23.59653000","wikiDataId":"Q582129"},{"id":146755,"Name":"Costeni","state_id":4760,"state_code":"MM","state_name":"Maramureș County","country_id":181,"country_code":"RO","country_name":"Romania","latitude":"47.53705400","longitude":"23.91464600","wikiDataId":"Q755490"},{"id":146756,"Name":"Coștiui","state_id":4760,"state_code":"MM","state_name":"Maramureș County","country_id":181,"country_code":"RO","country_name":"Romania","latitude":"47.87931200","longitude":"24.03031700","wikiDataId":"Q746065"},{"id":93752,"Name":"Crăciunești","state_id":4760,"state_code":"MM","state_name":"Maramureș County","country_id":181,"country_code":"RO","country_name":"Romania","latitude":"47.95551000","longitude":"23.98267000","wikiDataId":"Q842039"},{"id":93708,"Name":"Crasna Vișeului","state_id":4760,"state_code":"MM","state_name":"Maramureș County","country_id":181,"country_code":"RO","country_name":"Romania","latitude":"47.82869000","longitude":"24.23000000","wikiDataId":"Q755968"},{"id":146757,"Name":"Cufoaia","state_id":4760,"state_code":"MM","state_name":"Maramureș County","country_id":181,"country_code":"RO","country_name":"Romania","latitude":"47.47924400","longitude":"23.80338200","wikiDataId":"Q755541"},{"id":146758,"Name":"Culcea","state_id":4760,"state_code":"MM","state_name":"Maramureș County","country_id":181,"country_code":"RO","country_name":"Romania","latitude":"47.56609000","longitude":"23.55536200","wikiDataId":"Q604379"},{"id":93771,"Name":"Cupşeni","state_id":4760,"state_code":"MM","state_name":"Maramureș County","country_id":181,"country_code":"RO","country_name":"Romania","latitude":"47.55000000","longitude":"23.93333000","wikiDataId":"Q1122129"},{"id":146759,"Name":"Curtuiușu Mare","state_id":4760,"state_code":"MM","state_name":"Maramureș County","country_id":181,"country_code":"RO","country_name":"Romania","latitude":"47.42743300","longitude":"23.44777200","wikiDataId":"Q220995"},{"id":146760,"Name":"Curtuiușu Mic","state_id":4760,"state_code":"MM","state_name":"Maramureș County","country_id":181,"country_code":"RO","country_name":"Romania","latitude":"47.54299300","longitude":"23.62531100","wikiDataId":"Q725285"},{"id":94122,"Name":"Dămăcușeni","state_id":4760,"state_code":"MM","state_name":"Maramureș County","country_id":181,"country_code":"RO","country_name":"Romania","latitude":"47.45709000","longitude":"23.90914000","wikiDataId":"Q389739"},{"id":146770,"Name":"Dănești","state_id":4760,"state_code":"MM","state_name":"Maramureș County","country_id":181,"country_code":"RO","country_name":"Romania","latitude":"47.61980900","longitude":"23.73249900","wikiDataId":"Q724628"},{"id":146771,"Name":"Dăneștii Chioarului","state_id":4760,"state_code":"MM","state_name":"Maramureș County","country_id":181,"country_code":"RO","country_name":"Romania","latitude":"47.55381600","longitude":"23.34478400","wikiDataId":"Q630660"},{"id":146764,"Name":"Dealu Corbului","state_id":4760,"state_code":"MM","state_name":"Maramureș County","country_id":181,"country_code":"RO","country_name":"Romania","latitude":"47.44966500","longitude":"23.68523300","wikiDataId":"Q902955"},{"id":146765,"Name":"Dealu Mare","state_id":4760,"state_code":"MM","state_name":"Maramureș County","country_id":181,"country_code":"RO","country_name":"Romania","latitude":"47.36026500","longitude":"23.81520600","wikiDataId":"Q3891299"},{"id":93926,"Name":"Deseşti","state_id":4760,"state_code":"MM","state_name":"Maramureș County","country_id":181,"country_code":"RO","country_name":"Romania","latitude":"47.76667000","longitude":"23.85000000","wikiDataId":"Q904440"},{"id":146766,"Name":"Dobricu Lăpușului","state_id":4760,"state_code":"MM","state_name":"Maramureș County","country_id":181,"country_code":"RO","country_name":"Romania","latitude":"47.49748400","longitude":"23.90800600","wikiDataId":"Q750748"},{"id":146767,"Name":"Drăghia","state_id":4760,"state_code":"MM","state_name":"Maramureș County","country_id":181,"country_code":"RO","country_name":"Romania","latitude":"47.35166300","longitude":"23.77478400","wikiDataId":"Q652789"},{"id":94016,"Name":"Dragomireşti","state_id":4760,"state_code":"MM","state_name":"Maramureș County","country_id":181,"country_code":"RO","country_name":"Romania","latitude":"47.66839000","longitude":"24.29111000","wikiDataId":"Q2541070"},{"id":146768,"Name":"Dumbrava","state_id":4760,"state_code":"MM","state_name":"Maramureș County","country_id":181,"country_code":"RO","country_name":"Romania","latitude":"47.49324800","longitude":"23.87236300","wikiDataId":"Q1110609"},{"id":94089,"Name":"Dumbrăviţa","state_id":4760,"state_code":"MM","state_name":"Maramureș County","country_id":181,"country_code":"RO","country_name":"Romania","latitude":"47.60000000","longitude":"23.65000000","wikiDataId":"Q1079485"},{"id":146769,"Name":"Durușa","state_id":4760,"state_code":"MM","state_name":"Maramureș County","country_id":181,"country_code":"RO","country_name":"Romania","latitude":"47.41291400","longitude":"23.46473400","wikiDataId":"Q755483"},{"id":146779,"Name":"Fânațe","state_id":4760,"state_code":"MM","state_name":"Maramureș County","country_id":181,"country_code":"RO","country_name":"Romania","latitude":"47.53463800","longitude":"23.75791900","wikiDataId":"Q755496"},{"id":146780,"Name":"Fântânele","state_id":4760,"state_code":"MM","state_name":"Maramureș County","country_id":181,"country_code":"RO","country_name":"Romania","latitude":"47.41135100","longitude":"23.82600000","wikiDataId":"Q750769"},{"id":94261,"Name":"Fărcaşa","state_id":4760,"state_code":"MM","state_name":"Maramureș County","country_id":181,"country_code":"RO","country_name":"Romania","latitude":"47.58333000","longitude":"23.33333000","wikiDataId":"Q996446"},{"id":146781,"Name":"Făurești","state_id":4760,"state_code":"MM","state_name":"Maramureș County","country_id":181,"country_code":"RO","country_name":"Romania","latitude":"47.56319400","longitude":"23.75004900","wikiDataId":"Q941483"},{"id":146772,"Name":"Ferești","state_id":4760,"state_code":"MM","state_name":"Maramureș County","country_id":181,"country_code":"RO","country_name":"Romania","latitude":"47.83055556","longitude":"23.94916667","wikiDataId":"Q584261"},{"id":146773,"Name":"Fericea","state_id":4760,"state_code":"MM","state_name":"Maramureș County","country_id":181,"country_code":"RO","country_name":"Romania","latitude":"47.40662600","longitude":"23.39370000","wikiDataId":"Q725174"},{"id":146774,"Name":"Fersig","state_id":4760,"state_code":"MM","state_name":"Maramureș County","country_id":181,"country_code":"RO","country_name":"Romania","latitude":"47.54049300","longitude":"23.38371200","wikiDataId":"Q725290"},{"id":146775,"Name":"Finteușu Mare","state_id":4760,"state_code":"MM","state_name":"Maramureș County","country_id":181,"country_code":"RO","country_name":"Romania","latitude":"47.54000600","longitude":"23.46451200","wikiDataId":"Q724675"},{"id":146776,"Name":"Finteușu Mic","state_id":4760,"state_code":"MM","state_name":"Maramureș County","country_id":181,"country_code":"RO","country_name":"Romania","latitude":"47.56778800","longitude":"23.45390100","wikiDataId":"Q3891824"},{"id":146777,"Name":"Firiza","state_id":4760,"state_code":"MM","state_name":"Maramureș County","country_id":181,"country_code":"RO","country_name":"Romania","latitude":"47.74889200","longitude":"23.60494900","wikiDataId":"Q265084"},{"id":146778,"Name":"Frâncenii Boiului","state_id":4760,"state_code":"MM","state_name":"Maramureș County","country_id":181,"country_code":"RO","country_name":"Romania","latitude":"47.39969200","longitude":"23.61791000","wikiDataId":"Q755597"},{"id":94490,"Name":"Gârdani","state_id":4760,"state_code":"MM","state_name":"Maramureș County","country_id":181,"country_code":"RO","country_name":"Romania","latitude":"47.55135000","longitude":"23.30880000","wikiDataId":"Q283920"},{"id":94350,"Name":"Giuleşti","state_id":4760,"state_code":"MM","state_name":"Maramureș County","country_id":181,"country_code":"RO","country_name":"Romania","latitude":"47.81667000","longitude":"23.93333000","wikiDataId":"Q752829"},{"id":146782,"Name":"Glod","state_id":4760,"state_code":"MM","state_name":"Maramureș County","country_id":181,"country_code":"RO","country_name":"Romania","latitude":"47.72711800","longitude":"24.08322500","wikiDataId":"Q426912"},{"id":146783,"Name":"Groape","state_id":4760,"state_code":"MM","state_name":"Maramureș County","country_id":181,"country_code":"RO","country_name":"Romania","latitude":"47.44449000","longitude":"23.72530100","wikiDataId":"Q747132"},{"id":94425,"Name":"Groşi","state_id":4760,"state_code":"MM","state_name":"Maramureș County","country_id":181,"country_code":"RO","country_name":"Romania","latitude":"47.61667000","longitude":"23.61667000","wikiDataId":"Q1189062"},{"id":94428,"Name":"Groșii Țibleșului","state_id":4760,"state_code":"MM","state_name":"Maramureș County","country_id":181,"country_code":"RO","country_name":"Romania","latitude":"47.48983000","longitude":"24.06368000","wikiDataId":"Q595613"},{"id":146784,"Name":"Handalu Ilbei","state_id":4760,"state_code":"MM","state_name":"Maramureș County","country_id":181,"country_code":"RO","country_name":"Romania","latitude":"47.73549800","longitude":"23.36451000","wikiDataId":"Q1096554"},{"id":146788,"Name":"Hărnicești","state_id":4760,"state_code":"MM","state_name":"Maramureș County","country_id":181,"country_code":"RO","country_name":"Romania","latitude":"47.78213200","longitude":"23.88658900","wikiDataId":"Q754120"},{"id":146785,"Name":"Hideaga","state_id":4760,"state_code":"MM","state_name":"Maramureș County","country_id":181,"country_code":"RO","country_name":"Romania","latitude":"47.59132500","longitude":"23.42202000","wikiDataId":"Q725296"},{"id":146786,"Name":"Hoteni","state_id":4760,"state_code":"MM","state_name":"Maramureș County","country_id":181,"country_code":"RO","country_name":"Romania","latitude":"47.77191500","longitude":"23.89993300","wikiDataId":"Q724602"},{"id":146787,"Name":"Hovrila","state_id":4760,"state_code":"MM","state_name":"Maramureș County","country_id":181,"country_code":"RO","country_name":"Romania","latitude":"47.45969700","longitude":"23.50842200","wikiDataId":"Q594776"},{"id":94617,"Name":"Iadăra","state_id":4760,"state_code":"MM","state_name":"Maramureș County","country_id":181,"country_code":"RO","country_name":"Romania","latitude":"47.47927000","longitude":"23.39893000","wikiDataId":"Q725426"},{"id":94623,"Name":"Iapa","state_id":4760,"state_code":"MM","state_name":"Maramureș County","country_id":181,"country_code":"RO","country_name":"Romania","latitude":"47.92513000","longitude":"23.82539000","wikiDataId":"Q741831"},{"id":94644,"Name":"Ieud","state_id":4760,"state_code":"MM","state_name":"Maramureș County","country_id":181,"country_code":"RO","country_name":"Romania","latitude":"47.67796000","longitude":"24.23399000","wikiDataId":"Q739611"},{"id":94653,"Name":"Ilba","state_id":4760,"state_code":"MM","state_name":"Maramureș County","country_id":181,"country_code":"RO","country_name":"Romania","latitude":"47.71280000","longitude":"23.35765000","wikiDataId":"Q725179"},{"id":146789,"Name":"Inău","state_id":4760,"state_code":"MM","state_name":"Maramureș County","country_id":181,"country_code":"RO","country_name":"Romania","latitude":"47.51733400","longitude":"23.82483400","wikiDataId":"Q725649"},{"id":146856,"Name":"Întrerâuri","state_id":4760,"state_code":"MM","state_name":"Maramureș County","country_id":181,"country_code":"RO","country_name":"Romania","latitude":"47.48607300","longitude":"23.61508700","wikiDataId":"Q1160184"},{"id":146790,"Name":"Izvoarele","state_id":4760,"state_code":"MM","state_name":"Maramureș County","country_id":181,"country_code":"RO","country_name":"Romania","latitude":"47.75338480","longitude":"23.71439510","wikiDataId":"Q726031"},{"id":146791,"Name":"Jugăstreni","state_id":4760,"state_code":"MM","state_name":"Maramureș County","country_id":181,"country_code":"RO","country_name":"Romania","latitude":"47.39527000","longitude":"23.66424800","wikiDataId":"Q755462"},{"id":94896,"Name":"Lăpuş","state_id":4760,"state_code":"MM","state_name":"Maramureș County","country_id":181,"country_code":"RO","country_name":"Romania","latitude":"47.50000000","longitude":"24.01667000","wikiDataId":"Q1079866"},{"id":94899,"Name":"Lăpușel","state_id":4760,"state_code":"MM","state_name":"Maramureș County","country_id":181,"country_code":"RO","country_name":"Romania","latitude":"47.61830000","longitude":"23.47913000","wikiDataId":"Q371262"},{"id":146792,"Name":"Larga","state_id":4760,"state_code":"MM","state_name":"Maramureș County","country_id":181,"country_code":"RO","country_name":"Romania","latitude":"47.45200800","longitude":"24.10506800","wikiDataId":"Q246958"},{"id":146795,"Name":"Lăschia","state_id":4760,"state_code":"MM","state_name":"Maramureș County","country_id":181,"country_code":"RO","country_name":"Romania","latitude":"47.54331800","longitude":"23.73214200","wikiDataId":"Q755415"},{"id":146793,"Name":"Lazu Baciului","state_id":4760,"state_code":"MM","state_name":"Maramureș County","country_id":181,"country_code":"RO","country_name":"Romania","latitude":"47.90513100","longitude":"23.92052200","wikiDataId":"Q852610"},{"id":94780,"Name":"Leordina","state_id":4760,"state_code":"MM","state_name":"Maramureș County","country_id":181,"country_code":"RO","country_name":"Romania","latitude":"47.78333000","longitude":"24.25000000","wikiDataId":"Q181527"},{"id":94792,"Name":"Libotin","state_id":4760,"state_code":"MM","state_name":"Maramureș County","country_id":181,"country_code":"RO","country_name":"Romania","latitude":"47.50541000","longitude":"23.96833000","wikiDataId":"Q755576"},{"id":146794,"Name":"Lucăcești","state_id":4760,"state_code":"MM","state_name":"Maramureș County","country_id":181,"country_code":"RO","country_name":"Romania","latitude":"47.53995600","longitude":"23.33550400","wikiDataId":"Q725185"},{"id":94873,"Name":"Lunca la Tisa","state_id":4760,"state_code":"MM","state_name":"Maramureș County","country_id":181,"country_code":"RO","country_name":"Romania","latitude":"47.95213000","longitude":"24.05216000","wikiDataId":"Q852327"},{"id":146800,"Name":"Măgureni","state_id":4760,"state_code":"MM","state_name":"Maramureș County","country_id":181,"country_code":"RO","country_name":"Romania","latitude":"47.48671600","longitude":"23.74353500","wikiDataId":"Q3892335"},{"id":146801,"Name":"Mănăstirea","state_id":4760,"state_code":"MM","state_name":"Maramureș County","country_id":181,"country_code":"RO","country_name":"Romania","latitude":"47.80299200","longitude":"23.92222100","wikiDataId":"Q977107"},{"id":95220,"Name":"Mânău","state_id":4760,"state_code":"MM","state_name":"Maramureș County","country_id":181,"country_code":"RO","country_name":"Romania","latitude":"47.48179000","longitude":"23.26247000","wikiDataId":"Q746587"},{"id":94924,"Name":"Mara","state_id":4760,"state_code":"MM","state_name":"Maramureș County","country_id":181,"country_code":"RO","country_name":"Romania","latitude":"47.75552000","longitude":"23.83126000","wikiDataId":"Q753172"},{"id":146796,"Name":"Merișor","state_id":4760,"state_code":"MM","state_name":"Maramureș County","country_id":181,"country_code":"RO","country_name":"Romania","latitude":"47.66090600","longitude":"23.41025800","wikiDataId":"Q1294530"},{"id":146797,"Name":"Mesteacăn","state_id":4760,"state_code":"MM","state_name":"Maramureș County","country_id":181,"country_code":"RO","country_name":"Romania","latitude":"47.38124200","longitude":"23.52177700","wikiDataId":"Q755584"},{"id":95016,"Name":"Mireşu Mare","state_id":4760,"state_code":"MM","state_name":"Maramureș County","country_id":181,"country_code":"RO","country_name":"Romania","latitude":"47.50000000","longitude":"23.33333000","wikiDataId":"Q1188994"},{"id":146798,"Name":"Mocira","state_id":4760,"state_code":"MM","state_name":"Maramureș County","country_id":181,"country_code":"RO","country_name":"Romania","latitude":"47.62295000","longitude":"23.52506000","wikiDataId":"Q724608"},{"id":146799,"Name":"Mogoșești","state_id":4760,"state_code":"MM","state_name":"Maramureș County","country_id":181,"country_code":"RO","country_name":"Romania","latitude":"47.58681000","longitude":"23.40365200","wikiDataId":"Q724596"},{"id":95059,"Name":"Moisei","state_id":4760,"state_code":"MM","state_name":"Maramureș County","country_id":181,"country_code":"RO","country_name":"Romania","latitude":"47.65562000","longitude":"24.54011000","wikiDataId":"Q12735837"},{"id":146803,"Name":"Nănești","state_id":4760,"state_code":"MM","state_name":"Maramureș County","country_id":181,"country_code":"RO","country_name":"Romania","latitude":"47.83812000","longitude":"24.01104900","wikiDataId":"Q637270"},{"id":146802,"Name":"Negreia","state_id":4760,"state_code":"MM","state_name":"Maramureș County","country_id":181,"country_code":"RO","country_name":"Romania","latitude":"47.63538800","longitude":"23.74406500","wikiDataId":"Q518903"},{"id":95351,"Name":"Nistru","state_id":4760,"state_code":"MM","state_name":"Maramureș County","country_id":181,"country_code":"RO","country_name":"Romania","latitude":"47.72088000","longitude":"23.45495000","wikiDataId":"Q12134749"},{"id":95385,"Name":"Oarţa de Jos","state_id":4760,"state_code":"MM","state_name":"Maramureș County","country_id":181,"country_code":"RO","country_name":"Romania","latitude":"47.45827000","longitude":"23.12742000","wikiDataId":"Q679970"},{"id":146804,"Name":"Oarța de Sus","state_id":4760,"state_code":"MM","state_name":"Maramureș County","country_id":181,"country_code":"RO","country_name":"Romania","latitude":"47.46793300","longitude":"23.07767300","wikiDataId":"Q755512"},{"id":95399,"Name":"Ocna Şugatag","state_id":4760,"state_code":"MM","state_name":"Maramureș County","country_id":181,"country_code":"RO","country_name":"Romania","latitude":"47.78333000","longitude":"23.93333000","wikiDataId":"Q556224"},{"id":146805,"Name":"Ocoliș","state_id":4760,"state_code":"MM","state_name":"Maramureș County","country_id":181,"country_code":"RO","country_name":"Romania","latitude":"47.60203400","longitude":"23.57926900","wikiDataId":"Q724810"},{"id":146806,"Name":"Odești","state_id":4760,"state_code":"MM","state_name":"Maramureș County","country_id":181,"country_code":"RO","country_name":"Romania","latitude":"47.51595000","longitude":"23.09587300","wikiDataId":"Q375831"},{"id":95437,"Name":"Oncești","state_id":4760,"state_code":"MM","state_name":"Maramureș County","country_id":181,"country_code":"RO","country_name":"Romania","latitude":"47.84814000","longitude":"23.98183000","wikiDataId":"Q748214"},{"id":146807,"Name":"Orțița","state_id":4760,"state_code":"MM","state_name":"Maramureș County","country_id":181,"country_code":"RO","country_name":"Romania","latitude":"47.46262000","longitude":"23.09427500","wikiDataId":"Q1126122"},{"id":146808,"Name":"Peteritea","state_id":4760,"state_code":"MM","state_name":"Maramureș County","country_id":181,"country_code":"RO","country_name":"Romania","latitude":"47.42291100","longitude":"23.74368400","wikiDataId":"Q755398"},{"id":95755,"Name":"Petrova","state_id":4760,"state_code":"MM","state_name":"Maramureș County","country_id":181,"country_code":"RO","country_name":"Romania","latitude":"47.82981000","longitude":"24.21533000","wikiDataId":"Q957084"},{"id":146809,"Name":"Piatra","state_id":4760,"state_code":"MM","state_name":"Maramureș County","country_id":181,"country_code":"RO","country_name":"Romania","latitude":"47.99565500","longitude":"23.53842100","wikiDataId":"Q1125745"},{"id":146810,"Name":"Plopiș","state_id":4760,"state_code":"MM","state_name":"Maramureș County","country_id":181,"country_code":"RO","country_name":"Romania","latitude":"47.58962200","longitude":"23.77273700","wikiDataId":"Q723299"},{"id":146811,"Name":"Poiana Botizii","state_id":4760,"state_code":"MM","state_name":"Maramureș County","country_id":181,"country_code":"RO","country_name":"Romania","latitude":"47.59333700","longitude":"24.02531400","wikiDataId":"Q3892678"},{"id":95895,"Name":"Poienile de sub Munte","state_id":4760,"state_code":"MM","state_name":"Maramureș County","country_id":181,"country_code":"RO","country_name":"Romania","latitude":"47.81667000","longitude":"24.43333000","wikiDataId":"Q1006101"},{"id":95894,"Name":"Poienile Izei","state_id":4760,"state_code":"MM","state_name":"Maramureș County","country_id":181,"country_code":"RO","country_name":"Romania","latitude":"47.70000000","longitude":"24.11667000","wikiDataId":"Q1090023"},{"id":146812,"Name":"Posta","state_id":4760,"state_code":"MM","state_name":"Maramureș County","country_id":181,"country_code":"RO","country_name":"Romania","latitude":"47.54781300","longitude":"23.49390200","wikiDataId":"Q636290"},{"id":146813,"Name":"Preluca Nouă","state_id":4760,"state_code":"MM","state_name":"Maramureș County","country_id":181,"country_code":"RO","country_name":"Romania","latitude":"47.46697200","longitude":"23.65150800","wikiDataId":"Q1413740"},{"id":146814,"Name":"Preluca Veche","state_id":4760,"state_code":"MM","state_name":"Maramureș County","country_id":181,"country_code":"RO","country_name":"Romania","latitude":"47.46941300","longitude":"23.70789700","wikiDataId":"Q755388"},{"id":146815,"Name":"Pribilești","state_id":4760,"state_code":"MM","state_name":"Maramureș County","country_id":181,"country_code":"RO","country_name":"Romania","latitude":"47.56523000","longitude":"23.37328400","wikiDataId":"Q724680"},{"id":146816,"Name":"Prislop","state_id":4760,"state_code":"MM","state_name":"Maramureș County","country_id":181,"country_code":"RO","country_name":"Romania","latitude":"47.41155400","longitude":"23.55339400","wikiDataId":"Q755495"},{"id":146824,"Name":"Răzoare","state_id":4760,"state_code":"MM","state_name":"Maramureș County","country_id":181,"country_code":"RO","country_name":"Romania","latitude":"47.44440600","longitude":"23.77943200","wikiDataId":"Q718026"},{"id":96070,"Name":"Recea","state_id":4760,"state_code":"MM","state_name":"Maramureș County","country_id":181,"country_code":"RO","country_name":"Romania","latitude":"47.63333000","longitude":"23.51667000","wikiDataId":"Q1160476"},{"id":146817,"Name":"Remecioara","state_id":4760,"state_code":"MM","state_name":"Maramureș County","country_id":181,"country_code":"RO","country_name":"Romania","latitude":"47.51397700","longitude":"23.55886000","wikiDataId":"Q1111470"},{"id":96083,"Name":"Remetea Chioarului","state_id":4760,"state_code":"MM","state_name":"Maramureș County","country_id":181,"country_code":"RO","country_name":"Romania","latitude":"47.53333000","longitude":"23.55000000","wikiDataId":"Q1126860"},{"id":96085,"Name":"Remeţi","state_id":4760,"state_code":"MM","state_name":"Maramureș County","country_id":181,"country_code":"RO","country_name":"Romania","latitude":"47.98333000","longitude":"23.63333000","wikiDataId":"Q1093653"},{"id":146818,"Name":"Remeți pe Someș","state_id":4760,"state_code":"MM","state_name":"Maramureș County","country_id":181,"country_code":"RO","country_name":"Romania","latitude":"47.48143500","longitude":"23.33929800","wikiDataId":"Q578578"},{"id":96087,"Name":"Repedea","state_id":4760,"state_code":"MM","state_name":"Maramureș County","country_id":181,"country_code":"RO","country_name":"Romania","latitude":"47.83333000","longitude":"24.40000000","wikiDataId":"Q1189083"},{"id":146819,"Name":"Rodina","state_id":4760,"state_code":"MM","state_name":"Maramureș County","country_id":181,"country_code":"RO","country_name":"Romania","latitude":"47.51826800","longitude":"23.25352900","wikiDataId":"Q221210"},{"id":96102,"Name":"Rogoz","state_id":4760,"state_code":"MM","state_name":"Maramureș County","country_id":181,"country_code":"RO","country_name":"Romania","latitude":"47.46749000","longitude":"23.93214000","wikiDataId":"Q726363"},{"id":146820,"Name":"Rohia","state_id":4760,"state_code":"MM","state_name":"Maramureș County","country_id":181,"country_code":"RO","country_name":"Romania","latitude":"47.40612600","longitude":"23.85804000","wikiDataId":"Q718350"},{"id":146821,"Name":"Românești","state_id":4760,"state_code":"MM","state_name":"Maramureș County","country_id":181,"country_code":"RO","country_name":"Romania","latitude":"47.40336300","longitude":"23.64537600","wikiDataId":"Q734906"},{"id":96116,"Name":"Rona de Jos","state_id":4760,"state_code":"MM","state_name":"Maramureș County","country_id":181,"country_code":"RO","country_name":"Romania","latitude":"47.91667000","longitude":"24.01667000","wikiDataId":"Q679178"},{"id":96117,"Name":"Rona de Sus","state_id":4760,"state_code":"MM","state_name":"Maramureș County","country_id":181,"country_code":"RO","country_name":"Romania","latitude":"47.90000000","longitude":"24.05000000","wikiDataId":"Q999458"},{"id":96124,"Name":"Rozavlea","state_id":4760,"state_code":"MM","state_name":"Maramureș County","country_id":181,"country_code":"RO","country_name":"Romania","latitude":"47.73333000","longitude":"24.21667000","wikiDataId":"Q1195063"},{"id":146822,"Name":"Rus","state_id":4760,"state_code":"MM","state_name":"Maramureș County","country_id":181,"country_code":"RO","country_name":"Romania","latitude":"47.61292400","longitude":"23.66938300","wikiDataId":"Q683572"},{"id":96160,"Name":"Ruscova","state_id":4760,"state_code":"MM","state_name":"Maramureș County","country_id":181,"country_code":"RO","country_name":"Romania","latitude":"47.79289000","longitude":"24.28546000","wikiDataId":"Q1089930"},{"id":146823,"Name":"Rușor","state_id":4760,"state_code":"MM","state_name":"Maramureș County","country_id":181,"country_code":"RO","country_name":"Romania","latitude":"47.50440500","longitude":"23.71101800","wikiDataId":"Q578196"},{"id":146834,"Name":"Săbișa","state_id":4760,"state_code":"MM","state_name":"Maramureș County","country_id":181,"country_code":"RO","country_name":"Romania","latitude":"47.72946200","longitude":"23.32900600","wikiDataId":"Q220511"},{"id":106001,"Name":"Săcălășeni","state_id":4760,"state_code":"MM","state_name":"Maramureș County","country_id":181,"country_code":"RO","country_name":"Romania","latitude":"47.58180000","longitude":"23.56432000","wikiDataId":"Q1188926"},{"id":105990,"Name":"Săcel","state_id":4760,"state_code":"MM","state_name":"Maramureș County","country_id":181,"country_code":"RO","country_name":"Romania","latitude":"47.63333000","longitude":"24.43333000","wikiDataId":"Q612539"},{"id":146835,"Name":"Săliște","state_id":4760,"state_code":"MM","state_name":"Maramureș County","country_id":181,"country_code":"RO","country_name":"Romania","latitude":"47.49595700","longitude":"23.11222500","wikiDataId":"Q755479"},{"id":95645,"Name":"Săliştea de Sus","state_id":4760,"state_code":"MM","state_name":"Maramureș County","country_id":181,"country_code":"RO","country_name":"Romania","latitude":"47.66019000","longitude":"24.35336000","wikiDataId":"Q276141"},{"id":146836,"Name":"Sălnița","state_id":4760,"state_code":"MM","state_name":"Maramureș County","country_id":181,"country_code":"RO","country_name":"Romania","latitude":"47.41159000","longitude":"23.67218900","wikiDataId":"Q598166"},{"id":106021,"Name":"Sălsig","state_id":4760,"state_code":"MM","state_name":"Maramureș County","country_id":181,"country_code":"RO","country_name":"Romania","latitude":"47.53333000","longitude":"23.30000000","wikiDataId":"Q1065969"},{"id":146833,"Name":"Sâlța","state_id":4760,"state_code":"MM","state_name":"Maramureș County","country_id":181,"country_code":"RO","country_name":"Romania","latitude":"47.73740700","longitude":"24.17945100","wikiDataId":"Q12741796"},{"id":106029,"Name":"Săpânţa","state_id":4760,"state_code":"MM","state_name":"Maramureș County","country_id":181,"country_code":"RO","country_name":"Romania","latitude":"47.96667000","longitude":"23.70000000","wikiDataId":"Q782980"},{"id":96244,"Name":"Sarasău","state_id":4760,"state_code":"MM","state_name":"Maramureș County","country_id":181,"country_code":"RO","country_name":"Romania","latitude":"47.95510000","longitude":"23.82874000","wikiDataId":"Q645730"},{"id":105986,"Name":"Sârbi","state_id":4760,"state_code":"MM","state_name":"Maramureș County","country_id":181,"country_code":"RO","country_name":"Romania","latitude":"47.76184000","longitude":"23.94490000","wikiDataId":"Q659108"},{"id":106038,"Name":"Săsar","state_id":4760,"state_code":"MM","state_name":"Maramureș County","country_id":181,"country_code":"RO","country_name":"Romania","latitude":"47.64406000","longitude":"23.49869000","wikiDataId":"Q724842"},{"id":96251,"Name":"Sat-Șugatag","state_id":4760,"state_code":"MM","state_name":"Maramureș County","country_id":181,"country_code":"RO","country_name":"Romania","latitude":"47.79796000","longitude":"23.90637000","wikiDataId":"Q602578"},{"id":146825,"Name":"Satu Nou de Jos","state_id":4760,"state_code":"MM","state_name":"Maramureș County","country_id":181,"country_code":"RO","country_name":"Romania","latitude":"47.61620400","longitude":"23.56850000","wikiDataId":"Q680129"},{"id":146826,"Name":"Satu Nou de Sus","state_id":4760,"state_code":"MM","state_name":"Maramureș County","country_id":181,"country_code":"RO","country_name":"Romania","latitude":"47.63847400","longitude":"23.63476500","wikiDataId":"Q724664"},{"id":96262,"Name":"Satulung","state_id":4760,"state_code":"MM","state_name":"Maramureș County","country_id":181,"country_code":"RO","country_name":"Romania","latitude":"47.56667000","longitude":"23.43333000","wikiDataId":"Q1126840"},{"id":95644,"Name":"Seini","state_id":4760,"state_code":"MM","state_name":"Maramureș County","country_id":181,"country_code":"RO","country_name":"Romania","latitude":"47.75000000","longitude":"23.28333000","wikiDataId":"Q666373"},{"id":97122,"Name":"Șieu","state_id":4760,"state_code":"MM","state_name":"Maramureș County","country_id":181,"country_code":"RO","country_name":"Romania","latitude":"47.72462000","longitude":"24.22389000","wikiDataId":"Q913172"},{"id":95182,"Name":"Sighetu Marmaţiei","state_id":4760,"state_code":"MM","state_name":"Maramureș County","country_id":181,"country_code":"RO","country_name":"Romania","latitude":"47.91914000","longitude":"23.88679000","wikiDataId":"Q334874"},{"id":146857,"Name":"Șindrești","state_id":4760,"state_code":"MM","state_name":"Maramureș County","country_id":181,"country_code":"RO","country_name":"Romania","latitude":"47.60659500","longitude":"23.69513300","wikiDataId":"Q725152"},{"id":97129,"Name":"Șisești","state_id":4760,"state_code":"MM","state_name":"Maramureș County","country_id":181,"country_code":"RO","country_name":"Romania","latitude":"47.63506000","longitude":"23.70794000","wikiDataId":"Q1127236"},{"id":146827,"Name":"Slătioara","state_id":4760,"state_code":"MM","state_name":"Maramureș County","country_id":181,"country_code":"RO","country_name":"Romania","latitude":"47.75186300","longitude":"24.08980000","wikiDataId":"Q755401"},{"id":95651,"Name":"Şomcuta Mare","state_id":4760,"state_code":"MM","state_name":"Maramureș County","country_id":181,"country_code":"RO","country_name":"Romania","latitude":"47.51667000","longitude":"23.46667000","wikiDataId":"Q275895"},{"id":146828,"Name":"Someș-Uileac","state_id":4760,"state_code":"MM","state_name":"Maramureș County","country_id":181,"country_code":"RO","country_name":"Romania","latitude":"47.45918200","longitude":"23.22755400","wikiDataId":"Q656528"},{"id":146829,"Name":"Stejera","state_id":4760,"state_code":"MM","state_name":"Maramureș County","country_id":181,"country_code":"RO","country_name":"Romania","latitude":"47.44189900","longitude":"23.42443800","wikiDataId":"Q725265"},{"id":146830,"Name":"Stoiceni","state_id":4760,"state_code":"MM","state_name":"Maramureș County","country_id":181,"country_code":"RO","country_name":"Romania","latitude":"47.51121300","longitude":"23.88079900","wikiDataId":"Q750720"},{"id":146832,"Name":"Strâmbu-Băiuț","state_id":4760,"state_code":"MM","state_name":"Maramureș County","country_id":181,"country_code":"RO","country_name":"Romania","latitude":"47.59839500","longitude":"23.98257400","wikiDataId":"Q755580"},{"id":96461,"Name":"Strâmtura","state_id":4760,"state_code":"MM","state_name":"Maramureș County","country_id":181,"country_code":"RO","country_name":"Romania","latitude":"47.78333000","longitude":"24.13333000","wikiDataId":"Q1084708"},{"id":146831,"Name":"Stremț","state_id":4760,"state_code":"MM","state_name":"Maramureș County","country_id":181,"country_code":"RO","country_name":"Romania","latitude":"47.49183600","longitude":"23.07710300","wikiDataId":"Q755466"},{"id":96491,"Name":"Suciu de Jos","state_id":4760,"state_code":"MM","state_name":"Maramureș County","country_id":181,"country_code":"RO","country_name":"Romania","latitude":"47.44584000","longitude":"23.98250000","wikiDataId":"Q281261"},{"id":96492,"Name":"Suciu de Sus","state_id":4760,"state_code":"MM","state_name":"Maramureș County","country_id":181,"country_code":"RO","country_name":"Romania","latitude":"47.43333000","longitude":"24.03333000","wikiDataId":"Q999568"},{"id":146858,"Name":"Șugău","state_id":4760,"state_code":"MM","state_name":"Maramureș County","country_id":181,"country_code":"RO","country_name":"Romania","latitude":"47.88362700","longitude":"23.90900900","wikiDataId":"Q570261"},{"id":97136,"Name":"Șurdești","state_id":4760,"state_code":"MM","state_name":"Maramureș County","country_id":181,"country_code":"RO","country_name":"Romania","latitude":"47.60215000","longitude":"23.76899000","wikiDataId":"Q423389"},{"id":146840,"Name":"Tămaia","state_id":4760,"state_code":"MM","state_name":"Maramureș County","country_id":181,"country_code":"RO","country_name":"Romania","latitude":"47.59353500","longitude":"23.36340400","wikiDataId":"Q632312"},{"id":146841,"Name":"Tămășești","state_id":4760,"state_code":"MM","state_name":"Maramureș County","country_id":181,"country_code":"RO","country_name":"Romania","latitude":"47.50343400","longitude":"23.18904200","wikiDataId":"Q754142"},{"id":95648,"Name":"Târgu Lăpuş","state_id":4760,"state_code":"MM","state_name":"Maramureș County","country_id":181,"country_code":"RO","country_name":"Romania","latitude":"47.46124000","longitude":"23.85353000","wikiDataId":"Q386888"},{"id":96628,"Name":"Tăuții de Sus","state_id":4760,"state_code":"MM","state_name":"Maramureș County","country_id":181,"country_code":"RO","country_name":"Romania","latitude":"47.65665000","longitude":"23.65841000","wikiDataId":"Q1088231"},{"id":95649,"Name":"Tăuţii-Măgherăuş","state_id":4760,"state_code":"MM","state_name":"Maramureș County","country_id":181,"country_code":"RO","country_name":"Romania","latitude":"47.72129000","longitude":"23.48601000","wikiDataId":"Q930102"},{"id":146837,"Name":"Teceu Mic","state_id":4760,"state_code":"MM","state_name":"Maramureș County","country_id":181,"country_code":"RO","country_name":"Romania","latitude":"48.00305000","longitude":"23.58080500","wikiDataId":"Q1112356"},{"id":146859,"Name":"Țicău","state_id":4760,"state_code":"MM","state_name":"Maramureș County","country_id":181,"country_code":"RO","country_name":"Romania","latitude":"47.44566300","longitude":"23.30722800","wikiDataId":"Q755500"},{"id":106106,"Name":"Tisa","state_id":4760,"state_code":"MM","state_name":"Maramureș County","country_id":181,"country_code":"RO","country_name":"Romania","latitude":"47.94844000","longitude":"23.95768000","wikiDataId":"Q842210"},{"id":146855,"Name":"tohat","state_id":4760,"state_code":"MM","state_name":"Maramureș County","country_id":181,"country_code":"RO","country_name":"Romania","latitude":"47.49475700","longitude":"23.30669100","wikiDataId":"Q755411"},{"id":146838,"Name":"Trestia","state_id":4760,"state_code":"MM","state_name":"Maramureș County","country_id":181,"country_code":"RO","country_name":"Romania","latitude":"47.56474400","longitude":"23.79368500","wikiDataId":"Q1125646"},{"id":146839,"Name":"Tulghieș","state_id":4760,"state_code":"MM","state_name":"Maramureș County","country_id":181,"country_code":"RO","country_name":"Romania","latitude":"47.50091000","longitude":"23.37081400","wikiDataId":"Q725205"},{"id":95611,"Name":"Ulmeni","state_id":4760,"state_code":"MM","state_name":"Maramureș County","country_id":181,"country_code":"RO","country_name":"Romania","latitude":"47.46209000","longitude":"23.27925000","wikiDataId":"Q276120"},{"id":146842,"Name":"Ulmoasa","state_id":4760,"state_code":"MM","state_name":"Maramureș County","country_id":181,"country_code":"RO","country_name":"Romania","latitude":"47.73242300","longitude":"23.53324100","wikiDataId":"Q1298329"},{"id":146843,"Name":"Unguraș","state_id":4760,"state_code":"MM","state_name":"Maramureș County","country_id":181,"country_code":"RO","country_name":"Romania","latitude":"47.62904400","longitude":"23.67893300","wikiDataId":"Q724634"},{"id":96660,"Name":"Ungureni","state_id":4760,"state_code":"MM","state_name":"Maramureș County","country_id":181,"country_code":"RO","country_name":"Romania","latitude":"47.54631000","longitude":"23.95241000","wikiDataId":"Q754611"},{"id":146844,"Name":"Urmeniș","state_id":4760,"state_code":"MM","state_name":"Maramureș County","country_id":181,"country_code":"RO","country_name":"Romania","latitude":"47.52357200","longitude":"23.19626000","wikiDataId":"Q508520"},{"id":146845,"Name":"Vad","state_id":4760,"state_code":"MM","state_name":"Maramureș County","country_id":181,"country_code":"RO","country_name":"Romania","latitude":"47.52145800","longitude":"23.71161400","wikiDataId":"Q755391"},{"id":96696,"Name":"Vadu Izei","state_id":4760,"state_code":"MM","state_name":"Maramureș County","country_id":181,"country_code":"RO","country_name":"Romania","latitude":"47.88821000","longitude":"23.93209000","wikiDataId":"Q996521"},{"id":96714,"Name":"Valea Chioarului","state_id":4760,"state_code":"MM","state_name":"Maramureș County","country_id":181,"country_code":"RO","country_name":"Romania","latitude":"47.43333000","longitude":"23.48333000","wikiDataId":"Q1126836"},{"id":146846,"Name":"Valea Cufundoasă","state_id":4760,"state_code":"MM","state_name":"Maramureș County","country_id":181,"country_code":"RO","country_name":"Romania","latitude":"47.94086600","longitude":"23.92678900","wikiDataId":"Q1212853"},{"id":146847,"Name":"Valea Hotarului","state_id":4760,"state_code":"MM","state_name":"Maramureș County","country_id":181,"country_code":"RO","country_name":"Romania","latitude":"47.93119500","longitude":"23.84362600","wikiDataId":"Q585369"},{"id":146848,"Name":"Valea Neagră","state_id":4760,"state_code":"MM","state_name":"Maramureș County","country_id":181,"country_code":"RO","country_name":"Romania","latitude":"47.76631800","longitude":"23.62108600","wikiDataId":"Q679257"},{"id":146849,"Name":"Valea Stejarului","state_id":4760,"state_code":"MM","state_name":"Maramureș County","country_id":181,"country_code":"RO","country_name":"Romania","latitude":"47.87441400","longitude":"23.98952800","wikiDataId":"Q598326"},{"id":96764,"Name":"Valea Vișeului","state_id":4760,"state_code":"MM","state_name":"Maramureș County","country_id":181,"country_code":"RO","country_name":"Romania","latitude":"47.91203000","longitude":"24.15842000","wikiDataId":"Q623992"},{"id":96959,"Name":"Văleni","state_id":4760,"state_code":"MM","state_name":"Maramureș County","country_id":181,"country_code":"RO","country_name":"Romania","latitude":"47.78559000","longitude":"24.01625000","wikiDataId":"Q750740"},{"id":146853,"Name":"Vălenii Lăpușului","state_id":4760,"state_code":"MM","state_name":"Maramureș County","country_id":181,"country_code":"RO","country_name":"Romania","latitude":"47.40572900","longitude":"23.78592100","wikiDataId":"Q725664"},{"id":96966,"Name":"Vălenii Șomcutei","state_id":4760,"state_code":"MM","state_name":"Maramureș County","country_id":181,"country_code":"RO","country_name":"Romania","latitude":"47.47291000","longitude":"23.45138000","wikiDataId":"Q268472"},{"id":146854,"Name":"Vărai","state_id":4760,"state_code":"MM","state_name":"Maramureș County","country_id":181,"country_code":"RO","country_name":"Romania","latitude":"47.38618500","longitude":"23.45107600","wikiDataId":"Q725190"},{"id":146850,"Name":"Vicea","state_id":4760,"state_code":"MM","state_name":"Maramureș County","country_id":181,"country_code":"RO","country_name":"Romania","latitude":"47.45094800","longitude":"23.24101100","wikiDataId":"Q755539"},{"id":146851,"Name":"Viile Apei","state_id":4760,"state_code":"MM","state_name":"Maramureș County","country_id":181,"country_code":"RO","country_name":"Romania","latitude":"47.78109100","longitude":"23.29103500","wikiDataId":"Q738850"},{"id":146852,"Name":"Vima Mare","state_id":4760,"state_code":"MM","state_name":"Maramureș County","country_id":181,"country_code":"RO","country_name":"Romania","latitude":"47.38170200","longitude":"23.70853400","wikiDataId":"Q725847"},{"id":96829,"Name":"Vima Mică","state_id":4760,"state_code":"MM","state_name":"Maramureș County","country_id":181,"country_code":"RO","country_name":"Romania","latitude":"47.40000000","longitude":"23.71667000","wikiDataId":"Q910148"},{"id":96847,"Name":"Vişeu de Jos","state_id":4760,"state_code":"MM","state_name":"Maramureș County","country_id":181,"country_code":"RO","country_name":"Romania","latitude":"47.72558000","longitude":"24.36613000","wikiDataId":"Q679924"},{"id":96852,"Name":"Vișeu de Mijloc","state_id":4760,"state_code":"MM","state_name":"Maramureș County","country_id":181,"country_code":"RO","country_name":"Romania","latitude":"47.71562000","longitude":"24.40661000","wikiDataId":"Q12093610"},{"id":95619,"Name":"Vişeu De Sus","state_id":4760,"state_code":"MM","state_name":"Maramureș County","country_id":181,"country_code":"RO","country_name":"Romania","latitude":"47.71493000","longitude":"24.41707000","wikiDataId":"Q596609"}]