[{"id":63131,"Name":"Al Jafr","state_id":964,"state_code":"MN","state_name":"Ma'an Governorate","country_id":111,"country_code":"JO","country_name":"Jordan","latitude":"30.31840000","longitude":"36.17775000","wikiDataId":"Q27125599"},{"id":63139,"Name":"Al Quwayrah","state_id":964,"state_code":"MN","state_name":"Ma'an Governorate","country_id":111,"country_code":"JO","country_name":"Jordan","latitude":"29.80045000","longitude":"35.31160000","wikiDataId":"Q3505791"},{"id":63147,"Name":"Ash Shawbak","state_id":964,"state_code":"MN","state_name":"Ma'an Governorate","country_id":111,"country_code":"JO","country_name":"Jordan","latitude":"30.52134000","longitude":"35.57135000","wikiDataId":"Q3299624"},{"id":63150,"Name":"Aţ Ţayyibah","state_id":964,"state_code":"MN","state_name":"Ma'an Governorate","country_id":111,"country_code":"JO","country_name":"Jordan","latitude":"30.25125000","longitude":"35.46570000","wikiDataId":"Q3299624"},{"id":63170,"Name":"Ma'an","state_id":964,"state_code":"MN","state_name":"Ma'an Governorate","country_id":111,"country_code":"JO","country_name":"Jordan","latitude":"30.19624000","longitude":"35.73405000","wikiDataId":"Q31616"},{"id":63174,"Name":"Petra","state_id":964,"state_code":"MN","state_name":"Ma'an Governorate","country_id":111,"country_code":"JO","country_name":"Jordan","latitude":"30.32096000","longitude":"35.47895000","wikiDataId":"Q2739446"},{"id":63177,"Name":"Qīr Moāv","state_id":964,"state_code":"MN","state_name":"Ma'an Governorate","country_id":111,"country_code":"JO","country_name":"Jordan","latitude":"31.18248000","longitude":"35.69999000","wikiDataId":"Q31572"}]