[{"id":68020,"Name":"Abelardo L. Rodríguez","state_id":3465,"state_code":"MOR","state_name":"Morelos","country_id":142,"country_code":"MX","country_name":"Mexico","latitude":"18.73750000","longitude":"-98.98528000","wikiDataId":"Q20250528"},{"id":68033,"Name":"Acamilpa","state_id":3465,"state_code":"MOR","state_name":"Morelos","country_id":142,"country_code":"MX","country_name":"Mexico","latitude":"18.71695000","longitude":"-99.15724000","wikiDataId":"Q535078"},{"id":68060,"Name":"Achichipico","state_id":3465,"state_code":"MOR","state_name":"Morelos","country_id":142,"country_code":"MX","country_name":"Mexico","latitude":"18.94861000","longitude":"-98.82611000","wikiDataId":"Q20129909"},{"id":68090,"Name":"Adolfo López Mateos","state_id":3465,"state_code":"MOR","state_name":"Morelos","country_id":142,"country_code":"MX","country_name":"Mexico","latitude":"19.80083000","longitude":"-100.00055000","wikiDataId":"Q20130294"},{"id":68156,"Name":"Ahuehuetzingo","state_id":3465,"state_code":"MOR","state_name":"Morelos","country_id":142,"country_code":"MX","country_name":"Mexico","latitude":"18.68024000","longitude":"-99.30834000","wikiDataId":"Q3888604"},{"id":68199,"Name":"Alfredo V. Bonfil (Chacampalco)","state_id":3465,"state_code":"MOR","state_name":"Morelos","country_id":142,"country_code":"MX","country_name":"Mexico","latitude":"18.65528000","longitude":"-99.15417000","wikiDataId":"Q20134383"},{"id":68219,"Name":"Alpuyeca","state_id":3465,"state_code":"MOR","state_name":"Morelos","country_id":142,"country_code":"MX","country_name":"Mexico","latitude":"18.74006000","longitude":"-99.25937000","wikiDataId":"Q20134666"},{"id":68231,"Name":"Amacuitlapilco","state_id":3465,"state_code":"MOR","state_name":"Morelos","country_id":142,"country_code":"MX","country_name":"Mexico","latitude":"18.69611000","longitude":"-98.81167000","wikiDataId":"Q20135336"},{"id":68232,"Name":"Amacuzac","state_id":3465,"state_code":"MOR","state_name":"Morelos","country_id":142,"country_code":"MX","country_name":"Mexico","latitude":"18.60056000","longitude":"-99.37252000","wikiDataId":"Q17377049"},{"id":68245,"Name":"Amatlán de Quetzalcoatl","state_id":3465,"state_code":"MOR","state_name":"Morelos","country_id":142,"country_code":"MX","country_name":"Mexico","latitude":"18.97537000","longitude":"-99.03742000","wikiDataId":"Q2651624"},{"id":68249,"Name":"Amayuca","state_id":3465,"state_code":"MOR","state_name":"Morelos","country_id":142,"country_code":"MX","country_name":"Mexico","latitude":"18.72408000","longitude":"-98.79812000","wikiDataId":"Q20135587"},{"id":68255,"Name":"Amilcingo","state_id":3465,"state_code":"MOR","state_name":"Morelos","country_id":142,"country_code":"MX","country_name":"Mexico","latitude":"18.74274000","longitude":"-98.77089000","wikiDataId":"Q20135619"},{"id":68270,"Name":"Anenecuilco","state_id":3465,"state_code":"MOR","state_name":"Morelos","country_id":142,"country_code":"MX","country_name":"Mexico","latitude":"18.77738000","longitude":"-98.98907000","wikiDataId":"Q1813041"},{"id":68366,"Name":"Arroyo Vista Hermosa","state_id":3465,"state_code":"MOR","state_name":"Morelos","country_id":142,"country_code":"MX","country_name":"Mexico","latitude":"19.33082000","longitude":"-99.53694000","wikiDataId":"Q3848908"},{"id":68409,"Name":"Atlacahualoya","state_id":3465,"state_code":"MOR","state_name":"Morelos","country_id":142,"country_code":"MX","country_name":"Mexico","latitude":"18.54057000","longitude":"-98.72982000","wikiDataId":"Q20228917"},{"id":68410,"Name":"Atlacholoaya","state_id":3465,"state_code":"MOR","state_name":"Morelos","country_id":142,"country_code":"MX","country_name":"Mexico","latitude":"18.74238000","longitude":"-99.22656000","wikiDataId":"Q20228917"},{"id":68417,"Name":"Atlatlahucan","state_id":3465,"state_code":"MOR","state_name":"Morelos","country_id":142,"country_code":"MX","country_name":"Mexico","latitude":"18.93554000","longitude":"-98.89496000","wikiDataId":"Q17374320"},{"id":68429,"Name":"Atotonilco","state_id":3465,"state_code":"MOR","state_name":"Morelos","country_id":142,"country_code":"MX","country_name":"Mexico","latitude":"18.64947000","longitude":"-98.83117000","wikiDataId":"Q19819771"},{"id":68451,"Name":"Axochiapan","state_id":3465,"state_code":"MOR","state_name":"Morelos","country_id":142,"country_code":"MX","country_name":"Mexico","latitude":"18.50246000","longitude":"-98.75358000","wikiDataId":"Q2651949"},{"id":68459,"Name":"Ayala","state_id":3465,"state_code":"MOR","state_name":"Morelos","country_id":142,"country_code":"MX","country_name":"Mexico","latitude":"18.72604000","longitude":"-98.95106000","wikiDataId":"Q17330905"},{"id":68635,"Name":"Bonifacio García","state_id":3465,"state_code":"MOR","state_name":"Morelos","country_id":142,"country_code":"MX","country_name":"Mexico","latitude":"18.71786000","longitude":"-99.12011000","wikiDataId":"Q2576175"},{"id":68671,"Name":"Buenavista","state_id":3465,"state_code":"MOR","state_name":"Morelos","country_id":142,"country_code":"MX","country_name":"Mexico","latitude":"19.80082000","longitude":"-100.04385000","wikiDataId":"Q1801492"},{"id":68731,"Name":"Calera Chica","state_id":3465,"state_code":"MOR","state_name":"Morelos","country_id":142,"country_code":"MX","country_name":"Mexico","latitude":"18.85833000","longitude":"-99.18194000","wikiDataId":"Q20147578"},{"id":68742,"Name":"Calle Real","state_id":3465,"state_code":"MOR","state_name":"Morelos","country_id":142,"country_code":"MX","country_name":"Mexico","latitude":"19.48858000","longitude":"-99.61332000","wikiDataId":"Q2605401"},{"id":68851,"Name":"Casahuatlán","state_id":3465,"state_code":"MOR","state_name":"Morelos","country_id":142,"country_code":"MX","country_name":"Mexico","latitude":"18.57271000","longitude":"-99.39051000","wikiDataId":"Q20237329"},{"id":68918,"Name":"Cerritos de Cárdenas","state_id":3465,"state_code":"MOR","state_name":"Morelos","country_id":142,"country_code":"MX","country_name":"Mexico","latitude":"19.96942000","longitude":"-100.02254000","wikiDataId":"Q20241385"},{"id":68956,"Name":"Chalcatzingo","state_id":3465,"state_code":"MOR","state_name":"Morelos","country_id":142,"country_code":"MX","country_name":"Mexico","latitude":"18.68951000","longitude":"-98.77434000","wikiDataId":"Q20241442"},{"id":69002,"Name":"Chavarría","state_id":3465,"state_code":"MOR","state_name":"Morelos","country_id":142,"country_code":"MX","country_name":"Mexico","latitude":"18.72575000","longitude":"-99.46826000","wikiDataId":"Q50024901"},{"id":69041,"Name":"Chiconcuac","state_id":3465,"state_code":"MOR","state_name":"Morelos","country_id":142,"country_code":"MX","country_name":"Mexico","latitude":"18.78278000","longitude":"-99.20722000","wikiDataId":"Q20235606"},{"id":69081,"Name":"Chinameca","state_id":3465,"state_code":"MOR","state_name":"Morelos","country_id":142,"country_code":"MX","country_name":"Mexico","latitude":"18.62220000","longitude":"-98.99766000","wikiDataId":"Q942154"},{"id":69145,"Name":"Ciudad Ayala","state_id":3465,"state_code":"MOR","state_name":"Morelos","country_id":142,"country_code":"MX","country_name":"Mexico","latitude":"18.76694000","longitude":"-98.98222000","wikiDataId":"Q1094341"},{"id":69201,"Name":"Cliserio Alanís (San Gaspar)","state_id":3465,"state_code":"MOR","state_name":"Morelos","country_id":142,"country_code":"MX","country_name":"Mexico","latitude":"18.86111000","longitude":"-99.16000000","wikiDataId":"Q20235610"},{"id":69218,"Name":"Coahuixtla","state_id":3465,"state_code":"MOR","state_name":"Morelos","country_id":142,"country_code":"MX","country_name":"Mexico","latitude":"18.57417000","longitude":"-99.37000000","wikiDataId":"Q20235611"},{"id":69229,"Name":"Coatetelco","state_id":3465,"state_code":"MOR","state_name":"Morelos","country_id":142,"country_code":"MX","country_name":"Mexico","latitude":"18.72963000","longitude":"-99.32605000","wikiDataId":"Q1104450"},{"id":69230,"Name":"Coatlán del Río","state_id":3465,"state_code":"MOR","state_name":"Morelos","country_id":142,"country_code":"MX","country_name":"Mexico","latitude":"18.74423000","longitude":"-99.43324000","wikiDataId":"Q2981140"},{"id":69240,"Name":"Cocoyoc","state_id":3465,"state_code":"MOR","state_name":"Morelos","country_id":142,"country_code":"MX","country_name":"Mexico","latitude":"18.88417000","longitude":"-98.98194000","wikiDataId":"Q5139909"},{"id":69242,"Name":"Cocoyotla","state_id":3465,"state_code":"MOR","state_name":"Morelos","country_id":142,"country_code":"MX","country_name":"Mexico","latitude":"18.75445000","longitude":"-99.45075000","wikiDataId":"Q5139909"},{"id":69406,"Name":"Colonia Ángel Bocanegra (Adolfo López Mateos)","state_id":3465,"state_code":"MOR","state_name":"Morelos","country_id":142,"country_code":"MX","country_name":"Mexico","latitude":"18.92639000","longitude":"-99.02972000","wikiDataId":"Q20235641"},{"id":69384,"Name":"Colonia el Florido","state_id":3465,"state_code":"MOR","state_name":"Morelos","country_id":142,"country_code":"MX","country_name":"Mexico","latitude":"18.73833000","longitude":"-99.36722000","wikiDataId":"Q20276288"},{"id":69396,"Name":"Colonia las Arboledas","state_id":3465,"state_code":"MOR","state_name":"Morelos","country_id":142,"country_code":"MX","country_name":"Mexico","latitude":"18.78528000","longitude":"-98.93972000","wikiDataId":"Q20130098"},{"id":69401,"Name":"Colonia los Cerritos","state_id":3465,"state_code":"MOR","state_name":"Morelos","country_id":142,"country_code":"MX","country_name":"Mexico","latitude":"18.95389000","longitude":"-99.19250000","wikiDataId":"Q20235744"},{"id":69343,"Name":"Colonia Obrera","state_id":3465,"state_code":"MOR","state_name":"Morelos","country_id":142,"country_code":"MX","country_name":"Mexico","latitude":"18.93167000","longitude":"-99.03889000","wikiDataId":"Q20276445"},{"id":69347,"Name":"Colonia Palo Prieto (Chipitongo)","state_id":3465,"state_code":"MOR","state_name":"Morelos","country_id":142,"country_code":"MX","country_name":"Mexico","latitude":"18.70417000","longitude":"-99.11278000","wikiDataId":"Q20131337"},{"id":69361,"Name":"Colonia San Francisco","state_id":3465,"state_code":"MOR","state_name":"Morelos","country_id":142,"country_code":"MX","country_name":"Mexico","latitude":"18.89611000","longitude":"-98.90361000","wikiDataId":"Q20263985"},{"id":69462,"Name":"Constancio Farfán (La Pascuala)","state_id":3465,"state_code":"MOR","state_name":"Morelos","country_id":142,"country_code":"MX","country_name":"Mexico","latitude":"18.74194000","longitude":"-98.95389000","wikiDataId":"Q20235793"},{"id":69572,"Name":"Cuauchichinola","state_id":3465,"state_code":"MOR","state_name":"Morelos","country_id":142,"country_code":"MX","country_name":"Mexico","latitude":"18.66389000","longitude":"-99.37583000","wikiDataId":"Q20235806"},{"id":69576,"Name":"Cuauhtempan (San Andrés Cuauhtempan)","state_id":3465,"state_code":"MOR","state_name":"Morelos","country_id":142,"country_code":"MX","country_name":"Mexico","latitude":"18.97472000","longitude":"-98.94639000","wikiDataId":"Q20235809"},{"id":69591,"Name":"Cuautla","state_id":3465,"state_code":"MOR","state_name":"Morelos","country_id":142,"country_code":"MX","country_name":"Mexico","latitude":"18.81060000","longitude":"-98.93525000","wikiDataId":"Q939959"},{"id":69614,"Name":"Cuentepec","state_id":3465,"state_code":"MOR","state_name":"Morelos","country_id":142,"country_code":"MX","country_name":"Mexico","latitude":"18.86159000","longitude":"-99.32611000","wikiDataId":"Q20276801"},{"id":69615,"Name":"Cuernavaca","state_id":3465,"state_code":"MOR","state_name":"Morelos","country_id":142,"country_code":"MX","country_name":"Mexico","latitude":"18.95532000","longitude":"-99.24002000","wikiDataId":"Q5793859"},{"id":69721,"Name":"Dos Ríos","state_id":3465,"state_code":"MOR","state_name":"Morelos","country_id":142,"country_code":"MX","country_name":"Mexico","latitude":"19.37467000","longitude":"-99.34359000","wikiDataId":"Q20140402"},{"id":69871,"Name":"El Carmen","state_id":3465,"state_code":"MOR","state_name":"Morelos","country_id":142,"country_code":"MX","country_name":"Mexico","latitude":"19.88796000","longitude":"-98.95732000","wikiDataId":"Q20262807"},{"id":69965,"Name":"El Estudiante","state_id":3465,"state_code":"MOR","state_name":"Morelos","country_id":142,"country_code":"MX","country_name":"Mexico","latitude":"18.57760000","longitude":"-99.29712000","wikiDataId":"Q20206593"},{"id":70039,"Name":"El Mirador","state_id":3465,"state_code":"MOR","state_name":"Morelos","country_id":142,"country_code":"MX","country_name":"Mexico","latitude":"18.77139000","longitude":"-99.34139000","wikiDataId":"Q20235891"},{"id":70168,"Name":"El Rodeo","state_id":3465,"state_code":"MOR","state_name":"Morelos","country_id":142,"country_code":"MX","country_name":"Mexico","latitude":"18.77864000","longitude":"-99.32269000","wikiDataId":"Q20242214"},{"id":70188,"Name":"El Salitre","state_id":3465,"state_code":"MOR","state_name":"Morelos","country_id":142,"country_code":"MX","country_name":"Mexico","latitude":"18.67583000","longitude":"-98.95806000","wikiDataId":"Q20235943"},{"id":70277,"Name":"Emiliano Zapata","state_id":3465,"state_code":"MOR","state_name":"Morelos","country_id":142,"country_code":"MX","country_name":"Mexico","latitude":"18.84065000","longitude":"-99.18463000","wikiDataId":"Q20134374"},{"id":70291,"Name":"Emiliano Zapata (Casahuates)","state_id":3465,"state_code":"MOR","state_name":"Morelos","country_id":142,"country_code":"MX","country_name":"Mexico","latitude":"18.93056000","longitude":"-98.95889000","wikiDataId":"Q20134560"},{"id":70307,"Name":"Enthavi","state_id":3465,"state_code":"MOR","state_name":"Morelos","country_id":142,"country_code":"MX","country_name":"Mexico","latitude":"19.49842000","longitude":"-99.57502000","wikiDataId":"Q20238414"},{"id":70385,"Name":"Ex-Hacienda el Hospital","state_id":3465,"state_code":"MOR","state_name":"Morelos","country_id":142,"country_code":"MX","country_name":"Mexico","latitude":"18.83111000","longitude":"-98.99667000","wikiDataId":"Q20235962"},{"id":70400,"Name":"Felipe Neri (Cuatepec)","state_id":3465,"state_code":"MOR","state_name":"Morelos","country_id":142,"country_code":"MX","country_name":"Mexico","latitude":"19.03944000","longitude":"-98.94361000","wikiDataId":"Q20235969"},{"id":70425,"Name":"Fraccionamiento Lomas de Ahuatlán","state_id":3465,"state_code":"MOR","state_name":"Morelos","country_id":142,"country_code":"MX","country_name":"Mexico","latitude":"18.95444000","longitude":"-99.25722000","wikiDataId":"Q20139142"},{"id":70443,"Name":"Fraccionamiento Universo","state_id":3465,"state_code":"MOR","state_name":"Morelos","country_id":142,"country_code":"MX","country_name":"Mexico","latitude":"18.96167000","longitude":"-99.18639000","wikiDataId":"Q20139415"},{"id":70508,"Name":"Galeana","state_id":3465,"state_code":"MOR","state_name":"Morelos","country_id":142,"country_code":"MX","country_name":"Mexico","latitude":"18.63810000","longitude":"-99.21240000","wikiDataId":"Q20140387"},{"id":70698,"Name":"Higuerón","state_id":3465,"state_code":"MOR","state_name":"Morelos","country_id":142,"country_code":"MX","country_name":"Mexico","latitude":"18.57750000","longitude":"-99.18056000","wikiDataId":"Q20264213"},{"id":70721,"Name":"Huajintlán","state_id":3465,"state_code":"MOR","state_name":"Morelos","country_id":142,"country_code":"MX","country_name":"Mexico","latitude":"18.60923000","longitude":"-99.42432000","wikiDataId":"Q2651771"},{"id":70741,"Name":"Huatecalco","state_id":3465,"state_code":"MOR","state_name":"Morelos","country_id":142,"country_code":"MX","country_name":"Mexico","latitude":"18.67676000","longitude":"-99.14354000","wikiDataId":"Q1632892"},{"id":70754,"Name":"Huazulco","state_id":3465,"state_code":"MOR","state_name":"Morelos","country_id":142,"country_code":"MX","country_name":"Mexico","latitude":"18.75299000","longitude":"-98.77535000","wikiDataId":"Q20145616"},{"id":70756,"Name":"Huecahuasco","state_id":3465,"state_code":"MOR","state_name":"Morelos","country_id":142,"country_code":"MX","country_name":"Mexico","latitude":"18.93694000","longitude":"-98.78250000","wikiDataId":"Q20145638"},{"id":70770,"Name":"Huepalcalco (San Miguel)","state_id":3465,"state_code":"MOR","state_name":"Morelos","country_id":142,"country_code":"MX","country_name":"Mexico","latitude":"18.90889000","longitude":"-98.75000000","wikiDataId":"Q20145733"},{"id":70774,"Name":"Hueyapan","state_id":3465,"state_code":"MOR","state_name":"Morelos","country_id":142,"country_code":"MX","country_name":"Mexico","latitude":"18.88970000","longitude":"-98.68200000","wikiDataId":"Q5929399"},{"id":70798,"Name":"Huitchila","state_id":3465,"state_code":"MOR","state_name":"Morelos","country_id":142,"country_code":"MX","country_name":"Mexico","latitude":"18.63880000","longitude":"-98.92529000","wikiDataId":"Q9005333"},{"id":70806,"Name":"Huitzilac","state_id":3465,"state_code":"MOR","state_name":"Morelos","country_id":142,"country_code":"MX","country_name":"Mexico","latitude":"19.02983000","longitude":"-99.26788000","wikiDataId":"Q2466899"},{"id":70809,"Name":"Huitzililla","state_id":3465,"state_code":"MOR","state_name":"Morelos","country_id":142,"country_code":"MX","country_name":"Mexico","latitude":"18.69425000","longitude":"-98.89687000","wikiDataId":"Q10769319"},{"id":70840,"Name":"Ignacio Bastida (Santa Catarina Tlayca)","state_id":3465,"state_code":"MOR","state_name":"Morelos","country_id":142,"country_code":"MX","country_name":"Mexico","latitude":"18.94028000","longitude":"-99.01444000","wikiDataId":"Q20236033"},{"id":70871,"Name":"Independencia","state_id":3465,"state_code":"MOR","state_name":"Morelos","country_id":142,"country_code":"MX","country_name":"Mexico","latitude":"18.87716000","longitude":"-99.12237000","wikiDataId":"Q20147307"},{"id":70894,"Name":"Itzamatitlán","state_id":3465,"state_code":"MOR","state_name":"Morelos","country_id":142,"country_code":"MX","country_name":"Mexico","latitude":"18.90942000","longitude":"-99.02236000","wikiDataId":"Q760263"},{"id":70943,"Name":"Ixtlilco el Chico","state_id":3465,"state_code":"MOR","state_name":"Morelos","country_id":142,"country_code":"MX","country_name":"Mexico","latitude":"18.55833000","longitude":"-98.84694000","wikiDataId":"Q20236034"},{"id":70985,"Name":"Jaltepec","state_id":3465,"state_code":"MOR","state_name":"Morelos","country_id":142,"country_code":"MX","country_name":"Mexico","latitude":"19.72960000","longitude":"-98.63456000","wikiDataId":"Q20236036"},{"id":71003,"Name":"Jantetelco","state_id":3465,"state_code":"MOR","state_name":"Morelos","country_id":142,"country_code":"MX","country_name":"Mexico","latitude":"18.71828000","longitude":"-98.77760000","wikiDataId":"Q2652084"},{"id":71041,"Name":"Jicarero","state_id":3465,"state_code":"MOR","state_name":"Morelos","country_id":142,"country_code":"MX","country_name":"Mexico","latitude":"18.61488000","longitude":"-99.22344000","wikiDataId":"Q20149259"},{"id":71061,"Name":"Jiutepec","state_id":3465,"state_code":"MOR","state_name":"Morelos","country_id":142,"country_code":"MX","country_name":"Mexico","latitude":"18.88139000","longitude":"-99.17778000","wikiDataId":"Q984646"},{"id":71069,"Name":"Jojutla","state_id":3465,"state_code":"MOR","state_name":"Morelos","country_id":142,"country_code":"MX","country_name":"Mexico","latitude":"18.61472000","longitude":"-99.18028000","wikiDataId":"Q20236046"},{"id":71079,"Name":"Jonacatepec","state_id":3465,"state_code":"MOR","state_name":"Morelos","country_id":142,"country_code":"MX","country_name":"Mexico","latitude":"18.68081000","longitude":"-98.80336000","wikiDataId":"Q3311632"},{"id":71124,"Name":"Juan Morales","state_id":3465,"state_code":"MOR","state_name":"Morelos","country_id":142,"country_code":"MX","country_name":"Mexico","latitude":"18.81139000","longitude":"-98.92194000","wikiDataId":"Q20236053"},{"id":71139,"Name":"Jumiltepec","state_id":3465,"state_code":"MOR","state_name":"Morelos","country_id":142,"country_code":"MX","country_name":"Mexico","latitude":"18.91359000","longitude":"-98.77666000","wikiDataId":"Q20215235"},{"id":71320,"Name":"La Huanica","state_id":3465,"state_code":"MOR","state_name":"Morelos","country_id":142,"country_code":"MX","country_name":"Mexico","latitude":"19.45956000","longitude":"-99.50079000","wikiDataId":"Q20290874"},{"id":71330,"Name":"La Joya","state_id":3465,"state_code":"MOR","state_name":"Morelos","country_id":142,"country_code":"MX","country_name":"Mexico","latitude":"18.66667000","longitude":"-99.46667000","wikiDataId":"Q20264319"},{"id":71517,"Name":"La Unidad Huitzizilapan","state_id":3465,"state_code":"MOR","state_name":"Morelos","country_id":142,"country_code":"MX","country_name":"Mexico","latitude":"19.42223000","longitude":"-99.39771000","wikiDataId":"Q27769368"},{"id":71897,"Name":"Lázaro Cárdenas (El Empalme)","state_id":3465,"state_code":"MOR","state_name":"Morelos","country_id":142,"country_code":"MX","country_name":"Mexico","latitude":"18.93222000","longitude":"-99.02528000","wikiDataId":"Q20282114"},{"id":71715,"Name":"Loma Bonita","state_id":3465,"state_code":"MOR","state_name":"Morelos","country_id":142,"country_code":"MX","country_name":"Mexico","latitude":"18.93144000","longitude":"-99.17564000","wikiDataId":"Q20264371"},{"id":71743,"Name":"Lomas de Ahuatepec","state_id":3465,"state_code":"MOR","state_name":"Morelos","country_id":142,"country_code":"MX","country_name":"Mexico","latitude":"18.97139000","longitude":"-99.18972000","wikiDataId":"Q20236212"},{"id":71773,"Name":"Los Arcos","state_id":3465,"state_code":"MOR","state_name":"Morelos","country_id":142,"country_code":"MX","country_name":"Mexico","latitude":"18.88722000","longitude":"-99.02417000","wikiDataId":"Q20283636"},{"id":71987,"Name":"Marcelino Rodríguez (San Ignacio)","state_id":3465,"state_code":"MOR","state_name":"Morelos","country_id":142,"country_code":"MX","country_name":"Mexico","latitude":"18.57889000","longitude":"-98.74361000","wikiDataId":"Q20250923"},{"id":72043,"Name":"Mazatepec","state_id":3465,"state_code":"MOR","state_name":"Morelos","country_id":142,"country_code":"MX","country_name":"Mexico","latitude":"18.72795000","longitude":"-99.36339000","wikiDataId":"Q2652103"},{"id":72089,"Name":"Metepec","state_id":3465,"state_code":"MOR","state_name":"Morelos","country_id":142,"country_code":"MX","country_name":"Mexico","latitude":"18.87889000","longitude":"-98.74667000","wikiDataId":"Q20148038"},{"id":72114,"Name":"Miacatlán","state_id":3465,"state_code":"MOR","state_name":"Morelos","country_id":142,"country_code":"MX","country_name":"Mexico","latitude":"18.76203000","longitude":"-99.35944000","wikiDataId":"Q20236276"},{"id":72119,"Name":"Michapa","state_id":3465,"state_code":"MOR","state_name":"Morelos","country_id":142,"country_code":"MX","country_name":"Mexico","latitude":"18.70241000","longitude":"-99.47907000","wikiDataId":"Q2449310"},{"id":72126,"Name":"Miguel Bocanegra","state_id":3465,"state_code":"MOR","state_name":"Morelos","country_id":142,"country_code":"MX","country_name":"Mexico","latitude":"19.84574000","longitude":"-99.11193000","wikiDataId":"Q20148570"},{"id":72170,"Name":"Mixtlalcingo","state_id":3465,"state_code":"MOR","state_name":"Morelos","country_id":142,"country_code":"MX","country_name":"Mexico","latitude":"18.80333000","longitude":"-98.90028000","wikiDataId":"Q20149503"},{"id":72247,"Name":"Moyotepec","state_id":3465,"state_code":"MOR","state_name":"Morelos","country_id":142,"country_code":"MX","country_name":"Mexico","latitude":"18.72084000","longitude":"-98.99471000","wikiDataId":"Q6024852"},{"id":72287,"Name":"Narciso Mendoza","state_id":3465,"state_code":"MOR","state_name":"Morelos","country_id":142,"country_code":"MX","country_name":"Mexico","latitude":"18.87417000","longitude":"-98.96972000","wikiDataId":"Q20236291"},{"id":72312,"Name":"Nepopualco","state_id":3465,"state_code":"MOR","state_name":"Morelos","country_id":142,"country_code":"MX","country_name":"Mexico","latitude":"18.99926000","longitude":"-98.94270000","wikiDataId":"Q3947701"},{"id":72335,"Name":"Ninguno [Centro de Readaptación Social de Atlacholoaya]","state_id":3465,"state_code":"MOR","state_name":"Morelos","country_id":142,"country_code":"MX","country_name":"Mexico","latitude":"18.75778000","longitude":"-99.22944000","wikiDataId":"Q20254769"},{"id":72430,"Name":"Oacalco","state_id":3465,"state_code":"MOR","state_name":"Morelos","country_id":142,"country_code":"MX","country_name":"Mexico","latitude":"18.92342000","longitude":"-99.02935000","wikiDataId":"Q3844441"},{"id":72434,"Name":"Oaxtepec","state_id":3465,"state_code":"MOR","state_name":"Morelos","country_id":142,"country_code":"MX","country_name":"Mexico","latitude":"18.91825000","longitude":"-98.95644000","wikiDataId":"Q1018792"},{"id":72462,"Name":"Ocoxaltepec","state_id":3465,"state_code":"MOR","state_name":"Morelos","country_id":142,"country_code":"MX","country_name":"Mexico","latitude":"18.93500000","longitude":"-98.75250000","wikiDataId":"Q20236316"},{"id":72473,"Name":"Ocuituco","state_id":3465,"state_code":"MOR","state_name":"Morelos","country_id":142,"country_code":"MX","country_name":"Mexico","latitude":"18.87731000","longitude":"-98.77323000","wikiDataId":"Q2651905"},{"id":72501,"Name":"Olintepec","state_id":3465,"state_code":"MOR","state_name":"Morelos","country_id":142,"country_code":"MX","country_name":"Mexico","latitude":"18.74056000","longitude":"-98.98722000","wikiDataId":"Q20264463"},{"id":72724,"Name":"Pedro Amaro","state_id":3465,"state_code":"MOR","state_name":"Morelos","country_id":142,"country_code":"MX","country_name":"Mexico","latitude":"18.59639000","longitude":"-99.17306000","wikiDataId":"Q20236356"},{"id":72750,"Name":"Peña Flores (Palo Verde)","state_id":3465,"state_code":"MOR","state_name":"Morelos","country_id":142,"country_code":"MX","country_name":"Mexico","latitude":"18.86722000","longitude":"-98.96833000","wikiDataId":"Q20236360"},{"id":73013,"Name":"Pérez de Galeana","state_id":3465,"state_code":"MOR","state_name":"Morelos","country_id":142,"country_code":"MX","country_name":"Mexico","latitude":"19.97933000","longitude":"-99.14164000","wikiDataId":"Q20261787"},{"id":72911,"Name":"Progreso","state_id":3465,"state_code":"MOR","state_name":"Morelos","country_id":142,"country_code":"MX","country_name":"Mexico","latitude":"18.88008000","longitude":"-99.15260000","wikiDataId":"Q20264533"},{"id":72936,"Name":"Pueblo Nuevo","state_id":3465,"state_code":"MOR","state_name":"Morelos","country_id":142,"country_code":"MX","country_name":"Mexico","latitude":"18.70068000","longitude":"-99.15277000","wikiDataId":"Q20297256"},{"id":72945,"Name":"Pueblo Nuevo de Morelos","state_id":3465,"state_code":"MOR","state_name":"Morelos","country_id":142,"country_code":"MX","country_name":"Mexico","latitude":"19.76245000","longitude":"-99.05385000","wikiDataId":"Q20239645"},{"id":72956,"Name":"Puente de Ixtla","state_id":3465,"state_code":"MOR","state_name":"Morelos","country_id":142,"country_code":"MX","country_name":"Mexico","latitude":"18.61472000","longitude":"-99.31806000","wikiDataId":"Q6091388"},{"id":73005,"Name":"Puxtla","state_id":3465,"state_code":"MOR","state_name":"Morelos","country_id":142,"country_code":"MX","country_name":"Mexico","latitude":"18.81000000","longitude":"-98.98250000","wikiDataId":"Q20298013"},{"id":73016,"Name":"Quebrantadero","state_id":3465,"state_code":"MOR","state_name":"Morelos","country_id":142,"country_code":"MX","country_name":"Mexico","latitude":"18.52429000","longitude":"-98.79023000","wikiDataId":"Q20298033"},{"id":73101,"Name":"Reyes Acozac","state_id":3465,"state_code":"MOR","state_name":"Morelos","country_id":142,"country_code":"MX","country_name":"Mexico","latitude":"19.77550000","longitude":"-98.98079000","wikiDataId":"Q5980300"},{"id":73210,"Name":"Salazar","state_id":3465,"state_code":"MOR","state_name":"Morelos","country_id":142,"country_code":"MX","country_name":"Mexico","latitude":"19.30767000","longitude":"-99.38863000","wikiDataId":"Q1801321"},{"id":73276,"Name":"San Andrés Cuexcontitlán","state_id":3465,"state_code":"MOR","state_name":"Morelos","country_id":142,"country_code":"MX","country_name":"Mexico","latitude":"19.35892000","longitude":"-99.62151000","wikiDataId":"Q6959881"},{"id":73306,"Name":"San Andrés de la Cal","state_id":3465,"state_code":"MOR","state_name":"Morelos","country_id":142,"country_code":"MX","country_name":"Mexico","latitude":"18.95694000","longitude":"-99.11444000","wikiDataId":"Q4407228"},{"id":73289,"Name":"San Andrés Ocotlán","state_id":3465,"state_code":"MOR","state_name":"Morelos","country_id":142,"country_code":"MX","country_name":"Mexico","latitude":"19.19297000","longitude":"-99.58612000","wikiDataId":"Q20240027"},{"id":73329,"Name":"San Antonio Chiverías","state_id":3465,"state_code":"MOR","state_name":"Morelos","country_id":142,"country_code":"MX","country_name":"Mexico","latitude":"18.65222000","longitude":"-99.22139000","wikiDataId":"Q20264718"},{"id":73381,"Name":"San Antonio del Puente","state_id":3465,"state_code":"MOR","state_name":"Morelos","country_id":142,"country_code":"MX","country_name":"Mexico","latitude":"19.41832000","longitude":"-99.61734000","wikiDataId":"Q20134455"},{"id":73428,"Name":"San Bartolomé Tlaltelulco","state_id":3465,"state_code":"MOR","state_name":"Morelos","country_id":142,"country_code":"MX","country_name":"Mexico","latitude":"19.22738000","longitude":"-99.62964000","wikiDataId":"Q20288201"},{"id":73487,"Name":"San Diego","state_id":3465,"state_code":"MOR","state_name":"Morelos","country_id":142,"country_code":"MX","country_name":"Mexico","latitude":"19.00833000","longitude":"-99.65434000","wikiDataId":"Q20136860"},{"id":73492,"Name":"San Diego Alcalá","state_id":3465,"state_code":"MOR","state_name":"Morelos","country_id":142,"country_code":"MX","country_name":"Mexico","latitude":"19.45121000","longitude":"-99.62115000","wikiDataId":"Q20137092"},{"id":73494,"Name":"San Diego Linares","state_id":3465,"state_code":"MOR","state_name":"Morelos","country_id":142,"country_code":"MX","country_name":"Mexico","latitude":"19.38628000","longitude":"-99.63748000","wikiDataId":"Q20288618"},{"id":73525,"Name":"San Felipe Teotitlán","state_id":3465,"state_code":"MOR","state_name":"Morelos","country_id":142,"country_code":"MX","country_name":"Mexico","latitude":"19.80431000","longitude":"-98.70106000","wikiDataId":"Q1656580"},{"id":73555,"Name":"San Francisco Chimalpa","state_id":3465,"state_code":"MOR","state_name":"Morelos","country_id":142,"country_code":"MX","country_name":"Mexico","latitude":"19.44279000","longitude":"-99.34398000","wikiDataId":"Q20289127"},{"id":73599,"Name":"San Francisco Tetetla","state_id":3465,"state_code":"MOR","state_name":"Morelos","country_id":142,"country_code":"MX","country_name":"Mexico","latitude":"19.11669000","longitude":"-99.60141000","wikiDataId":"Q20138333"},{"id":73606,"Name":"San Francisco Zacacalco","state_id":3465,"state_code":"MOR","state_name":"Morelos","country_id":142,"country_code":"MX","country_name":"Mexico","latitude":"19.92875000","longitude":"-98.98279000","wikiDataId":"Q6118775"},{"id":73632,"Name":"San Gabriel las Palmas","state_id":3465,"state_code":"MOR","state_name":"Morelos","country_id":142,"country_code":"MX","country_name":"Mexico","latitude":"18.61417000","longitude":"-99.34694000","wikiDataId":"Q20138857"},{"id":73635,"Name":"San Gaspar Tlahuelilpan","state_id":3465,"state_code":"MOR","state_name":"Morelos","country_id":142,"country_code":"MX","country_name":"Mexico","latitude":"19.24290000","longitude":"-99.54568000","wikiDataId":"Q20138991"},{"id":73701,"Name":"San Jerónimo Acazulco","state_id":3465,"state_code":"MOR","state_name":"Morelos","country_id":142,"country_code":"MX","country_name":"Mexico","latitude":"19.26563000","longitude":"-99.41629000","wikiDataId":"Q7414369"},{"id":73706,"Name":"San Jerónimo Chicahualco","state_id":3465,"state_code":"MOR","state_name":"Morelos","country_id":142,"country_code":"MX","country_name":"Mexico","latitude":"19.28279000","longitude":"-99.59290000","wikiDataId":"Q20140703"},{"id":73737,"Name":"San José","state_id":3465,"state_code":"MOR","state_name":"Morelos","country_id":142,"country_code":"MX","country_name":"Mexico","latitude":"19.00777000","longitude":"-99.66345000","wikiDataId":"Q20141028"},{"id":73752,"Name":"San José Buenavista el Grande","state_id":3465,"state_code":"MOR","state_name":"Morelos","country_id":142,"country_code":"MX","country_name":"Mexico","latitude":"19.40833000","longitude":"-99.58141000","wikiDataId":"Q20141260"},{"id":73759,"Name":"San José Comalco","state_id":3465,"state_code":"MOR","state_name":"Morelos","country_id":142,"country_code":"MX","country_name":"Mexico","latitude":"19.47097000","longitude":"-99.62627000","wikiDataId":"Q2448372"},{"id":73849,"Name":"San José el Llanito","state_id":3465,"state_code":"MOR","state_name":"Morelos","country_id":142,"country_code":"MX","country_name":"Mexico","latitude":"19.30337000","longitude":"-99.47950000","wikiDataId":"Q20142413"},{"id":73734,"Name":"San Jose Solís","state_id":3465,"state_code":"MOR","state_name":"Morelos","country_id":142,"country_code":"MX","country_name":"Mexico","latitude":"19.99877000","longitude":"-100.04922000","wikiDataId":"Q20141028"},{"id":73801,"Name":"San José Vista Hermosa","state_id":3465,"state_code":"MOR","state_name":"Morelos","country_id":142,"country_code":"MX","country_name":"Mexico","latitude":"18.65443000","longitude":"-99.26622000","wikiDataId":"Q20142992"},{"id":73863,"Name":"San Juan Ahuehueyo","state_id":3465,"state_code":"MOR","state_name":"Morelos","country_id":142,"country_code":"MX","country_name":"Mexico","latitude":"18.71500000","longitude":"-98.93278000","wikiDataId":"Q20143463"},{"id":73978,"Name":"San Juan la Isla","state_id":3465,"state_code":"MOR","state_name":"Morelos","country_id":142,"country_code":"MX","country_name":"Mexico","latitude":"19.13027000","longitude":"-99.57076000","wikiDataId":"Q20235234"},{"id":73917,"Name":"San Juan Pueblo Nuevo","state_id":3465,"state_code":"MOR","state_name":"Morelos","country_id":142,"country_code":"MX","country_name":"Mexico","latitude":"19.77583000","longitude":"-99.01976000","wikiDataId":"Q3888782"},{"id":73937,"Name":"San Juan Texcalpan","state_id":3465,"state_code":"MOR","state_name":"Morelos","country_id":142,"country_code":"MX","country_name":"Mexico","latitude":"18.93583000","longitude":"-98.92889000","wikiDataId":"Q20144176"},{"id":73939,"Name":"San Juan Tilapa","state_id":3465,"state_code":"MOR","state_name":"Morelos","country_id":142,"country_code":"MX","country_name":"Mexico","latitude":"19.22021000","longitude":"-99.66012000","wikiDataId":"Q20144188"},{"id":73950,"Name":"San Juan Xochiaca","state_id":3465,"state_code":"MOR","state_name":"Morelos","country_id":142,"country_code":"MX","country_name":"Mexico","latitude":"19.01349000","longitude":"-99.53938000","wikiDataId":"Q20144243"},{"id":73955,"Name":"San Juan Yautepec","state_id":3465,"state_code":"MOR","state_name":"Morelos","country_id":142,"country_code":"MX","country_name":"Mexico","latitude":"19.34887000","longitude":"-99.34045000","wikiDataId":"Q3891002"},{"id":73957,"Name":"San Juan Zitlaltepec","state_id":3465,"state_code":"MOR","state_name":"Morelos","country_id":142,"country_code":"MX","country_name":"Mexico","latitude":"19.81207000","longitude":"-99.14526000","wikiDataId":"Q20292501"},{"id":74001,"Name":"San Lorenzo Cuauhtenco","state_id":3465,"state_code":"MOR","state_name":"Morelos","country_id":142,"country_code":"MX","country_name":"Mexico","latitude":"19.19573000","longitude":"-99.63156000","wikiDataId":"Q5095282"},{"id":74007,"Name":"San Lorenzo Nenamicoyan","state_id":3465,"state_code":"MOR","state_name":"Morelos","country_id":142,"country_code":"MX","country_name":"Mexico","latitude":"20.13699000","longitude":"-99.63877000","wikiDataId":"Q20144933"},{"id":74008,"Name":"San Lorenzo Oyamel","state_id":3465,"state_code":"MOR","state_name":"Morelos","country_id":142,"country_code":"MX","country_name":"Mexico","latitude":"19.43355000","longitude":"-99.57761000","wikiDataId":"Q20144948"},{"id":74048,"Name":"San Luis Ayucán","state_id":3465,"state_code":"MOR","state_name":"Morelos","country_id":142,"country_code":"MX","country_name":"Mexico","latitude":"19.49597000","longitude":"-99.36312000","wikiDataId":"Q20292979"},{"id":74080,"Name":"San Marcos de la Cruz","state_id":3465,"state_code":"MOR","state_name":"Morelos","country_id":142,"country_code":"MX","country_name":"Mexico","latitude":"19.18682000","longitude":"-99.65430000","wikiDataId":"Q6119293"},{"id":74118,"Name":"San Mateo Atarasquíllo","state_id":3465,"state_code":"MOR","state_name":"Morelos","country_id":142,"country_code":"MX","country_name":"Mexico","latitude":"19.32304000","longitude":"-99.46156000","wikiDataId":"Q20240217"},{"id":74131,"Name":"San Mateo Otzacatipan","state_id":3465,"state_code":"MOR","state_name":"Morelos","country_id":142,"country_code":"MX","country_name":"Mexico","latitude":"19.33273000","longitude":"-99.60345000","wikiDataId":"Q6119380"},{"id":74151,"Name":"San Miguel","state_id":3465,"state_code":"MOR","state_name":"Morelos","country_id":142,"country_code":"MX","country_name":"Mexico","latitude":"19.86852000","longitude":"-99.13448000","wikiDataId":"Q3888190"},{"id":74158,"Name":"San Miguel Almaya","state_id":3465,"state_code":"MOR","state_name":"Morelos","country_id":142,"country_code":"MX","country_name":"Mexico","latitude":"19.21047000","longitude":"-99.44195000","wikiDataId":"Q20293663"},{"id":74162,"Name":"San Miguel Ameyalco","state_id":3465,"state_code":"MOR","state_name":"Morelos","country_id":142,"country_code":"MX","country_name":"Mexico","latitude":"19.30681000","longitude":"-99.45880000","wikiDataId":"Q20146811"},{"id":74164,"Name":"San Miguel Atepoxco","state_id":3465,"state_code":"MOR","state_name":"Morelos","country_id":142,"country_code":"MX","country_name":"Mexico","latitude":"19.74498000","longitude":"-98.74038000","wikiDataId":"Q20146811"},{"id":74168,"Name":"San Miguel Balderas","state_id":3465,"state_code":"MOR","state_name":"Morelos","country_id":142,"country_code":"MX","country_name":"Mexico","latitude":"19.10943000","longitude":"-99.65165000","wikiDataId":"Q20293701"},{"id":74231,"Name":"San Miguel de La Victoria","state_id":3465,"state_code":"MOR","state_name":"Morelos","country_id":142,"country_code":"MX","country_name":"Mexico","latitude":"20.05611000","longitude":"-99.59109000","wikiDataId":"Q3311516"},{"id":74219,"Name":"San Miguel Totoltepec","state_id":3465,"state_code":"MOR","state_name":"Morelos","country_id":142,"country_code":"MX","country_name":"Mexico","latitude":"19.32402000","longitude":"-99.57779000","wikiDataId":"Q7414986"},{"id":74255,"Name":"San Nicolás Coatepec","state_id":3465,"state_code":"MOR","state_name":"Morelos","country_id":142,"country_code":"MX","country_name":"Mexico","latitude":"19.13735000","longitude":"-99.42948000","wikiDataId":"Q20147741"},{"id":74259,"Name":"San Nicolás Peralta","state_id":3465,"state_code":"MOR","state_name":"Morelos","country_id":142,"country_code":"MX","country_name":"Mexico","latitude":"19.35954000","longitude":"-99.48555000","wikiDataId":"Q20147741"},{"id":74261,"Name":"San Nicolás Solís","state_id":3465,"state_code":"MOR","state_name":"Morelos","country_id":142,"country_code":"MX","country_name":"Mexico","latitude":"19.99107000","longitude":"-100.02610000","wikiDataId":"Q20147741"},{"id":74264,"Name":"San Nicolás Tlazala","state_id":3465,"state_code":"MOR","state_name":"Morelos","country_id":142,"country_code":"MX","country_name":"Mexico","latitude":"19.22623000","longitude":"-99.46372000","wikiDataId":"Q20147816"},{"id":74285,"Name":"San Pablo Autopan","state_id":3465,"state_code":"MOR","state_name":"Morelos","country_id":142,"country_code":"MX","country_name":"Mexico","latitude":"19.35638000","longitude":"-99.65724000","wikiDataId":"Q6119502"},{"id":74312,"Name":"San Pedro Apatlaco","state_id":3465,"state_code":"MOR","state_name":"Morelos","country_id":142,"country_code":"MX","country_name":"Mexico","latitude":"18.79306000","longitude":"-98.95972000","wikiDataId":"Q20236526"},{"id":74316,"Name":"San Pedro Atlapulco","state_id":3465,"state_code":"MOR","state_name":"Morelos","country_id":142,"country_code":"MX","country_name":"Mexico","latitude":"19.24402000","longitude":"-99.39505000","wikiDataId":"Q20240274"},{"id":74325,"Name":"San Pedro Chochula","state_id":3465,"state_code":"MOR","state_name":"Morelos","country_id":142,"country_code":"MX","country_name":"Mexico","latitude":"19.26359000","longitude":"-99.48590000","wikiDataId":"Q20294607"},{"id":74339,"Name":"San Pedro Huaquilpan","state_id":3465,"state_code":"MOR","state_name":"Morelos","country_id":142,"country_code":"MX","country_name":"Mexico","latitude":"19.98840000","longitude":"-98.86777000","wikiDataId":"Q3889191"},{"id":74375,"Name":"San Pedro Techuchulco","state_id":3465,"state_code":"MOR","state_name":"Morelos","country_id":142,"country_code":"MX","country_name":"Mexico","latitude":"19.11359000","longitude":"-99.52425000","wikiDataId":"Q20148863"},{"id":74386,"Name":"San Pedro Tlaltizapan","state_id":3465,"state_code":"MOR","state_name":"Morelos","country_id":142,"country_code":"MX","country_name":"Mexico","latitude":"19.19973000","longitude":"-99.49956000","wikiDataId":"Q20240290"},{"id":74392,"Name":"San Pedro Totoltepec","state_id":3465,"state_code":"MOR","state_name":"Morelos","country_id":142,"country_code":"MX","country_name":"Mexico","latitude":"19.31108000","longitude":"-99.57197000","wikiDataId":"Q20272619"},{"id":74395,"Name":"San Pedro Tultepec","state_id":3465,"state_code":"MOR","state_name":"Morelos","country_id":142,"country_code":"MX","country_name":"Mexico","latitude":"19.26514000","longitude":"-99.50934000","wikiDataId":"Q6119571"},{"id":74397,"Name":"San Pedro Xalpa","state_id":3465,"state_code":"MOR","state_name":"Morelos","country_id":142,"country_code":"MX","country_name":"Mexico","latitude":"19.82666000","longitude":"-99.18466000","wikiDataId":"Q20264736"},{"id":74403,"Name":"San Pedro Zictepec","state_id":3465,"state_code":"MOR","state_name":"Morelos","country_id":142,"country_code":"MX","country_name":"Mexico","latitude":"19.03659000","longitude":"-99.57771000","wikiDataId":"Q20240295"},{"id":74437,"Name":"San Rafael Zaragoza","state_id":3465,"state_code":"MOR","state_name":"Morelos","country_id":142,"country_code":"MX","country_name":"Mexico","latitude":"18.64166000","longitude":"-99.00399000","wikiDataId":"Q20231874"},{"id":74454,"Name":"San Sebastián","state_id":3465,"state_code":"MOR","state_name":"Morelos","country_id":142,"country_code":"MX","country_name":"Mexico","latitude":"19.78431000","longitude":"-99.05560000","wikiDataId":"Q3049733"},{"id":74508,"Name":"San Vicente de Juárez","state_id":3465,"state_code":"MOR","state_name":"Morelos","country_id":142,"country_code":"MX","country_name":"Mexico","latitude":"18.68343000","longitude":"-98.98517000","wikiDataId":"Q20295627"},{"id":74538,"Name":"Santa Ana Jilotzingo","state_id":3465,"state_code":"MOR","state_name":"Morelos","country_id":142,"country_code":"MX","country_name":"Mexico","latitude":"19.45617000","longitude":"-99.48836000","wikiDataId":"Q20240320"},{"id":74572,"Name":"Santa Catarina","state_id":3465,"state_code":"MOR","state_name":"Morelos","country_id":142,"country_code":"MX","country_name":"Mexico","latitude":"18.96972000","longitude":"-99.14028000","wikiDataId":"Q20236530"},{"id":74619,"Name":"Santa Cruz Ayotuxco","state_id":3465,"state_code":"MOR","state_name":"Morelos","country_id":142,"country_code":"MX","country_name":"Mexico","latitude":"19.38273000","longitude":"-99.37192000","wikiDataId":"Q20264595"},{"id":74637,"Name":"Santa Cruz Pueblo Nuevo","state_id":3465,"state_code":"MOR","state_name":"Morelos","country_id":142,"country_code":"MX","country_name":"Mexico","latitude":"19.09864000","longitude":"-99.65531000","wikiDataId":"Q20224832"},{"id":74709,"Name":"Santa María Ajoloapan","state_id":3465,"state_code":"MOR","state_name":"Morelos","country_id":142,"country_code":"MX","country_name":"Mexico","latitude":"19.76360000","longitude":"-98.95908000","wikiDataId":"Q9074087"},{"id":74716,"Name":"Santa María Atarasquillo","state_id":3465,"state_code":"MOR","state_name":"Morelos","country_id":142,"country_code":"MX","country_name":"Mexico","latitude":"19.32831000","longitude":"-99.46899000","wikiDataId":"Q20297678"},{"id":74757,"Name":"Santa María Magdalena Ocotitlán","state_id":3465,"state_code":"MOR","state_name":"Morelos","country_id":142,"country_code":"MX","country_name":"Mexico","latitude":"19.23713000","longitude":"-99.62418000","wikiDataId":"Q20297777"},{"id":74698,"Name":"Santa Martha","state_id":3465,"state_code":"MOR","state_name":"Morelos","country_id":142,"country_code":"MX","country_name":"Mexico","latitude":"19.05977000","longitude":"-99.38132000","wikiDataId":"Q20297992"},{"id":74846,"Name":"Santa Rosa Treinta","state_id":3465,"state_code":"MOR","state_name":"Morelos","country_id":142,"country_code":"MX","country_name":"Mexico","latitude":"18.70025000","longitude":"-99.18357000","wikiDataId":"Q20238884"},{"id":74877,"Name":"Santiago Analco","state_id":3465,"state_code":"MOR","state_name":"Morelos","country_id":142,"country_code":"MX","country_name":"Mexico","latitude":"19.33116000","longitude":"-99.45208000","wikiDataId":"Q3889082"},{"id":74933,"Name":"Santiago Oxthoc","state_id":3465,"state_code":"MOR","state_name":"Morelos","country_id":142,"country_code":"MX","country_name":"Mexico","latitude":"20.11599000","longitude":"-99.54422000","wikiDataId":"Q7420327"},{"id":74945,"Name":"Santiago Tepatlaxco","state_id":3465,"state_code":"MOR","state_name":"Morelos","country_id":142,"country_code":"MX","country_name":"Mexico","latitude":"19.47485000","longitude":"-99.34410000","wikiDataId":"Q4967884"},{"id":74969,"Name":"Santiago Tílapa","state_id":3465,"state_code":"MOR","state_name":"Morelos","country_id":142,"country_code":"MX","country_name":"Mexico","latitude":"19.18953000","longitude":"-99.42089000","wikiDataId":"Q20240440"},{"id":74999,"Name":"Santo Domingo Aztacameca","state_id":3465,"state_code":"MOR","state_name":"Morelos","country_id":142,"country_code":"MX","country_name":"Mexico","latitude":"19.78223000","longitude":"-98.76811000","wikiDataId":"Q20232113"},{"id":75004,"Name":"Santo Domingo Ocotitlán","state_id":3465,"state_code":"MOR","state_name":"Morelos","country_id":142,"country_code":"MX","country_name":"Mexico","latitude":"19.01445000","longitude":"-99.06101000","wikiDataId":"Q20247394"},{"id":75259,"Name":"Tecajec","state_id":3465,"state_code":"MOR","state_name":"Morelos","country_id":142,"country_code":"MX","country_name":"Mexico","latitude":"18.79806000","longitude":"-98.81500000","wikiDataId":"Q20236557"},{"id":75301,"Name":"Tehuixtla","state_id":3465,"state_code":"MOR","state_name":"Morelos","country_id":142,"country_code":"MX","country_name":"Mexico","latitude":"18.55944000","longitude":"-99.27119000","wikiDataId":"Q6140262"},{"id":75319,"Name":"Telixtac","state_id":3465,"state_code":"MOR","state_name":"Morelos","country_id":142,"country_code":"MX","country_name":"Mexico","latitude":"18.56031000","longitude":"-98.77625000","wikiDataId":"Q20264792"},{"id":75336,"Name":"Temimilcingo","state_id":3465,"state_code":"MOR","state_name":"Morelos","country_id":142,"country_code":"MX","country_name":"Mexico","latitude":"18.72954000","longitude":"-99.16071000","wikiDataId":"Q20245531"},{"id":75337,"Name":"Temixco","state_id":3465,"state_code":"MOR","state_name":"Morelos","country_id":142,"country_code":"MX","country_name":"Mexico","latitude":"18.85254000","longitude":"-99.22537000","wikiDataId":"Q602729"},{"id":75338,"Name":"Temoac","state_id":3465,"state_code":"MOR","state_name":"Morelos","country_id":142,"country_code":"MX","country_name":"Mexico","latitude":"18.77222000","longitude":"-98.77750000","wikiDataId":"Q2449002"},{"id":75351,"Name":"Tenango","state_id":3465,"state_code":"MOR","state_name":"Morelos","country_id":142,"country_code":"MX","country_name":"Mexico","latitude":"18.62253000","longitude":"-98.75175000","wikiDataId":"Q3844696"},{"id":75365,"Name":"Tenextepango","state_id":3465,"state_code":"MOR","state_name":"Morelos","country_id":142,"country_code":"MX","country_name":"Mexico","latitude":"18.72889000","longitude":"-98.95778000","wikiDataId":"Q20236576"},{"id":75394,"Name":"Tepalcingo","state_id":3465,"state_code":"MOR","state_name":"Morelos","country_id":142,"country_code":"MX","country_name":"Mexico","latitude":"18.60151000","longitude":"-98.86942000","wikiDataId":"Q3310718"},{"id":75432,"Name":"Tepetzingo","state_id":3465,"state_code":"MOR","state_name":"Morelos","country_id":142,"country_code":"MX","country_name":"Mexico","latitude":"18.78537000","longitude":"-99.17758000","wikiDataId":"Q3845944"},{"id":75453,"Name":"Tepoztlán","state_id":3465,"state_code":"MOR","state_name":"Morelos","country_id":142,"country_code":"MX","country_name":"Mexico","latitude":"18.98622000","longitude":"-99.10051000","wikiDataId":"Q1020785"},{"id":75456,"Name":"Tequesquitengo","state_id":3465,"state_code":"MOR","state_name":"Morelos","country_id":142,"country_code":"MX","country_name":"Mexico","latitude":"18.61096000","longitude":"-99.26025000","wikiDataId":"Q20286904"},{"id":75474,"Name":"Tetecala","state_id":3465,"state_code":"MOR","state_name":"Morelos","country_id":142,"country_code":"MX","country_name":"Mexico","latitude":"18.73009000","longitude":"-99.40021000","wikiDataId":"Q2651761"},{"id":75475,"Name":"Tetecalita","state_id":3465,"state_code":"MOR","state_name":"Morelos","country_id":142,"country_code":"MX","country_name":"Mexico","latitude":"18.76823000","longitude":"-99.17749000","wikiDataId":"Q2651761"},{"id":75476,"Name":"Tetecolala","state_id":3465,"state_code":"MOR","state_name":"Morelos","country_id":142,"country_code":"MX","country_name":"Mexico","latitude":"18.92250000","longitude":"-99.16278000","wikiDataId":"Q20236594"},{"id":75479,"Name":"Tetela del Volcán","state_id":3465,"state_code":"MOR","state_name":"Morelos","country_id":142,"country_code":"MX","country_name":"Mexico","latitude":"18.89306000","longitude":"-98.72972000","wikiDataId":"Q2652196"},{"id":75483,"Name":"Tetelilla","state_id":3465,"state_code":"MOR","state_name":"Morelos","country_id":142,"country_code":"MX","country_name":"Mexico","latitude":"18.61349000","longitude":"-98.77356000","wikiDataId":"Q20232443"},{"id":75502,"Name":"Texcala","state_id":3465,"state_code":"MOR","state_name":"Morelos","country_id":142,"country_code":"MX","country_name":"Mexico","latitude":"18.93444000","longitude":"-98.79472000","wikiDataId":"Q20264821"},{"id":75532,"Name":"Tezoyuca","state_id":3465,"state_code":"MOR","state_name":"Morelos","country_id":142,"country_code":"MX","country_name":"Mexico","latitude":"18.80498000","longitude":"-99.20212000","wikiDataId":"Q20244269"},{"id":75538,"Name":"Tianguistongo","state_id":3465,"state_code":"MOR","state_name":"Morelos","country_id":142,"country_code":"MX","country_name":"Mexico","latitude":"20.00612000","longitude":"-99.03845000","wikiDataId":"Q20244271"},{"id":75542,"Name":"Ticumán","state_id":3465,"state_code":"MOR","state_name":"Morelos","country_id":142,"country_code":"MX","country_name":"Mexico","latitude":"18.75671000","longitude":"-99.11991000","wikiDataId":"Q1997462"},{"id":75552,"Name":"Tierra Larga (Campo Nuevo)","state_id":3465,"state_code":"MOR","state_name":"Morelos","country_id":142,"country_code":"MX","country_name":"Mexico","latitude":"18.86444000","longitude":"-98.94806000","wikiDataId":"Q20264837"},{"id":75570,"Name":"Tilzapotla","state_id":3465,"state_code":"MOR","state_name":"Morelos","country_id":142,"country_code":"MX","country_name":"Mexico","latitude":"18.48916000","longitude":"-99.27442000","wikiDataId":"Q20236615"},{"id":75598,"Name":"Tlachaloya","state_id":3465,"state_code":"MOR","state_name":"Morelos","country_id":142,"country_code":"MX","country_name":"Mexico","latitude":"19.44846000","longitude":"-99.66225000","wikiDataId":"Q2085590"},{"id":75617,"Name":"Tlacotepec","state_id":3465,"state_code":"MOR","state_name":"Morelos","country_id":142,"country_code":"MX","country_name":"Mexico","latitude":"18.81444000","longitude":"-98.74514000","wikiDataId":"Q4459026"},{"id":75626,"Name":"Tlacuitlapa","state_id":3465,"state_code":"MOR","state_name":"Morelos","country_id":142,"country_code":"MX","country_name":"Mexico","latitude":"19.12209000","longitude":"-99.41534000","wikiDataId":"Q6147689"},{"id":75646,"Name":"Tlalnepantla","state_id":3465,"state_code":"MOR","state_name":"Morelos","country_id":142,"country_code":"MX","country_name":"Mexico","latitude":"19.00885000","longitude":"-98.99613000","wikiDataId":"Q2035515"},{"id":75655,"Name":"Tlaltenanguito","state_id":3465,"state_code":"MOR","state_name":"Morelos","country_id":142,"country_code":"MX","country_name":"Mexico","latitude":"19.49822000","longitude":"-99.58309000","wikiDataId":"Q20222576"},{"id":75658,"Name":"Tlaltetelco (San Miguel Tlaltetelco)","state_id":3465,"state_code":"MOR","state_name":"Morelos","country_id":142,"country_code":"MX","country_name":"Mexico","latitude":"18.95222000","longitude":"-98.88806000","wikiDataId":"Q20236636"},{"id":75659,"Name":"Tlaltizapán","state_id":3465,"state_code":"MOR","state_name":"Morelos","country_id":142,"country_code":"MX","country_name":"Mexico","latitude":"18.68630000","longitude":"-99.11868000","wikiDataId":"Q2651781"},{"id":75679,"Name":"Tlapanaloya","state_id":3465,"state_code":"MOR","state_name":"Morelos","country_id":142,"country_code":"MX","country_name":"Mexico","latitude":"19.93619000","longitude":"-99.09664000","wikiDataId":"Q1788179"},{"id":75682,"Name":"Tlaquiltenango","state_id":3465,"state_code":"MOR","state_name":"Morelos","country_id":142,"country_code":"MX","country_name":"Mexico","latitude":"18.63429000","longitude":"-99.16320000","wikiDataId":"Q2652063"},{"id":75686,"Name":"Tlatenchi","state_id":3465,"state_code":"MOR","state_name":"Morelos","country_id":142,"country_code":"MX","country_name":"Mexico","latitude":"18.59639000","longitude":"-99.18639000","wikiDataId":"Q6147709"},{"id":75705,"Name":"Tlayacapan","state_id":3465,"state_code":"MOR","state_name":"Morelos","country_id":142,"country_code":"MX","country_name":"Mexico","latitude":"18.95556000","longitude":"-98.98111000","wikiDataId":"Q2604992"},{"id":75752,"Name":"Totolapan","state_id":3465,"state_code":"MOR","state_name":"Morelos","country_id":142,"country_code":"MX","country_name":"Mexico","latitude":"18.98487000","longitude":"-98.92073000","wikiDataId":"Q20236646"},{"id":75780,"Name":"Tres de Mayo","state_id":3465,"state_code":"MOR","state_name":"Morelos","country_id":142,"country_code":"MX","country_name":"Mexico","latitude":"18.86861000","longitude":"-99.20833000","wikiDataId":"Q20289956"},{"id":75774,"Name":"Tres Marías","state_id":3465,"state_code":"MOR","state_name":"Morelos","country_id":142,"country_code":"MX","country_name":"Mexico","latitude":"19.05490000","longitude":"-99.24301000","wikiDataId":"Q20264879"},{"id":75870,"Name":"Unidad Habitacional 10 de Abril","state_id":3465,"state_code":"MOR","state_name":"Morelos","country_id":142,"country_code":"MX","country_name":"Mexico","latitude":"18.75444000","longitude":"-98.91611000","wikiDataId":"Q20264885"},{"id":75872,"Name":"Unidad Habitacional José María Morelos y Pavón","state_id":3465,"state_code":"MOR","state_name":"Morelos","country_id":142,"country_code":"MX","country_name":"Mexico","latitude":"18.82028000","longitude":"-99.26222000","wikiDataId":"Q20264895"},{"id":75873,"Name":"Unidad Habitacional Mariano Matamoros","state_id":3465,"state_code":"MOR","state_name":"Morelos","country_id":142,"country_code":"MX","country_name":"Mexico","latitude":"18.74750000","longitude":"-98.85222000","wikiDataId":"Q20264904"},{"id":75874,"Name":"Unidad Habitacional Rinconada Acolapa","state_id":3465,"state_code":"MOR","state_name":"Morelos","country_id":142,"country_code":"MX","country_name":"Mexico","latitude":"18.89722000","longitude":"-99.13139000","wikiDataId":"Q20264909"},{"id":75926,"Name":"Valle de Vázquez","state_id":3465,"state_code":"MOR","state_name":"Morelos","country_id":142,"country_code":"MX","country_name":"Mexico","latitude":"18.52858000","longitude":"-99.06943000","wikiDataId":"Q20235450"},{"id":76043,"Name":"Villa Santiago","state_id":3465,"state_code":"MOR","state_name":"Morelos","country_id":142,"country_code":"MX","country_name":"Mexico","latitude":"18.97972000","longitude":"-99.18528000","wikiDataId":"Q20236688"},{"id":76119,"Name":"Xalostoc","state_id":3465,"state_code":"MOR","state_name":"Morelos","country_id":142,"country_code":"MX","country_name":"Mexico","latitude":"18.72251000","longitude":"-98.89877000","wikiDataId":"Q20210377"},{"id":76159,"Name":"Xochicalco (Cirenio Longares)","state_id":3465,"state_code":"MOR","state_name":"Morelos","country_id":142,"country_code":"MX","country_name":"Mexico","latitude":"18.78722000","longitude":"-99.29944000","wikiDataId":"Q20236701"},{"id":76172,"Name":"Xochitepec","state_id":3465,"state_code":"MOR","state_name":"Morelos","country_id":142,"country_code":"MX","country_name":"Mexico","latitude":"18.78080000","longitude":"-99.23049000","wikiDataId":"Q2301283"},{"id":76177,"Name":"Xochitlán","state_id":3465,"state_code":"MOR","state_name":"Morelos","country_id":142,"country_code":"MX","country_name":"Mexico","latitude":"18.88865000","longitude":"-98.81209000","wikiDataId":"Q20232864"},{"id":76201,"Name":"Xoxocotla","state_id":3465,"state_code":"MOR","state_name":"Morelos","country_id":142,"country_code":"MX","country_name":"Mexico","latitude":"18.68415000","longitude":"-99.24577000","wikiDataId":"Q6169338"},{"id":76221,"Name":"Yautepec","state_id":3465,"state_code":"MOR","state_name":"Morelos","country_id":142,"country_code":"MX","country_name":"Mexico","latitude":"18.88188000","longitude":"-99.06715000","wikiDataId":"Q20264964"},{"id":76228,"Name":"Yecapixteca","state_id":3465,"state_code":"MOR","state_name":"Morelos","country_id":142,"country_code":"MX","country_name":"Mexico","latitude":"18.88230000","longitude":"-98.90272000","wikiDataId":"Q6169864"},{"id":76229,"Name":"Yecapixtla","state_id":3465,"state_code":"MOR","state_name":"Morelos","country_id":142,"country_code":"MX","country_name":"Mexico","latitude":"18.88333000","longitude":"-98.86500000","wikiDataId":"Q20264967"},{"id":76263,"Name":"Zacapalco","state_id":3465,"state_code":"MOR","state_name":"Morelos","country_id":142,"country_code":"MX","country_name":"Mexico","latitude":"18.63917000","longitude":"-98.95944000","wikiDataId":"Q20264977"},{"id":76274,"Name":"Zacatepec","state_id":3465,"state_code":"MOR","state_name":"Morelos","country_id":142,"country_code":"MX","country_name":"Mexico","latitude":"18.65409000","longitude":"-99.18981000","wikiDataId":"Q139255"},{"id":76288,"Name":"Zacualpan de Amilpas","state_id":3465,"state_code":"MOR","state_name":"Morelos","country_id":142,"country_code":"MX","country_name":"Mexico","latitude":"18.78389000","longitude":"-98.76583000","wikiDataId":"Q20236724"},{"id":76322,"Name":"Zaragoza de Guadalupe","state_id":3465,"state_code":"MOR","state_name":"Morelos","country_id":142,"country_code":"MX","country_name":"Mexico","latitude":"19.14830000","longitude":"-99.64405000","wikiDataId":"Q20240748"}]