[{"id":131402,"Name":"Beitbridge","state_id":1952,"state_code":"MS","state_name":"Matabeleland South Province","country_id":247,"country_code":"ZW","country_name":"Zimbabwe","latitude":"-22.21667000","longitude":"30.00000000","wikiDataId":"Q814922"},{"id":131403,"Name":"Beitbridge District","state_id":1952,"state_code":"MS","state_name":"Matabeleland South Province","country_id":247,"country_code":"ZW","country_name":"Zimbabwe","latitude":"-21.89829000","longitude":"30.07409000","wikiDataId":"Q4881482"},{"id":131432,"Name":"Esigodini","state_id":1952,"state_code":"MS","state_name":"Matabeleland South Province","country_id":247,"country_code":"ZW","country_name":"Zimbabwe","latitude":"-20.28979000","longitude":"28.92261000","wikiDataId":"Q1367662"},{"id":131433,"Name":"Filabusi","state_id":1952,"state_code":"MS","state_name":"Matabeleland South Province","country_id":247,"country_code":"ZW","country_name":"Zimbabwe","latitude":"-20.53333000","longitude":"29.28502000","wikiDataId":"Q5448263"},{"id":131439,"Name":"Gwanda","state_id":1952,"state_code":"MS","state_name":"Matabeleland South Province","country_id":247,"country_code":"ZW","country_name":"Zimbabwe","latitude":"-20.93622000","longitude":"29.00698000","wikiDataId":"Q1557796"},{"id":131440,"Name":"Gwanda District","state_id":1952,"state_code":"MS","state_name":"Matabeleland South Province","country_id":247,"country_code":"ZW","country_name":"Zimbabwe","latitude":"-21.20929000","longitude":"29.17557000","wikiDataId":"Q5623288"},{"id":131448,"Name":"Insiza","state_id":1952,"state_code":"MS","state_name":"Matabeleland South Province","country_id":247,"country_code":"ZW","country_name":"Zimbabwe","latitude":"-19.78333000","longitude":"29.20000000","wikiDataId":"Q31923095"},{"id":131449,"Name":"Insiza District","state_id":1952,"state_code":"MS","state_name":"Matabeleland South Province","country_id":247,"country_code":"ZW","country_name":"Zimbabwe","latitude":"-20.26431000","longitude":"29.47392000","wikiDataId":"Q6038184"},{"id":131465,"Name":"Mangwe District","state_id":1952,"state_code":"MS","state_name":"Matabeleland South Province","country_id":247,"country_code":"ZW","country_name":"Zimbabwe","latitude":"-20.95545000","longitude":"27.98292000","wikiDataId":"Q4996407"},{"id":131471,"Name":"Matobo","state_id":1952,"state_code":"MS","state_name":"Matabeleland South Province","country_id":247,"country_code":"ZW","country_name":"Zimbabwe","latitude":"-20.95545000","longitude":"28.49463000","wikiDataId":"Q31952019"},{"id":131494,"Name":"Plumtree","state_id":1952,"state_code":"MS","state_name":"Matabeleland South Province","country_id":247,"country_code":"ZW","country_name":"Zimbabwe","latitude":"-20.48333000","longitude":"27.81667000","wikiDataId":"Q1974068"},{"id":131505,"Name":"Umzingwane District","state_id":1952,"state_code":"MS","state_name":"Matabeleland South Province","country_id":247,"country_code":"ZW","country_name":"Zimbabwe","latitude":"-20.34704000","longitude":"28.94994000","wikiDataId":"Q32037668"}]