[{"id":65569,"Name":"Abu Al Hasaniya","state_id":974,"state_code":"MU","state_name":"Mubarak Al-Kabeer Governorate","country_id":117,"country_code":"KW","country_name":"Kuwait","latitude":"29.19076000","longitude":"48.11355000","wikiDataId":"Q50431"},{"id":65570,"Name":"Abu Fatira","state_id":974,"state_code":"MU","state_name":"Mubarak Al-Kabeer Governorate","country_id":117,"country_code":"KW","country_name":"Kuwait","latitude":"29.19746000","longitude":"48.10278000","wikiDataId":"Q50431"},{"id":65576,"Name":"Al Funayţīs","state_id":974,"state_code":"MU","state_name":"Mubarak Al-Kabeer Governorate","country_id":117,"country_code":"KW","country_name":"Kuwait","latitude":"29.22528000","longitude":"48.10167000","wikiDataId":"Q980396"},{"id":65581,"Name":"Al-Masayel","state_id":974,"state_code":"MU","state_name":"Mubarak Al-Kabeer Governorate","country_id":117,"country_code":"KW","country_name":"Kuwait","latitude":"29.23930000","longitude":"48.08862000","wikiDataId":"Q27347097"},{"id":65592,"Name":"Şabāḩ as Sālim","state_id":974,"state_code":"MU","state_name":"Mubarak Al-Kabeer Governorate","country_id":117,"country_code":"KW","country_name":"Kuwait","latitude":"29.25722000","longitude":"48.05722000","wikiDataId":"Q1179881"}]