[{"id":52220,"Name":"Bambali","state_id":2671,"state_code":"N","state_name":"North Bank Division","country_id":80,"country_code":"GM","country_name":"Gambia The","latitude":"13.48333000","longitude":"-15.33333000","wikiDataId":"Q805926"},{"id":52224,"Name":"Barra","state_id":2671,"state_code":"N","state_name":"North Bank Division","country_id":80,"country_code":"GM","country_name":"Gambia The","latitude":"13.48278000","longitude":"-16.54556000","wikiDataId":"Q450062"},{"id":52230,"Name":"Central Baddibu","state_id":2671,"state_code":"N","state_name":"North Bank Division","country_id":80,"country_code":"GM","country_name":"Gambia The","latitude":"13.53333000","longitude":"-15.91667000","wikiDataId":"Q1053702"},{"id":52231,"Name":"Chilla","state_id":2671,"state_code":"N","state_name":"North Bank Division","country_id":80,"country_code":"GM","country_name":"Gambia The","latitude":"13.55000000","longitude":"-16.28333000","wikiDataId":"Q1053702"},{"id":52234,"Name":"Daru Rilwan","state_id":2671,"state_code":"N","state_name":"North Bank Division","country_id":80,"country_code":"GM","country_name":"Gambia The","latitude":"13.55000000","longitude":"-15.98333000","wikiDataId":"Q1164277"},{"id":52239,"Name":"Essau","state_id":2671,"state_code":"N","state_name":"North Bank Division","country_id":80,"country_code":"GM","country_name":"Gambia The","latitude":"13.48389000","longitude":"-16.53472000","wikiDataId":"Q1368528"},{"id":52240,"Name":"Farafenni","state_id":2671,"state_code":"N","state_name":"North Bank Division","country_id":80,"country_code":"GM","country_name":"Gambia The","latitude":"13.56667000","longitude":"-15.60000000","wikiDataId":"Q1200999"},{"id":52250,"Name":"Gunjur","state_id":2671,"state_code":"N","state_name":"North Bank Division","country_id":80,"country_code":"GM","country_name":"Gambia The","latitude":"13.52278000","longitude":"-16.02778000","wikiDataId":"Q1554693"},{"id":52261,"Name":"Jokadu","state_id":2671,"state_code":"N","state_name":"North Bank Division","country_id":80,"country_code":"GM","country_name":"Gambia The","latitude":"13.53333000","longitude":"-16.18333000","wikiDataId":"Q1572430"},{"id":52267,"Name":"Katchang","state_id":2671,"state_code":"N","state_name":"North Bank Division","country_id":80,"country_code":"GM","country_name":"Gambia The","latitude":"13.50000000","longitude":"-15.75000000","wikiDataId":"Q1735666"},{"id":52269,"Name":"Kerewan","state_id":2671,"state_code":"N","state_name":"North Bank Division","country_id":80,"country_code":"GM","country_name":"Gambia The","latitude":"13.48980000","longitude":"-16.08879000","wikiDataId":"Q1478583"},{"id":52282,"Name":"Lamin","state_id":2671,"state_code":"N","state_name":"North Bank Division","country_id":80,"country_code":"GM","country_name":"Gambia The","latitude":"13.35222000","longitude":"-16.43389000","wikiDataId":"Q1319580"},{"id":52283,"Name":"Lower Baddibu District","state_id":2671,"state_code":"N","state_name":"North Bank Division","country_id":80,"country_code":"GM","country_name":"Gambia The","latitude":"13.50000000","longitude":"-16.05000000","wikiDataId":"Q1572733"},{"id":52284,"Name":"Lower Niumi District","state_id":2671,"state_code":"N","state_name":"North Bank Division","country_id":80,"country_code":"GM","country_name":"Gambia The","latitude":"13.53333000","longitude":"-16.41667000","wikiDataId":"Q915733"},{"id":52292,"Name":"No Kunda","state_id":2671,"state_code":"N","state_name":"North Bank Division","country_id":80,"country_code":"GM","country_name":"Gambia The","latitude":"13.56667000","longitude":"-15.83333000","wikiDataId":"Q1994522"},{"id":52296,"Name":"Saba","state_id":2671,"state_code":"N","state_name":"North Bank Division","country_id":80,"country_code":"GM","country_name":"Gambia The","latitude":"13.51639000","longitude":"-16.04917000","wikiDataId":"Q2209357"},{"id":52302,"Name":"Sara Kunda","state_id":2671,"state_code":"N","state_name":"North Bank Division","country_id":80,"country_code":"GM","country_name":"Gambia The","latitude":"13.53333000","longitude":"-15.41667000","wikiDataId":"Q2222431"},{"id":52315,"Name":"Upper Baddibu","state_id":2671,"state_code":"N","state_name":"North Bank Division","country_id":80,"country_code":"GM","country_name":"Gambia The","latitude":"13.55000000","longitude":"-15.66667000","wikiDataId":"Q657796"},{"id":52316,"Name":"Upper Niumi District","state_id":2671,"state_code":"N","state_name":"North Bank Division","country_id":80,"country_code":"GM","country_name":"Gambia The","latitude":"13.40000000","longitude":"-16.33333000","wikiDataId":"Q1572223"}]