[{"id":31920,"Name":"Abáigar","state_id":1204,"state_code":"NC","state_name":"Navarra","country_id":207,"country_code":"ES","country_name":"Spain","latitude":"42.64823000","longitude":"-2.14182000","wikiDataId":"Q1634871"},{"id":31933,"Name":"Adiós","state_id":1204,"state_code":"NC","state_name":"Navarra","country_id":207,"country_code":"ES","country_name":"Spain","latitude":"42.68635000","longitude":"-1.73532000","wikiDataId":"Q355767"},{"id":31962,"Name":"Aguilar de Codés","state_id":1204,"state_code":"NC","state_name":"Navarra","country_id":207,"country_code":"ES","country_name":"Spain","latitude":"42.61249000","longitude":"-2.38987000","wikiDataId":"Q1635769"},{"id":32256,"Name":"Allo","state_id":1204,"state_code":"NC","state_name":"Navarra","country_id":207,"country_code":"ES","country_name":"Spain","latitude":"42.56738000","longitude":"-2.02052000","wikiDataId":"Q1635672"},{"id":32341,"Name":"Altsasu","state_id":1204,"state_code":"NC","state_name":"Navarra","country_id":207,"country_code":"ES","country_name":"Spain","latitude":"42.89999000","longitude":"-2.16516000","wikiDataId":"Q1635681"},{"id":32370,"Name":"Ancín","state_id":1204,"state_code":"NC","state_name":"Navarra","country_id":207,"country_code":"ES","country_name":"Spain","latitude":"42.66047000","longitude":"-2.18885000","wikiDataId":"Q1645748"},{"id":32374,"Name":"Andosilla","state_id":1204,"state_code":"NC","state_name":"Navarra","country_id":207,"country_code":"ES","country_name":"Spain","latitude":"42.38144000","longitude":"-1.67305000","wikiDataId":"Q425775"},{"id":32597,"Name":"Añorbe","state_id":1204,"state_code":"NC","state_name":"Navarra","country_id":207,"country_code":"ES","country_name":"Spain","latitude":"42.65732000","longitude":"-1.71490000","wikiDataId":"Q1763701"},{"id":32397,"Name":"Aoiz","state_id":1204,"state_code":"NC","state_name":"Navarra","country_id":207,"country_code":"ES","country_name":"Spain","latitude":"42.78633000","longitude":"-1.37252000","wikiDataId":"Q1625886"},{"id":32405,"Name":"Aranarache","state_id":1204,"state_code":"NC","state_name":"Navarra","country_id":207,"country_code":"ES","country_name":"Spain","latitude":"42.77979000","longitude":"-2.22924000","wikiDataId":"Q1645785"},{"id":32413,"Name":"Arano","state_id":1204,"state_code":"NC","state_name":"Navarra","country_id":207,"country_code":"ES","country_name":"Spain","latitude":"43.19956000","longitude":"-1.89569000","wikiDataId":"Q768954"},{"id":32416,"Name":"Aras","state_id":1204,"state_code":"NC","state_name":"Navarra","country_id":207,"country_code":"ES","country_name":"Spain","latitude":"42.56172000","longitude":"-2.35600000","wikiDataId":"Q1645807"},{"id":32424,"Name":"Arbizu","state_id":1204,"state_code":"NC","state_name":"Navarra","country_id":207,"country_code":"ES","country_name":"Spain","latitude":"42.91545000","longitude":"-2.03917000","wikiDataId":"Q1645754"},{"id":32443,"Name":"Arellano","state_id":1204,"state_code":"NC","state_name":"Navarra","country_id":207,"country_code":"ES","country_name":"Spain","latitude":"42.60598000","longitude":"-2.04653000","wikiDataId":"Q608818"},{"id":32457,"Name":"Areso","state_id":1204,"state_code":"NC","state_name":"Navarra","country_id":207,"country_code":"ES","country_name":"Spain","latitude":"43.08209000","longitude":"-1.95198000","wikiDataId":"Q1645791"},{"id":32473,"Name":"Arguedas","state_id":1204,"state_code":"NC","state_name":"Navarra","country_id":207,"country_code":"ES","country_name":"Spain","latitude":"42.17759000","longitude":"-1.59719000","wikiDataId":"Q1763705"},{"id":32477,"Name":"Aria","state_id":1204,"state_code":"NC","state_name":"Navarra","country_id":207,"country_code":"ES","country_name":"Spain","latitude":"42.95283000","longitude":"-1.26584000","wikiDataId":"Q1985331"},{"id":32486,"Name":"Armañanzas","state_id":1204,"state_code":"NC","state_name":"Navarra","country_id":207,"country_code":"ES","country_name":"Spain","latitude":"42.55963000","longitude":"-2.28476000","wikiDataId":"Q614400"},{"id":32517,"Name":"Arróniz","state_id":1204,"state_code":"NC","state_name":"Navarra","country_id":207,"country_code":"ES","country_name":"Spain","latitude":"42.58823000","longitude":"-2.09237000","wikiDataId":"Q1645816"},{"id":32516,"Name":"Arruazu","state_id":1204,"state_code":"NC","state_name":"Navarra","country_id":207,"country_code":"ES","country_name":"Spain","latitude":"42.92186000","longitude":"-2.00157000","wikiDataId":"Q1645811"},{"id":32519,"Name":"Artajona","state_id":1204,"state_code":"NC","state_name":"Navarra","country_id":207,"country_code":"ES","country_name":"Spain","latitude":"42.58867000","longitude":"-1.76504000","wikiDataId":"Q1645743"},{"id":32521,"Name":"Artazu","state_id":1204,"state_code":"NC","state_name":"Navarra","country_id":207,"country_code":"ES","country_name":"Spain","latitude":"42.69228000","longitude":"-1.83954000","wikiDataId":"Q1763735"},{"id":32551,"Name":"Atarrabia","state_id":1204,"state_code":"NC","state_name":"Navarra","country_id":207,"country_code":"ES","country_name":"Spain","latitude":"42.83230000","longitude":"-1.60735000","wikiDataId":"Q600671"},{"id":32572,"Name":"Ayegui","state_id":1204,"state_code":"NC","state_name":"Navarra","country_id":207,"country_code":"ES","country_name":"Spain","latitude":"42.65656000","longitude":"-2.03934000","wikiDataId":"Q792921"},{"id":32580,"Name":"Azagra","state_id":1204,"state_code":"NC","state_name":"Navarra","country_id":207,"country_code":"ES","country_name":"Spain","latitude":"42.30000000","longitude":"-1.90000000","wikiDataId":"Q1757486"},{"id":32590,"Name":"Azuelo","state_id":1204,"state_code":"NC","state_name":"Navarra","country_id":207,"country_code":"ES","country_name":"Spain","latitude":"42.60844000","longitude":"-2.34987000","wikiDataId":"Q1645770"},{"id":32617,"Name":"Bakaiku","state_id":1204,"state_code":"NC","state_name":"Navarra","country_id":207,"country_code":"ES","country_name":"Spain","latitude":"42.89244000","longitude":"-2.10251000","wikiDataId":"Q1754154"},{"id":32640,"Name":"Barañáin","state_id":1204,"state_code":"NC","state_name":"Navarra","country_id":207,"country_code":"ES","country_name":"Spain","latitude":"42.80567000","longitude":"-1.67731000","wikiDataId":"Q768691"},{"id":32685,"Name":"Barásoain","state_id":1204,"state_code":"NC","state_name":"Navarra","country_id":207,"country_code":"ES","country_name":"Spain","latitude":"42.60339000","longitude":"-1.64658000","wikiDataId":"Q1776891"},{"id":32663,"Name":"Bargota","state_id":1204,"state_code":"NC","state_name":"Navarra","country_id":207,"country_code":"ES","country_name":"Spain","latitude":"42.55982000","longitude":"-2.31067000","wikiDataId":"Q24012496"},{"id":32664,"Name":"Barillas","state_id":1204,"state_code":"NC","state_name":"Navarra","country_id":207,"country_code":"ES","country_name":"Spain","latitude":"41.96667000","longitude":"-1.63333000","wikiDataId":"Q1645760"},{"id":32731,"Name":"Beire","state_id":1204,"state_code":"NC","state_name":"Navarra","country_id":207,"country_code":"ES","country_name":"Spain","latitude":"42.45415000","longitude":"-1.62101000","wikiDataId":"Q814864"},{"id":32735,"Name":"Belascoáin","state_id":1204,"state_code":"NC","state_name":"Navarra","country_id":207,"country_code":"ES","country_name":"Spain","latitude":"42.75619000","longitude":"-1.83227000","wikiDataId":"Q1645846"},{"id":32830,"Name":"Bera","state_id":1204,"state_code":"NC","state_name":"Navarra","country_id":207,"country_code":"ES","country_name":"Spain","latitude":"43.28177000","longitude":"-1.68632000","wikiDataId":"Q818675"},{"id":32836,"Name":"Berbinzana","state_id":1204,"state_code":"NC","state_name":"Navarra","country_id":207,"country_code":"ES","country_name":"Spain","latitude":"42.52779000","longitude":"-1.83419000","wikiDataId":"Q1645757"},{"id":32852,"Name":"Beriáin","state_id":1204,"state_code":"NC","state_name":"Navarra","country_id":207,"country_code":"ES","country_name":"Spain","latitude":"42.73347000","longitude":"-1.64448000","wikiDataId":"Q820748"},{"id":32864,"Name":"Berriobeiti","state_id":1204,"state_code":"NC","state_name":"Navarra","country_id":207,"country_code":"ES","country_name":"Spain","latitude":"42.85000000","longitude":"-1.70000000","wikiDataId":"Q1228064"},{"id":32865,"Name":"Berriozar","state_id":1204,"state_code":"NC","state_name":"Navarra","country_id":207,"country_code":"ES","country_name":"Spain","latitude":"42.83067000","longitude":"-1.66648000","wikiDataId":"Q1645776"},{"id":32880,"Name":"Betelu","state_id":1204,"state_code":"NC","state_name":"Navarra","country_id":207,"country_code":"ES","country_name":"Spain","latitude":"43.02555000","longitude":"-1.98029000","wikiDataId":"Q610479"},{"id":33046,"Name":"Buñuel","state_id":1204,"state_code":"NC","state_name":"Navarra","country_id":207,"country_code":"ES","country_name":"Spain","latitude":"41.98009000","longitude":"-1.44503000","wikiDataId":"Q327740"},{"id":33031,"Name":"Burlata","state_id":1204,"state_code":"NC","state_name":"Navarra","country_id":207,"country_code":"ES","country_name":"Spain","latitude":"42.82562000","longitude":"-1.61671000","wikiDataId":"Q732730"},{"id":33101,"Name":"Cabredo","state_id":1204,"state_code":"NC","state_name":"Navarra","country_id":207,"country_code":"ES","country_name":"Spain","latitude":"42.62966000","longitude":"-2.41133000","wikiDataId":"Q1637015"},{"id":33118,"Name":"Cadreita","state_id":1204,"state_code":"NC","state_name":"Navarra","country_id":207,"country_code":"ES","country_name":"Spain","latitude":"42.21667000","longitude":"-1.68333000","wikiDataId":"Q1648483"},{"id":33263,"Name":"Caparroso","state_id":1204,"state_code":"NC","state_name":"Navarra","country_id":207,"country_code":"ES","country_name":"Spain","latitude":"42.34129000","longitude":"-1.64962000","wikiDataId":"Q1641846"},{"id":33895,"Name":"Cárcar","state_id":1204,"state_code":"NC","state_name":"Navarra","country_id":207,"country_code":"ES","country_name":"Spain","latitude":"42.39314000","longitude":"-1.97904000","wikiDataId":"Q1648466"},{"id":33292,"Name":"Carcastillo","state_id":1204,"state_code":"NC","state_name":"Navarra","country_id":207,"country_code":"ES","country_name":"Spain","latitude":"42.37908000","longitude":"-1.44376000","wikiDataId":"Q1648542"},{"id":33386,"Name":"Cascante","state_id":1204,"state_code":"NC","state_name":"Navarra","country_id":207,"country_code":"ES","country_name":"Spain","latitude":"41.99769000","longitude":"-1.68098000","wikiDataId":"Q986089"},{"id":33899,"Name":"Cáseda","state_id":1204,"state_code":"NC","state_name":"Navarra","country_id":207,"country_code":"ES","country_name":"Spain","latitude":"42.52255000","longitude":"-1.36636000","wikiDataId":"Q1648512"},{"id":33399,"Name":"Castejón","state_id":1204,"state_code":"NC","state_name":"Navarra","country_id":207,"country_code":"ES","country_name":"Spain","latitude":"42.16912000","longitude":"-1.68951000","wikiDataId":"Q1648461"},{"id":33467,"Name":"Castillonuevo","state_id":1204,"state_code":"NC","state_name":"Navarra","country_id":207,"country_code":"ES","country_name":"Spain","latitude":"42.68270000","longitude":"-1.03121000","wikiDataId":"Q1636245"},{"id":33679,"Name":"Cintruénigo","state_id":1204,"state_code":"NC","state_name":"Navarra","country_id":207,"country_code":"ES","country_name":"Spain","latitude":"42.07937000","longitude":"-1.80458000","wikiDataId":"Q1637322"},{"id":33682,"Name":"Cirauqui","state_id":1204,"state_code":"NC","state_name":"Navarra","country_id":207,"country_code":"ES","country_name":"Spain","latitude":"42.67596000","longitude":"-1.89115000","wikiDataId":"Q206308"},{"id":33684,"Name":"Ciriza","state_id":1204,"state_code":"NC","state_name":"Navarra","country_id":207,"country_code":"ES","country_name":"Spain","latitude":"42.79019000","longitude":"-1.82822000","wikiDataId":"Q1641813"},{"id":33703,"Name":"Cizur Mayor","state_id":1204,"state_code":"NC","state_name":"Navarra","country_id":207,"country_code":"ES","country_name":"Spain","latitude":"42.78795000","longitude":"-1.69065000","wikiDataId":"Q1769563"},{"id":33785,"Name":"Corella","state_id":1204,"state_code":"NC","state_name":"Navarra","country_id":207,"country_code":"ES","country_name":"Spain","latitude":"42.11507000","longitude":"-1.78563000","wikiDataId":"Q550407"},{"id":33929,"Name":"Desojo","state_id":1204,"state_code":"NC","state_name":"Navarra","country_id":207,"country_code":"ES","country_name":"Spain","latitude":"42.58790000","longitude":"-2.27438000","wikiDataId":"Q546937"},{"id":33933,"Name":"Dicastillo","state_id":1204,"state_code":"NC","state_name":"Navarra","country_id":207,"country_code":"ES","country_name":"Spain","latitude":"42.59647000","longitude":"-2.02666000","wikiDataId":"Q1627528"},{"id":33943,"Name":"Doneztebe","state_id":1204,"state_code":"NC","state_name":"Navarra","country_id":207,"country_code":"ES","country_name":"Spain","latitude":"43.13333000","longitude":"-1.66667000","wikiDataId":"Q1647359"},{"id":33969,"Name":"Echarri","state_id":1204,"state_code":"NC","state_name":"Navarra","country_id":207,"country_code":"ES","country_name":"Spain","latitude":"42.78017000","longitude":"-1.82525000","wikiDataId":"Q943700"},{"id":33970,"Name":"Echarri-Aranaz","state_id":1204,"state_code":"NC","state_name":"Navarra","country_id":207,"country_code":"ES","country_name":"Spain","latitude":"42.90791000","longitude":"-2.06474000","wikiDataId":"Q1648046"},{"id":34036,"Name":"Elgorriaga","state_id":1204,"state_code":"NC","state_name":"Navarra","country_id":207,"country_code":"ES","country_name":"Spain","latitude":"43.13858000","longitude":"-1.68657000","wikiDataId":"Q1641834"},{"id":34039,"Name":"Elorz","state_id":1204,"state_code":"NC","state_name":"Navarra","country_id":207,"country_code":"ES","country_name":"Spain","latitude":"42.73258000","longitude":"-1.56152000","wikiDataId":"Q1242382"},{"id":34065,"Name":"Enériz","state_id":1204,"state_code":"NC","state_name":"Navarra","country_id":207,"country_code":"ES","country_name":"Spain","latitude":"42.67095000","longitude":"-1.72794000","wikiDataId":"Q24012463"},{"id":34068,"Name":"Ermitagaña","state_id":1204,"state_code":"NC","state_name":"Navarra","country_id":207,"country_code":"ES","country_name":"Spain","latitude":"42.81084000","longitude":"-1.66409000","wikiDataId":"Q2899165"},{"id":34099,"Name":"Eslava","state_id":1204,"state_code":"NC","state_name":"Navarra","country_id":207,"country_code":"ES","country_name":"Spain","latitude":"42.56459000","longitude":"-1.45947000","wikiDataId":"Q1641801"},{"id":34133,"Name":"Espronceda","state_id":1204,"state_code":"NC","state_name":"Navarra","country_id":207,"country_code":"ES","country_name":"Spain","latitude":"42.59707000","longitude":"-2.30524000","wikiDataId":"Q1922560"},{"id":34139,"Name":"Estella-Lizarra","state_id":1204,"state_code":"NC","state_name":"Navarra","country_id":207,"country_code":"ES","country_name":"Spain","latitude":"42.67182000","longitude":"-2.03226000","wikiDataId":"Q934991"},{"id":34151,"Name":"Etayo","state_id":1204,"state_code":"NC","state_name":"Navarra","country_id":207,"country_code":"ES","country_name":"Spain","latitude":"42.61695000","longitude":"-2.15447000","wikiDataId":"Q1648475"},{"id":34152,"Name":"Eulate","state_id":1204,"state_code":"NC","state_name":"Navarra","country_id":207,"country_code":"ES","country_name":"Spain","latitude":"42.77641000","longitude":"-2.20638000","wikiDataId":"Q1641873"},{"id":34158,"Name":"Falces","state_id":1204,"state_code":"NC","state_name":"Navarra","country_id":207,"country_code":"ES","country_name":"Spain","latitude":"42.38966000","longitude":"-1.79321000","wikiDataId":"Q1641884"},{"id":34193,"Name":"Fitero","state_id":1204,"state_code":"NC","state_name":"Navarra","country_id":207,"country_code":"ES","country_name":"Spain","latitude":"42.05770000","longitude":"-1.85756000","wikiDataId":"Q1773030"},{"id":34214,"Name":"Fontellas","state_id":1204,"state_code":"NC","state_name":"Navarra","country_id":207,"country_code":"ES","country_name":"Spain","latitude":"42.02694000","longitude":"-1.57648000","wikiDataId":"Q1768078"},{"id":34365,"Name":"Funes","state_id":1204,"state_code":"NC","state_name":"Navarra","country_id":207,"country_code":"ES","country_name":"Spain","latitude":"42.31562000","longitude":"-1.80017000","wikiDataId":"Q1767897"},{"id":34366,"Name":"Fustiñana","state_id":1204,"state_code":"NC","state_name":"Navarra","country_id":207,"country_code":"ES","country_name":"Spain","latitude":"42.02087000","longitude":"-1.48526000","wikiDataId":"Q1773016"},{"id":34374,"Name":"Galar","state_id":1204,"state_code":"NC","state_name":"Navarra","country_id":207,"country_code":"ES","country_name":"Spain","latitude":"42.76147000","longitude":"-1.69881000","wikiDataId":"Q1752994"},{"id":34394,"Name":"Gallipienzo","state_id":1204,"state_code":"NC","state_name":"Navarra","country_id":207,"country_code":"ES","country_name":"Spain","latitude":"42.52450000","longitude":"-1.41115000","wikiDataId":"Q593987"},{"id":34413,"Name":"Garde","state_id":1204,"state_code":"NC","state_name":"Navarra","country_id":207,"country_code":"ES","country_name":"Spain","latitude":"42.78937000","longitude":"-0.92589000","wikiDataId":"Q1648373"},{"id":34429,"Name":"Garínoain","state_id":1204,"state_code":"NC","state_name":"Navarra","country_id":207,"country_code":"ES","country_name":"Spain","latitude":"42.60036000","longitude":"-1.64434000","wikiDataId":"Q1753016"},{"id":34422,"Name":"Garralda","state_id":1204,"state_code":"NC","state_name":"Navarra","country_id":207,"country_code":"ES","country_name":"Spain","latitude":"42.94818000","longitude":"-1.28624000","wikiDataId":"Q1753012"},{"id":34452,"Name":"Genevilla","state_id":1204,"state_code":"NC","state_name":"Navarra","country_id":207,"country_code":"ES","country_name":"Spain","latitude":"42.64520000","longitude":"-2.39021000","wikiDataId":"Q1751480"},{"id":34477,"Name":"Goizueta","state_id":1204,"state_code":"NC","state_name":"Navarra","country_id":207,"country_code":"ES","country_name":"Spain","latitude":"43.17187000","longitude":"-1.86411000","wikiDataId":"Q303366"},{"id":34491,"Name":"Goñi","state_id":1204,"state_code":"NC","state_name":"Navarra","country_id":207,"country_code":"ES","country_name":"Spain","latitude":"42.85167000","longitude":"-1.90358000","wikiDataId":"Q1773019"},{"id":34550,"Name":"Guirguillano","state_id":1204,"state_code":"NC","state_name":"Navarra","country_id":207,"country_code":"ES","country_name":"Spain","latitude":"42.71725000","longitude":"-1.87798000","wikiDataId":"Q1753001"},{"id":34682,"Name":"Huarte-Uharte","state_id":1204,"state_code":"NC","state_name":"Navarra","country_id":207,"country_code":"ES","country_name":"Spain","latitude":"42.83035000","longitude":"-1.59087000","wikiDataId":"Q646914"},{"id":34734,"Name":"Igantzi","state_id":1204,"state_code":"NC","state_name":"Navarra","country_id":207,"country_code":"ES","country_name":"Spain","latitude":"43.22526000","longitude":"-1.70048000","wikiDataId":"Q1751880"},{"id":34741,"Name":"Igúzquiza","state_id":1204,"state_code":"NC","state_name":"Navarra","country_id":207,"country_code":"ES","country_name":"Spain","latitude":"42.64545000","longitude":"-2.08551000","wikiDataId":"Q956415"},{"id":34758,"Name":"Irañeta","state_id":1204,"state_code":"NC","state_name":"Navarra","country_id":207,"country_code":"ES","country_name":"Spain","latitude":"42.92287000","longitude":"-1.94595000","wikiDataId":"Q784935"},{"id":34774,"Name":"Ituren","state_id":1204,"state_code":"NC","state_name":"Navarra","country_id":207,"country_code":"ES","country_name":"Spain","latitude":"43.13238000","longitude":"-1.72063000","wikiDataId":"Q1647956"},{"id":34775,"Name":"Iturmendi","state_id":1204,"state_code":"NC","state_name":"Navarra","country_id":207,"country_code":"ES","country_name":"Spain","latitude":"42.88993000","longitude":"-2.11916000","wikiDataId":"Q1647946"},{"id":34776,"Name":"Iturrama","state_id":1204,"state_code":"NC","state_name":"Navarra","country_id":207,"country_code":"ES","country_name":"Spain","latitude":"42.80847000","longitude":"-1.65825000","wikiDataId":"Q2944737"},{"id":34809,"Name":"Javier","state_id":1204,"state_code":"NC","state_name":"Navarra","country_id":207,"country_code":"ES","country_name":"Spain","latitude":"42.59119000","longitude":"-1.20884000","wikiDataId":"Q1773006"},{"id":34972,"Name":"Lapoblación","state_id":1204,"state_code":"NC","state_name":"Navarra","country_id":207,"country_code":"ES","country_name":"Spain","latitude":"42.60478000","longitude":"-2.46008000","wikiDataId":"Q1637542"},{"id":34978,"Name":"Larraga","state_id":1204,"state_code":"NC","state_name":"Navarra","country_id":207,"country_code":"ES","country_name":"Spain","latitude":"42.55841000","longitude":"-1.84954000","wikiDataId":"Q1647936"},{"id":34979,"Name":"Larraona","state_id":1204,"state_code":"NC","state_name":"Navarra","country_id":207,"country_code":"ES","country_name":"Spain","latitude":"42.77970000","longitude":"-2.25682000","wikiDataId":"Q1647950"},{"id":35008,"Name":"Lazagurría","state_id":1204,"state_code":"NC","state_name":"Navarra","country_id":207,"country_code":"ES","country_name":"Spain","latitude":"42.49286000","longitude":"-2.24018000","wikiDataId":"Q1631843"},{"id":35010,"Name":"Leache","state_id":1204,"state_code":"NC","state_name":"Navarra","country_id":207,"country_code":"ES","country_name":"Spain","latitude":"42.60718000","longitude":"-1.40728000","wikiDataId":"Q1647462"},{"id":35022,"Name":"Legarda","state_id":1204,"state_code":"NC","state_name":"Navarra","country_id":207,"country_code":"ES","country_name":"Spain","latitude":"42.71183000","longitude":"-1.76846000","wikiDataId":"Q779466"},{"id":35023,"Name":"Legaria","state_id":1204,"state_code":"NC","state_name":"Navarra","country_id":207,"country_code":"ES","country_name":"Spain","latitude":"42.64924000","longitude":"-2.17392000","wikiDataId":"Q1647448"},{"id":35031,"Name":"Lerga","state_id":1204,"state_code":"NC","state_name":"Navarra","country_id":207,"country_code":"ES","country_name":"Spain","latitude":"42.56781000","longitude":"-1.50110000","wikiDataId":"Q931985"},{"id":35033,"Name":"Lerín","state_id":1204,"state_code":"NC","state_name":"Navarra","country_id":207,"country_code":"ES","country_name":"Spain","latitude":"42.48318000","longitude":"-1.97184000","wikiDataId":"Q984875"},{"id":35044,"Name":"Lezáun","state_id":1204,"state_code":"NC","state_name":"Navarra","country_id":207,"country_code":"ES","country_name":"Spain","latitude":"42.77739000","longitude":"-1.99385000","wikiDataId":"Q1773001"},{"id":35061,"Name":"Liédena","state_id":1204,"state_code":"NC","state_name":"Navarra","country_id":207,"country_code":"ES","country_name":"Spain","latitude":"42.61943000","longitude":"-1.27579000","wikiDataId":"Q1647968"},{"id":35060,"Name":"Lizoáin","state_id":1204,"state_code":"NC","state_name":"Navarra","country_id":207,"country_code":"ES","country_name":"Spain","latitude":"42.79868000","longitude":"-1.46753000","wikiDataId":"Q1633857"},{"id":35098,"Name":"Lodosa","state_id":1204,"state_code":"NC","state_name":"Navarra","country_id":207,"country_code":"ES","country_name":"Spain","latitude":"42.42269000","longitude":"-2.07741000","wikiDataId":"Q984882"},{"id":35117,"Name":"Los Arcos","state_id":1204,"state_code":"NC","state_name":"Navarra","country_id":207,"country_code":"ES","country_name":"Spain","latitude":"42.57076000","longitude":"-2.19275000","wikiDataId":"Q742713"},{"id":35162,"Name":"Lumbier","state_id":1204,"state_code":"NC","state_name":"Navarra","country_id":207,"country_code":"ES","country_name":"Spain","latitude":"42.65303000","longitude":"-1.30669000","wikiDataId":"Q584132"},{"id":35362,"Name":"Mañeru","state_id":1204,"state_code":"NC","state_name":"Navarra","country_id":207,"country_code":"ES","country_name":"Spain","latitude":"42.67001000","longitude":"-1.86297000","wikiDataId":"Q964849"},{"id":35280,"Name":"Marañón","state_id":1204,"state_code":"NC","state_name":"Navarra","country_id":207,"country_code":"ES","country_name":"Spain","latitude":"42.62941000","longitude":"-2.43931000","wikiDataId":"Q644914"},{"id":35286,"Name":"Marcilla","state_id":1204,"state_code":"NC","state_name":"Navarra","country_id":207,"country_code":"ES","country_name":"Spain","latitude":"42.32794000","longitude":"-1.73714000","wikiDataId":"Q1636217"},{"id":35705,"Name":"Mélida","state_id":1204,"state_code":"NC","state_name":"Navarra","country_id":207,"country_code":"ES","country_name":"Spain","latitude":"42.35869000","longitude":"-1.54888000","wikiDataId":"Q24011168"},{"id":35399,"Name":"Mendavia","state_id":1204,"state_code":"NC","state_name":"Navarra","country_id":207,"country_code":"ES","country_name":"Spain","latitude":"42.44335000","longitude":"-2.20087000","wikiDataId":"Q1648554"},{"id":35401,"Name":"Mendigorría","state_id":1204,"state_code":"NC","state_name":"Navarra","country_id":207,"country_code":"ES","country_name":"Spain","latitude":"42.62822000","longitude":"-1.83450000","wikiDataId":"Q1648110"},{"id":35413,"Name":"Metauten","state_id":1204,"state_code":"NC","state_name":"Navarra","country_id":207,"country_code":"ES","country_name":"Spain","latitude":"42.67714000","longitude":"-2.13015000","wikiDataId":"Q1647918"},{"id":35428,"Name":"Milagro","state_id":1204,"state_code":"NC","state_name":"Navarra","country_id":207,"country_code":"ES","country_name":"Spain","latitude":"42.24160000","longitude":"-1.76588000","wikiDataId":"Q644537"},{"id":35443,"Name":"Mirafuentes","state_id":1204,"state_code":"NC","state_name":"Navarra","country_id":207,"country_code":"ES","country_name":"Spain","latitude":"42.62297000","longitude":"-2.27966000","wikiDataId":"Q1648015"},{"id":35448,"Name":"Miranda de Arga","state_id":1204,"state_code":"NC","state_name":"Navarra","country_id":207,"country_code":"ES","country_name":"Spain","latitude":"42.48337000","longitude":"-1.82759000","wikiDataId":"Q1641891"},{"id":35520,"Name":"Monreal","state_id":1204,"state_code":"NC","state_name":"Navarra","country_id":207,"country_code":"ES","country_name":"Spain","latitude":"42.70421000","longitude":"-1.50785000","wikiDataId":"Q1914401"},{"id":35626,"Name":"Morentin","state_id":1204,"state_code":"NC","state_name":"Navarra","country_id":207,"country_code":"ES","country_name":"Spain","latitude":"42.61286000","longitude":"-2.01393000","wikiDataId":"Q24012405"},{"id":35670,"Name":"Murchante","state_id":1204,"state_code":"NC","state_name":"Navarra","country_id":207,"country_code":"ES","country_name":"Spain","latitude":"42.03185000","longitude":"-1.65582000","wikiDataId":"Q1772996"},{"id":35677,"Name":"Murieta","state_id":1204,"state_code":"NC","state_name":"Navarra","country_id":207,"country_code":"ES","country_name":"Spain","latitude":"42.65618000","longitude":"-2.15452000","wikiDataId":"Q1648105"},{"id":35679,"Name":"Murillo el Fruto","state_id":1204,"state_code":"NC","state_name":"Navarra","country_id":207,"country_code":"ES","country_name":"Spain","latitude":"42.39272000","longitude":"-1.46034000","wikiDataId":"Q1773026"},{"id":35687,"Name":"Muruzábal","state_id":1204,"state_code":"NC","state_name":"Navarra","country_id":207,"country_code":"ES","country_name":"Spain","latitude":"42.69051000","longitude":"-1.76931000","wikiDataId":"Q120453"},{"id":35784,"Name":"Navascués","state_id":1204,"state_code":"NC","state_name":"Navarra","country_id":207,"country_code":"ES","country_name":"Spain","latitude":"42.71758000","longitude":"-1.11744000","wikiDataId":"Q776592"},{"id":35793,"Name":"Nazar","state_id":1204,"state_code":"NC","state_name":"Navarra","country_id":207,"country_code":"ES","country_name":"Spain","latitude":"42.63686000","longitude":"-2.27966000","wikiDataId":"Q1647541"},{"id":35852,"Name":"Obanos","state_id":1204,"state_code":"NC","state_name":"Navarra","country_id":207,"country_code":"ES","country_name":"Spain","latitude":"42.68071000","longitude":"-1.78493000","wikiDataId":"Q984867"},{"id":35858,"Name":"Oco","state_id":1204,"state_code":"NC","state_name":"Navarra","country_id":207,"country_code":"ES","country_name":"Spain","latitude":"42.63828000","longitude":"-2.16476000","wikiDataId":"Q1645869"},{"id":35873,"Name":"Olazagutía","state_id":1204,"state_code":"NC","state_name":"Navarra","country_id":207,"country_code":"ES","country_name":"Spain","latitude":"42.87584000","longitude":"-2.19538000","wikiDataId":"Q1618340"},{"id":35877,"Name":"Olejua","state_id":1204,"state_code":"NC","state_name":"Navarra","country_id":207,"country_code":"ES","country_name":"Spain","latitude":"42.62329000","longitude":"-2.14202000","wikiDataId":"Q1647906"},{"id":35882,"Name":"Olite","state_id":1204,"state_code":"NC","state_name":"Navarra","country_id":207,"country_code":"ES","country_name":"Spain","latitude":"42.47971000","longitude":"-1.65196000","wikiDataId":"Q837062"},{"id":35920,"Name":"Olóriz","state_id":1204,"state_code":"NC","state_name":"Navarra","country_id":207,"country_code":"ES","country_name":"Spain","latitude":"42.63522000","longitude":"-1.61276000","wikiDataId":"Q1647898"},{"id":35913,"Name":"Oltza","state_id":1204,"state_code":"NC","state_name":"Navarra","country_id":207,"country_code":"ES","country_name":"Spain","latitude":"42.85000000","longitude":"-1.76667000","wikiDataId":"Q13798"},{"id":35933,"Name":"Orbara","state_id":1204,"state_code":"NC","state_name":"Navarra","country_id":207,"country_code":"ES","country_name":"Spain","latitude":"42.96728000","longitude":"-1.24213000","wikiDataId":"Q1647403"},{"id":35967,"Name":"Orísoain","state_id":1204,"state_code":"NC","state_name":"Navarra","country_id":207,"country_code":"ES","country_name":"Spain","latitude":"42.60122000","longitude":"-1.60403000","wikiDataId":"Q1647472"},{"id":35954,"Name":"Orkoien","state_id":1204,"state_code":"NC","state_name":"Navarra","country_id":207,"country_code":"ES","country_name":"Spain","latitude":"42.82380000","longitude":"-1.70485000","wikiDataId":"Q1767914"},{"id":35956,"Name":"Oronz","state_id":1204,"state_code":"NC","state_name":"Navarra","country_id":207,"country_code":"ES","country_name":"Spain","latitude":"42.86873000","longitude":"-1.09683000","wikiDataId":"Q2329544"},{"id":35976,"Name":"Oteiza","state_id":1204,"state_code":"NC","state_name":"Navarra","country_id":207,"country_code":"ES","country_name":"Spain","latitude":"42.61905000","longitude":"-1.95385000","wikiDataId":"Q682821"},{"id":36045,"Name":"Pamplona","state_id":1204,"state_code":"NC","state_name":"Navarra","country_id":207,"country_code":"ES","country_name":"Spain","latitude":"42.81687000","longitude":"-1.64323000","wikiDataId":"Q10282"},{"id":36142,"Name":"Peralta","state_id":1204,"state_code":"NC","state_name":"Navarra","country_id":207,"country_code":"ES","country_name":"Spain","latitude":"42.33834000","longitude":"-1.80035000","wikiDataId":"Q984865"},{"id":36156,"Name":"Petilla de Aragón","state_id":1204,"state_code":"NC","state_name":"Navarra","country_id":207,"country_code":"ES","country_name":"Spain","latitude":"42.45000000","longitude":"-1.11667000","wikiDataId":"Q1642988"},{"id":36183,"Name":"Piedramillera","state_id":1204,"state_code":"NC","state_name":"Navarra","country_id":207,"country_code":"ES","country_name":"Spain","latitude":"42.63200000","longitude":"-2.20416000","wikiDataId":"Q1647923"},{"id":36223,"Name":"Pitillas","state_id":1204,"state_code":"NC","state_name":"Navarra","country_id":207,"country_code":"ES","country_name":"Spain","latitude":"42.42172000","longitude":"-1.62017000","wikiDataId":"Q671053"},{"id":36355,"Name":"Primer Ensanche","state_id":1204,"state_code":"NC","state_name":"Navarra","country_id":207,"country_code":"ES","country_name":"Spain","latitude":"42.81483000","longitude":"-1.64898000","wikiDataId":"Q24011697"},{"id":36381,"Name":"Provincia de Navarra","state_id":1204,"state_code":"NC","state_name":"Navarra","country_id":207,"country_code":"ES","country_name":"Spain","latitude":"42.82330000","longitude":"-1.65138000","wikiDataId":"Q95028"},{"id":36439,"Name":"Puente la Reina","state_id":1204,"state_code":"NC","state_name":"Navarra","country_id":207,"country_code":"ES","country_name":"Spain","latitude":"42.67291000","longitude":"-1.81412000","wikiDataId":"Q372556"},{"id":36459,"Name":"Pueyo","state_id":1204,"state_code":"NC","state_name":"Navarra","country_id":207,"country_code":"ES","country_name":"Spain","latitude":"42.56506000","longitude":"-1.64826000","wikiDataId":"Q1647418"},{"id":36610,"Name":"Ribaforada","state_id":1204,"state_code":"NC","state_name":"Navarra","country_id":207,"country_code":"ES","country_name":"Spain","latitude":"41.99814000","longitude":"-1.51272000","wikiDataId":"Q1647994"},{"id":36758,"Name":"Saldías","state_id":1204,"state_code":"NC","state_name":"Navarra","country_id":207,"country_code":"ES","country_name":"Spain","latitude":"43.08858000","longitude":"-1.77946000","wikiDataId":"Q1648100"},{"id":36764,"Name":"Salinas de Oro","state_id":1204,"state_code":"NC","state_name":"Navarra","country_id":207,"country_code":"ES","country_name":"Spain","latitude":"42.77487000","longitude":"-1.88999000","wikiDataId":"Q1648042"},{"id":36795,"Name":"San Adrián","state_id":1204,"state_code":"NC","state_name":"Navarra","country_id":207,"country_code":"ES","country_name":"Spain","latitude":"42.33433000","longitude":"-1.93509000","wikiDataId":"Q1640147"},{"id":36869,"Name":"San Martín de Unx","state_id":1204,"state_code":"NC","state_name":"Navarra","country_id":207,"country_code":"ES","country_name":"Spain","latitude":"42.52473000","longitude":"-1.56091000","wikiDataId":"Q1628492"},{"id":36946,"Name":"Sangüesa/Zangoza","state_id":1204,"state_code":"NC","state_name":"Navarra","country_id":207,"country_code":"ES","country_name":"Spain","latitude":"42.57483000","longitude":"-1.28283000","wikiDataId":"Q24012374"},{"id":36950,"Name":"Sansol","state_id":1204,"state_code":"NC","state_name":"Navarra","country_id":207,"country_code":"ES","country_name":"Spain","latitude":"42.55362000","longitude":"-2.26676000","wikiDataId":"Q984870"},{"id":37103,"Name":"Santacara","state_id":1204,"state_code":"NC","state_name":"Navarra","country_id":207,"country_code":"ES","country_name":"Spain","latitude":"42.36667000","longitude":"-1.63333000","wikiDataId":"Q1647926"},{"id":37169,"Name":"Sarriguren","state_id":1204,"state_code":"NC","state_name":"Navarra","country_id":207,"country_code":"ES","country_name":"Spain","latitude":"42.81292000","longitude":"-1.59815000","wikiDataId":"Q1607778"},{"id":37174,"Name":"Sartaguda","state_id":1204,"state_code":"NC","state_name":"Navarra","country_id":207,"country_code":"ES","country_name":"Spain","latitude":"42.38333000","longitude":"-2.05709000","wikiDataId":"Q1767920"},{"id":37193,"Name":"Segundo Ensanche","state_id":1204,"state_code":"NC","state_name":"Navarra","country_id":207,"country_code":"ES","country_name":"Spain","latitude":"42.81390000","longitude":"-1.64295000","wikiDataId":"Q23992605"},{"id":37232,"Name":"Sesma","state_id":1204,"state_code":"NC","state_name":"Navarra","country_id":207,"country_code":"ES","country_name":"Spain","latitude":"42.47748000","longitude":"-2.08353000","wikiDataId":"Q1767933"},{"id":37303,"Name":"Sorlada","state_id":1204,"state_code":"NC","state_name":"Navarra","country_id":207,"country_code":"ES","country_name":"Spain","latitude":"42.61507000","longitude":"-2.21525000","wikiDataId":"Q1647408"},{"id":37348,"Name":"Tafalla","state_id":1204,"state_code":"NC","state_name":"Navarra","country_id":207,"country_code":"ES","country_name":"Spain","latitude":"42.52687000","longitude":"-1.67446000","wikiDataId":"Q820224"},{"id":37428,"Name":"Tirapu","state_id":1204,"state_code":"NC","state_name":"Navarra","country_id":207,"country_code":"ES","country_name":"Spain","latitude":"42.65740000","longitude":"-1.70263000","wikiDataId":"Q1647412"},{"id":37579,"Name":"Torres del Río","state_id":1204,"state_code":"NC","state_name":"Navarra","country_id":207,"country_code":"ES","country_name":"Spain","latitude":"42.55162000","longitude":"-2.27285000","wikiDataId":"Q1652967"},{"id":37648,"Name":"Tudela","state_id":1204,"state_code":"NC","state_name":"Navarra","country_id":207,"country_code":"ES","country_name":"Spain","latitude":"42.06166000","longitude":"-1.60452000","wikiDataId":"Q373254"},{"id":37653,"Name":"Tulebras","state_id":1204,"state_code":"NC","state_name":"Navarra","country_id":207,"country_code":"ES","country_name":"Spain","latitude":"41.97695000","longitude":"-1.67618000","wikiDataId":"Q631828"},{"id":37677,"Name":"Ujué","state_id":1204,"state_code":"NC","state_name":"Navarra","country_id":207,"country_code":"ES","country_name":"Spain","latitude":"42.50000000","longitude":"-1.50000000","wikiDataId":"Q943072"},{"id":37689,"Name":"Unzué","state_id":1204,"state_code":"NC","state_name":"Navarra","country_id":207,"country_code":"ES","country_name":"Spain","latitude":"42.65252000","longitude":"-1.62598000","wikiDataId":"Q1647468"},{"id":37701,"Name":"Urzainqui","state_id":1204,"state_code":"NC","state_name":"Navarra","country_id":207,"country_code":"ES","country_name":"Spain","latitude":"42.83029000","longitude":"-0.94617000","wikiDataId":"Q1648019"},{"id":37709,"Name":"Uterga","state_id":1204,"state_code":"NC","state_name":"Navarra","country_id":207,"country_code":"ES","country_name":"Spain","latitude":"42.70981000","longitude":"-1.76004000","wikiDataId":"Q984879"},{"id":37879,"Name":"Valtierra","state_id":1204,"state_code":"NC","state_name":"Navarra","country_id":207,"country_code":"ES","country_name":"Spain","latitude":"42.19653000","longitude":"-1.63459000","wikiDataId":"Q1751469"},{"id":38055,"Name":"Villafranca","state_id":1204,"state_code":"NC","state_name":"Navarra","country_id":207,"country_code":"ES","country_name":"Spain","latitude":"42.27933000","longitude":"-1.74628000","wikiDataId":"Q24016850"},{"id":38143,"Name":"Villamayor de Monjardín","state_id":1204,"state_code":"NC","state_name":"Navarra","country_id":207,"country_code":"ES","country_name":"Spain","latitude":"42.62937000","longitude":"-2.10503000","wikiDataId":"Q597234"},{"id":38334,"Name":"Villatuerta","state_id":1204,"state_code":"NC","state_name":"Navarra","country_id":207,"country_code":"ES","country_name":"Spain","latitude":"42.66022000","longitude":"-1.99247000","wikiDataId":"Q984886"},{"id":38436,"Name":"Yerri","state_id":1204,"state_code":"NC","state_name":"Navarra","country_id":207,"country_code":"ES","country_name":"Spain","latitude":"42.70161000","longitude":"-1.93806000","wikiDataId":"Q1133148"},{"id":38437,"Name":"Yesa","state_id":1204,"state_code":"NC","state_name":"Navarra","country_id":207,"country_code":"ES","country_name":"Spain","latitude":"42.62025000","longitude":"-1.20360000","wikiDataId":"Q1133148"},{"id":38502,"Name":"Zubieta","state_id":1204,"state_code":"NC","state_name":"Navarra","country_id":207,"country_code":"ES","country_name":"Spain","latitude":"43.12473000","longitude":"-1.74219000","wikiDataId":"Q619692"},{"id":38506,"Name":"Zugarramurdi","state_id":1204,"state_code":"NC","state_name":"Navarra","country_id":207,"country_code":"ES","country_name":"Spain","latitude":"43.26964000","longitude":"-1.54113000","wikiDataId":"Q1643583"},{"id":38513,"Name":"Zúñiga","state_id":1204,"state_code":"NC","state_name":"Navarra","country_id":207,"country_code":"ES","country_name":"Spain","latitude":"42.69247000","longitude":"-2.29982000","wikiDataId":"Q619524"}]