[{"id":111026,"Name":"Adams County","state_id":1418,"state_code":"ND","state_name":"North Dakota","country_id":233,"country_code":"US","country_name":"United States","latitude":"46.09684000","longitude":"-102.52853000","wikiDataId":"Q28316"},{"id":111287,"Name":"Amidon","state_id":1418,"state_code":"ND","state_name":"North Dakota","country_id":233,"country_code":"US","country_name":"United States","latitude":"46.48223000","longitude":"-103.32185000","wikiDataId":"Q1939777"},{"id":111543,"Name":"Ashley","state_id":1418,"state_code":"ND","state_name":"North Dakota","country_id":233,"country_code":"US","country_name":"United States","latitude":"46.03414000","longitude":"-99.37150000","wikiDataId":"Q725727"},{"id":111826,"Name":"Barnes County","state_id":1418,"state_code":"ND","state_name":"North Dakota","country_id":233,"country_code":"US","country_name":"United States","latitude":"46.93611000","longitude":"-98.07158000","wikiDataId":"Q28308"},{"id":111962,"Name":"Beach","state_id":1418,"state_code":"ND","state_name":"North Dakota","country_id":233,"country_code":"US","country_name":"United States","latitude":"46.91807000","longitude":"-104.00437000","wikiDataId":"Q1999217"},{"id":112052,"Name":"Belcourt","state_id":1418,"state_code":"ND","state_name":"North Dakota","country_id":233,"country_code":"US","country_name":"United States","latitude":"48.83917000","longitude":"-99.74487000","wikiDataId":"Q2126540"},{"id":112058,"Name":"Belfield","state_id":1418,"state_code":"ND","state_name":"North Dakota","country_id":233,"country_code":"US","country_name":"United States","latitude":"46.88529000","longitude":"-103.19962000","wikiDataId":"Q2443055"},{"id":112186,"Name":"Benson County","state_id":1418,"state_code":"ND","state_name":"North Dakota","country_id":233,"country_code":"US","country_name":"United States","latitude":"48.06939000","longitude":"-99.36603000","wikiDataId":"Q28292"},{"id":112296,"Name":"Beulah","state_id":1418,"state_code":"ND","state_name":"North Dakota","country_id":233,"country_code":"US","country_name":"United States","latitude":"47.26334000","longitude":"-101.77795000","wikiDataId":"Q176998"},{"id":112345,"Name":"Billings County","state_id":1418,"state_code":"ND","state_name":"North Dakota","country_id":233,"country_code":"US","country_name":"United States","latitude":"47.02345000","longitude":"-103.37643000","wikiDataId":"Q28321"},{"id":112367,"Name":"Bismarck","state_id":1418,"state_code":"ND","state_name":"North Dakota","country_id":233,"country_code":"US","country_name":"United States","latitude":"46.80833000","longitude":"-100.78374000","wikiDataId":"Q37066"},{"id":112598,"Name":"Bottineau","state_id":1418,"state_code":"ND","state_name":"North Dakota","country_id":233,"country_code":"US","country_name":"United States","latitude":"48.82723000","longitude":"-100.44570000","wikiDataId":"Q523895"},{"id":112599,"Name":"Bottineau County","state_id":1418,"state_code":"ND","state_name":"North Dakota","country_id":233,"country_code":"US","country_name":"United States","latitude":"48.79216000","longitude":"-100.83333000","wikiDataId":"Q29124"},{"id":112621,"Name":"Bowbells","state_id":1418,"state_code":"ND","state_name":"North Dakota","country_id":233,"country_code":"US","country_name":"United States","latitude":"48.80308000","longitude":"-102.24600000","wikiDataId":"Q2018831"},{"id":112632,"Name":"Bowman","state_id":1418,"state_code":"ND","state_name":"North Dakota","country_id":233,"country_code":"US","country_name":"United States","latitude":"46.18306000","longitude":"-103.39491000","wikiDataId":"Q2087899"},{"id":112633,"Name":"Bowman County","state_id":1418,"state_code":"ND","state_name":"North Dakota","country_id":233,"country_code":"US","country_name":"United States","latitude":"46.11261000","longitude":"-103.52067000","wikiDataId":"Q28274"},{"id":113058,"Name":"Burke County","state_id":1418,"state_code":"ND","state_name":"North Dakota","country_id":233,"country_code":"US","country_name":"United States","latitude":"48.79100000","longitude":"-102.51826000","wikiDataId":"Q29118"},{"id":113060,"Name":"Burleigh County","state_id":1418,"state_code":"ND","state_name":"North Dakota","country_id":233,"country_code":"US","country_name":"United States","latitude":"46.97739000","longitude":"-100.46873000","wikiDataId":"Q28283"},{"id":113075,"Name":"Burlington","state_id":1418,"state_code":"ND","state_name":"North Dakota","country_id":233,"country_code":"US","country_name":"United States","latitude":"48.27529000","longitude":"-101.42878000","wikiDataId":"Q2018782"},{"id":113326,"Name":"Cando","state_id":1418,"state_code":"ND","state_name":"North Dakota","country_id":233,"country_code":"US","country_name":"United States","latitude":"48.48667000","longitude":"-99.20986000","wikiDataId":"Q1999201"},{"id":113446,"Name":"Carrington","state_id":1418,"state_code":"ND","state_name":"North Dakota","country_id":233,"country_code":"US","country_name":"United States","latitude":"47.44972000","longitude":"-99.12622000","wikiDataId":"Q996351"},{"id":113475,"Name":"Carson","state_id":1418,"state_code":"ND","state_name":"North Dakota","country_id":233,"country_code":"US","country_name":"United States","latitude":"46.41778000","longitude":"-101.56487000","wikiDataId":"Q731708"},{"id":113533,"Name":"Cass County","state_id":1418,"state_code":"ND","state_name":"North Dakota","country_id":233,"country_code":"US","country_name":"United States","latitude":"46.93297000","longitude":"-97.24804000","wikiDataId":"Q28285"},{"id":113536,"Name":"Casselton","state_id":1418,"state_code":"ND","state_name":"North Dakota","country_id":233,"country_code":"US","country_name":"United States","latitude":"46.90053000","longitude":"-97.21120000","wikiDataId":"Q1954719"},{"id":113581,"Name":"Cavalier","state_id":1418,"state_code":"ND","state_name":"North Dakota","country_id":233,"country_code":"US","country_name":"United States","latitude":"48.79388000","longitude":"-97.62231000","wikiDataId":"Q1996108"},{"id":113582,"Name":"Cavalier County","state_id":1418,"state_code":"ND","state_name":"North Dakota","country_id":233,"country_code":"US","country_name":"United States","latitude":"48.77230000","longitude":"-98.46486000","wikiDataId":"Q28523"},{"id":113639,"Name":"Center","state_id":1418,"state_code":"ND","state_name":"North Dakota","country_id":233,"country_code":"US","country_name":"United States","latitude":"47.11638000","longitude":"-101.29959000","wikiDataId":"Q2087867"},{"id":114606,"Name":"Cooperstown","state_id":1418,"state_code":"ND","state_name":"North Dakota","country_id":233,"country_code":"US","country_name":"United States","latitude":"47.44444000","longitude":"-98.12398000","wikiDataId":"Q1999157"},{"id":114844,"Name":"Crosby","state_id":1418,"state_code":"ND","state_name":"North Dakota","country_id":233,"country_code":"US","country_name":"United States","latitude":"48.91420000","longitude":"-103.29491000","wikiDataId":"Q1772493"},{"id":115298,"Name":"Devils Lake","state_id":1418,"state_code":"ND","state_name":"North Dakota","country_id":233,"country_code":"US","country_name":"United States","latitude":"48.11278000","longitude":"-98.86512000","wikiDataId":"Q1772496"},{"id":115323,"Name":"Dickey County","state_id":1418,"state_code":"ND","state_name":"North Dakota","country_id":233,"country_code":"US","country_name":"United States","latitude":"46.11012000","longitude":"-98.50467000","wikiDataId":"Q28488"},{"id":115326,"Name":"Dickinson","state_id":1418,"state_code":"ND","state_name":"North Dakota","country_id":233,"country_code":"US","country_name":"United States","latitude":"46.87918000","longitude":"-102.78962000","wikiDataId":"Q853559"},{"id":115357,"Name":"Divide County","state_id":1418,"state_code":"ND","state_name":"North Dakota","country_id":233,"country_code":"US","country_name":"United States","latitude":"48.81489000","longitude":"-103.48735000","wikiDataId":"Q28311"},{"id":115548,"Name":"Dunn County","state_id":1418,"state_code":"ND","state_name":"North Dakota","country_id":233,"country_code":"US","country_name":"United States","latitude":"47.35675000","longitude":"-102.61824000","wikiDataId":"Q28503"},{"id":115823,"Name":"Eddy County","state_id":1418,"state_code":"ND","state_name":"North Dakota","country_id":233,"country_code":"US","country_name":"United States","latitude":"47.71759000","longitude":"-98.90158000","wikiDataId":"Q48863"},{"id":116017,"Name":"Ellendale","state_id":1418,"state_code":"ND","state_name":"North Dakota","country_id":233,"country_code":"US","country_name":"United States","latitude":"46.00275000","longitude":"-98.52705000","wikiDataId":"Q959555"},{"id":116107,"Name":"Emmons County","state_id":1418,"state_code":"ND","state_name":"North Dakota","country_id":233,"country_code":"US","country_name":"United States","latitude":"46.28502000","longitude":"-100.23878000","wikiDataId":"Q48917"},{"id":116396,"Name":"Fargo","state_id":1418,"state_code":"ND","state_name":"North Dakota","country_id":233,"country_code":"US","country_name":"United States","latitude":"46.87719000","longitude":"-96.78980000","wikiDataId":"Q34109"},{"id":116501,"Name":"Fessenden","state_id":1418,"state_code":"ND","state_name":"North Dakota","country_id":233,"country_code":"US","country_name":"United States","latitude":"47.64917000","longitude":"-99.62929000","wikiDataId":"Q2080795"},{"id":116516,"Name":"Finley","state_id":1418,"state_code":"ND","state_name":"North Dakota","country_id":233,"country_code":"US","country_name":"United States","latitude":"47.51416000","longitude":"-97.83593000","wikiDataId":"Q2089827"},{"id":116676,"Name":"Forman","state_id":1418,"state_code":"ND","state_name":"North Dakota","country_id":233,"country_code":"US","country_name":"United States","latitude":"46.10774000","longitude":"-97.63649000","wikiDataId":"Q2021484"},{"id":116756,"Name":"Fort Totten","state_id":1418,"state_code":"ND","state_name":"North Dakota","country_id":233,"country_code":"US","country_name":"United States","latitude":"47.98000000","longitude":"-98.99290000","wikiDataId":"Q2757936"},{"id":116766,"Name":"Fort Yates","state_id":1418,"state_code":"ND","state_name":"North Dakota","country_id":233,"country_code":"US","country_name":"United States","latitude":"46.08694000","longitude":"-100.63013000","wikiDataId":"Q2300641"},{"id":116777,"Name":"Foster County","state_id":1418,"state_code":"ND","state_name":"North Dakota","country_id":233,"country_code":"US","country_name":"United States","latitude":"47.45708000","longitude":"-98.88302000","wikiDataId":"Q48931"},{"id":117103,"Name":"Garrison","state_id":1418,"state_code":"ND","state_name":"North Dakota","country_id":233,"country_code":"US","country_name":"United States","latitude":"47.65222000","longitude":"-101.41572000","wikiDataId":"Q2278248"},{"id":117359,"Name":"Golden Valley County","state_id":1418,"state_code":"ND","state_name":"North Dakota","country_id":233,"country_code":"US","country_name":"United States","latitude":"46.94022000","longitude":"-103.84670000","wikiDataId":"Q48926"},{"id":117431,"Name":"Grafton","state_id":1418,"state_code":"ND","state_name":"North Dakota","country_id":233,"country_code":"US","country_name":"United States","latitude":"48.41221000","longitude":"-97.41063000","wikiDataId":"Q1772501"},{"id":117457,"Name":"Grand Forks","state_id":1418,"state_code":"ND","state_name":"North Dakota","country_id":233,"country_code":"US","country_name":"United States","latitude":"47.92526000","longitude":"-97.03285000","wikiDataId":"Q34144"},{"id":117458,"Name":"Grand Forks Air Force Base","state_id":1418,"state_code":"ND","state_name":"North Dakota","country_id":233,"country_code":"US","country_name":"United States","latitude":"47.95493000","longitude":"-97.38664000","wikiDataId":"Q34144"},{"id":117459,"Name":"Grand Forks County","state_id":1418,"state_code":"ND","state_name":"North Dakota","country_id":233,"country_code":"US","country_name":"United States","latitude":"47.92192000","longitude":"-97.45693000","wikiDataId":"Q135328"},{"id":117518,"Name":"Grant County","state_id":1418,"state_code":"ND","state_name":"North Dakota","country_id":233,"country_code":"US","country_name":"United States","latitude":"46.35828000","longitude":"-101.63971000","wikiDataId":"Q48834"},{"id":117734,"Name":"Griggs County","state_id":1418,"state_code":"ND","state_name":"North Dakota","country_id":233,"country_code":"US","country_name":"United States","latitude":"47.45729000","longitude":"-98.23704000","wikiDataId":"Q48910"},{"id":118114,"Name":"Harvey","state_id":1418,"state_code":"ND","state_name":"North Dakota","country_id":233,"country_code":"US","country_name":"United States","latitude":"47.76972000","longitude":"-99.93540000","wikiDataId":"Q639259"},{"id":118210,"Name":"Hazen","state_id":1418,"state_code":"ND","state_name":"North Dakota","country_id":233,"country_code":"US","country_name":"United States","latitude":"47.29445000","longitude":"-101.62266000","wikiDataId":"Q1999162"},{"id":118346,"Name":"Hettinger","state_id":1418,"state_code":"ND","state_name":"North Dakota","country_id":233,"country_code":"US","country_name":"United States","latitude":"46.00139000","longitude":"-102.63682000","wikiDataId":"Q28444"},{"id":118347,"Name":"Hettinger County","state_id":1418,"state_code":"ND","state_name":"North Dakota","country_id":233,"country_code":"US","country_name":"United States","latitude":"46.43253000","longitude":"-102.46036000","wikiDataId":"Q48867"},{"id":118450,"Name":"Hillsboro","state_id":1418,"state_code":"ND","state_name":"North Dakota","country_id":233,"country_code":"US","country_name":"United States","latitude":"47.40387000","longitude":"-97.06203000","wikiDataId":"Q1075622"},{"id":118661,"Name":"Horace","state_id":1418,"state_code":"ND","state_name":"North Dakota","country_id":233,"country_code":"US","country_name":"United States","latitude":"46.75886000","longitude":"-96.90370000","wikiDataId":"Q2188971"},{"id":119123,"Name":"Jamestown","state_id":1418,"state_code":"ND","state_name":"North Dakota","country_id":233,"country_code":"US","country_name":"United States","latitude":"46.91054000","longitude":"-98.70844000","wikiDataId":"Q1052658"},{"id":119461,"Name":"Kenmare","state_id":1418,"state_code":"ND","state_name":"North Dakota","country_id":233,"country_code":"US","country_name":"United States","latitude":"48.67475000","longitude":"-102.08266000","wikiDataId":"Q2278280"},{"id":119552,"Name":"Kidder County","state_id":1418,"state_code":"ND","state_name":"North Dakota","country_id":233,"country_code":"US","country_name":"United States","latitude":"46.98014000","longitude":"-99.78009000","wikiDataId":"Q135330"},{"id":119558,"Name":"Killdeer","state_id":1418,"state_code":"ND","state_name":"North Dakota","country_id":233,"country_code":"US","country_name":"United States","latitude":"47.37196000","longitude":"-102.75408000","wikiDataId":"Q2021464"},{"id":120057,"Name":"Lakota","state_id":1418,"state_code":"ND","state_name":"North Dakota","country_id":233,"country_code":"US","country_name":"United States","latitude":"48.04278000","longitude":"-98.33621000","wikiDataId":"Q663390"},{"id":119803,"Name":"LaMoure County","state_id":1418,"state_code":"ND","state_name":"North Dakota","country_id":233,"country_code":"US","country_name":"United States","latitude":"46.45691000","longitude":"-98.53546000","wikiDataId":"Q48891"},{"id":120109,"Name":"Langdon","state_id":1418,"state_code":"ND","state_name":"North Dakota","country_id":233,"country_code":"US","country_name":"United States","latitude":"48.76000000","longitude":"-98.36817000","wikiDataId":"Q1779807"},{"id":120146,"Name":"Larimore","state_id":1418,"state_code":"ND","state_name":"North Dakota","country_id":233,"country_code":"US","country_name":"United States","latitude":"47.90666000","longitude":"-97.62675000","wikiDataId":"Q1954198"},{"id":120510,"Name":"Lincoln","state_id":1418,"state_code":"ND","state_name":"North Dakota","country_id":233,"country_code":"US","country_name":"United States","latitude":"46.76249000","longitude":"-100.70040000","wikiDataId":"Q2283554"},{"id":120590,"Name":"Linton","state_id":1418,"state_code":"ND","state_name":"North Dakota","country_id":233,"country_code":"US","country_name":"United States","latitude":"46.26666000","longitude":"-100.23289000","wikiDataId":"Q1999208"},{"id":120600,"Name":"Lisbon","state_id":1418,"state_code":"ND","state_name":"North Dakota","country_id":233,"country_code":"US","country_name":"United States","latitude":"46.44163000","longitude":"-97.68121000","wikiDataId":"Q748348"},{"id":120701,"Name":"Logan County","state_id":1418,"state_code":"ND","state_name":"North Dakota","country_id":233,"country_code":"US","country_name":"United States","latitude":"46.45736000","longitude":"-99.47747000","wikiDataId":"Q48896"},{"id":121106,"Name":"Mandan","state_id":1418,"state_code":"ND","state_name":"North Dakota","country_id":233,"country_code":"US","country_name":"United States","latitude":"46.82666000","longitude":"-100.88958000","wikiDataId":"Q28419"},{"id":121136,"Name":"Manning","state_id":1418,"state_code":"ND","state_name":"North Dakota","country_id":233,"country_code":"US","country_name":"United States","latitude":"47.23001000","longitude":"-102.77019000","wikiDataId":"Q3286067"},{"id":121454,"Name":"Mayville","state_id":1418,"state_code":"ND","state_name":"North Dakota","country_id":233,"country_code":"US","country_name":"United States","latitude":"47.49804000","longitude":"-97.32454000","wikiDataId":"Q385320"},{"id":121472,"Name":"McClusky","state_id":1418,"state_code":"ND","state_name":"North Dakota","country_id":233,"country_code":"US","country_name":"United States","latitude":"47.48583000","longitude":"-100.44318000","wikiDataId":"Q544128"},{"id":121510,"Name":"McHenry County","state_id":1418,"state_code":"ND","state_name":"North Dakota","country_id":233,"country_code":"US","country_name":"United States","latitude":"48.23458000","longitude":"-100.63628000","wikiDataId":"Q280826"},{"id":121515,"Name":"McIntosh County","state_id":1418,"state_code":"ND","state_name":"North Dakota","country_id":233,"country_code":"US","country_name":"United States","latitude":"46.11179000","longitude":"-99.44120000","wikiDataId":"Q280815"},{"id":121521,"Name":"McKenzie County","state_id":1418,"state_code":"ND","state_name":"North Dakota","country_id":233,"country_code":"US","country_name":"United States","latitude":"47.74015000","longitude":"-103.39527000","wikiDataId":"Q280844"},{"id":121530,"Name":"McLean County","state_id":1418,"state_code":"ND","state_name":"North Dakota","country_id":233,"country_code":"US","country_name":"United States","latitude":"47.60696000","longitude":"-101.32183000","wikiDataId":"Q280820"},{"id":121608,"Name":"Medora","state_id":1418,"state_code":"ND","state_name":"North Dakota","country_id":233,"country_code":"US","country_name":"United States","latitude":"46.91390000","longitude":"-103.52435000","wikiDataId":"Q2018799"},{"id":121681,"Name":"Mercer County","state_id":1418,"state_code":"ND","state_name":"North Dakota","country_id":233,"country_code":"US","country_name":"United States","latitude":"47.30922000","longitude":"-101.83153000","wikiDataId":"Q48905"},{"id":121959,"Name":"Minnewaukan","state_id":1418,"state_code":"ND","state_name":"North Dakota","country_id":233,"country_code":"US","country_name":"United States","latitude":"48.07139000","longitude":"-99.25236000","wikiDataId":"Q2019987"},{"id":121966,"Name":"Minot","state_id":1418,"state_code":"ND","state_name":"North Dakota","country_id":233,"country_code":"US","country_name":"United States","latitude":"48.23251000","longitude":"-101.29627000","wikiDataId":"Q487201"},{"id":121967,"Name":"Minot Air Force Base","state_id":1418,"state_code":"ND","state_name":"North Dakota","country_id":233,"country_code":"US","country_name":"United States","latitude":"48.42087000","longitude":"-101.33914000","wikiDataId":"Q487201"},{"id":122018,"Name":"Mohall","state_id":1418,"state_code":"ND","state_name":"North Dakota","country_id":233,"country_code":"US","country_name":"United States","latitude":"48.76336000","longitude":"-101.51322000","wikiDataId":"Q1998804"},{"id":122297,"Name":"Morton County","state_id":1418,"state_code":"ND","state_name":"North Dakota","country_id":233,"country_code":"US","country_name":"United States","latitude":"46.71606000","longitude":"-101.28117000","wikiDataId":"Q28499"},{"id":122312,"Name":"Mott","state_id":1418,"state_code":"ND","state_name":"North Dakota","country_id":233,"country_code":"US","country_name":"United States","latitude":"46.37250000","longitude":"-102.32711000","wikiDataId":"Q660411"},{"id":122440,"Name":"Mountrail County","state_id":1418,"state_code":"ND","state_name":"North Dakota","country_id":233,"country_code":"US","country_name":"United States","latitude":"48.20133000","longitude":"-102.35565000","wikiDataId":"Q280838"},{"id":122559,"Name":"Napoleon","state_id":1418,"state_code":"ND","state_name":"North Dakota","country_id":233,"country_code":"US","country_name":"United States","latitude":"46.50831000","longitude":"-99.77122000","wikiDataId":"Q996166"},{"id":122628,"Name":"Nelson County","state_id":1418,"state_code":"ND","state_name":"North Dakota","country_id":233,"country_code":"US","country_name":"United States","latitude":"47.92169000","longitude":"-98.19204000","wikiDataId":"Q48902"},{"id":122774,"Name":"New Rockford","state_id":1418,"state_code":"ND","state_name":"North Dakota","country_id":233,"country_code":"US","country_name":"United States","latitude":"47.68000000","longitude":"-99.13790000","wikiDataId":"Q182623"},{"id":122787,"Name":"New Town","state_id":1418,"state_code":"ND","state_name":"North Dakota","country_id":233,"country_code":"US","country_name":"United States","latitude":"47.98085000","longitude":"-102.49018000","wikiDataId":"Q2310050"},{"id":123275,"Name":"Oakes","state_id":1418,"state_code":"ND","state_name":"North Dakota","country_id":233,"country_code":"US","country_name":"United States","latitude":"46.13858000","longitude":"-98.09038000","wikiDataId":"Q2322847"},{"id":123443,"Name":"Oliver County","state_id":1418,"state_code":"ND","state_name":"North Dakota","country_id":233,"country_code":"US","country_name":"United States","latitude":"47.11528000","longitude":"-101.34036000","wikiDataId":"Q48933"},{"id":123853,"Name":"Park River","state_id":1418,"state_code":"ND","state_name":"North Dakota","country_id":233,"country_code":"US","country_name":"United States","latitude":"48.39860000","longitude":"-97.74120000","wikiDataId":"Q584452"},{"id":123889,"Name":"Parshall","state_id":1418,"state_code":"ND","state_name":"North Dakota","country_id":233,"country_code":"US","country_name":"United States","latitude":"47.95335000","longitude":"-102.13489000","wikiDataId":"Q2310217"},{"id":124003,"Name":"Pembina County","state_id":1418,"state_code":"ND","state_name":"North Dakota","country_id":233,"country_code":"US","country_name":"United States","latitude":"48.76752000","longitude":"-97.55183000","wikiDataId":"Q48920"},{"id":124174,"Name":"Pierce County","state_id":1418,"state_code":"ND","state_name":"North Dakota","country_id":233,"country_code":"US","country_name":"United States","latitude":"48.24960000","longitude":"-99.97182000","wikiDataId":"Q48878"},{"id":124844,"Name":"Ramsey County","state_id":1418,"state_code":"ND","state_name":"North Dakota","country_id":233,"country_code":"US","country_name":"United States","latitude":"48.26893000","longitude":"-98.72014000","wikiDataId":"Q48937"},{"id":124888,"Name":"Ransom County","state_id":1418,"state_code":"ND","state_name":"North Dakota","country_id":233,"country_code":"US","country_name":"United States","latitude":"46.45616000","longitude":"-97.65745000","wikiDataId":"Q511461"},{"id":125029,"Name":"Renville County","state_id":1418,"state_code":"ND","state_name":"North Dakota","country_id":233,"country_code":"US","country_name":"United States","latitude":"48.71907000","longitude":"-101.65778000","wikiDataId":"Q48831"},{"id":125076,"Name":"Richland County","state_id":1418,"state_code":"ND","state_name":"North Dakota","country_id":233,"country_code":"US","country_name":"United States","latitude":"46.26466000","longitude":"-96.94828000","wikiDataId":"Q126829"},{"id":125362,"Name":"Rolette County","state_id":1418,"state_code":"ND","state_name":"North Dakota","country_id":233,"country_code":"US","country_name":"United States","latitude":"48.77245000","longitude":"-99.84099000","wikiDataId":"Q48856"},{"id":125364,"Name":"Rolla","state_id":1418,"state_code":"ND","state_name":"North Dakota","country_id":233,"country_code":"US","country_name":"United States","latitude":"48.85778000","longitude":"-99.61792000","wikiDataId":"Q643726"},{"id":125503,"Name":"Rugby","state_id":1418,"state_code":"ND","state_name":"North Dakota","country_id":233,"country_code":"US","country_name":"United States","latitude":"48.36889000","longitude":"-99.99625000","wikiDataId":"Q168420"},{"id":125950,"Name":"Sargent County","state_id":1418,"state_code":"ND","state_name":"North Dakota","country_id":233,"country_code":"US","country_name":"United States","latitude":"46.10794000","longitude":"-97.63072000","wikiDataId":"Q511470"},{"id":126288,"Name":"Sheldon","state_id":1418,"state_code":"ND","state_name":"North Dakota","country_id":233,"country_code":"US","country_name":"United States","latitude":"46.58580000","longitude":"-97.49120000","wikiDataId":"Q2231424"},{"id":126293,"Name":"Shell Valley","state_id":1418,"state_code":"ND","state_name":"North Dakota","country_id":233,"country_code":"US","country_name":"United States","latitude":"48.79806000","longitude":"-99.86486000","wikiDataId":"Q2308026"},{"id":126326,"Name":"Sheridan County","state_id":1418,"state_code":"ND","state_name":"North Dakota","country_id":233,"country_code":"US","country_name":"United States","latitude":"47.57541000","longitude":"-100.34566000","wikiDataId":"Q500598"},{"id":126460,"Name":"Sioux County","state_id":1418,"state_code":"ND","state_name":"North Dakota","country_id":233,"country_code":"US","country_name":"United States","latitude":"46.11265000","longitude":"-101.04034000","wikiDataId":"Q48850"},{"id":126507,"Name":"Slope County","state_id":1418,"state_code":"ND","state_name":"North Dakota","country_id":233,"country_code":"US","country_name":"United States","latitude":"46.44722000","longitude":"-103.45990000","wikiDataId":"Q511487"},{"id":126961,"Name":"Stanley","state_id":1418,"state_code":"ND","state_name":"North Dakota","country_id":233,"country_code":"US","country_name":"United States","latitude":"48.31724000","longitude":"-102.39045000","wikiDataId":"Q1999227"},{"id":126970,"Name":"Stanton","state_id":1418,"state_code":"ND","state_name":"North Dakota","country_id":233,"country_code":"US","country_name":"United States","latitude":"47.32111000","longitude":"-101.38155000","wikiDataId":"Q1001435"},{"id":126985,"Name":"Stark County","state_id":1418,"state_code":"ND","state_name":"North Dakota","country_id":233,"country_code":"US","country_name":"United States","latitude":"46.81068000","longitude":"-102.65513000","wikiDataId":"Q282188"},{"id":127009,"Name":"Steele","state_id":1418,"state_code":"ND","state_name":"North Dakota","country_id":233,"country_code":"US","country_name":"United States","latitude":"46.85471000","longitude":"-99.91594000","wikiDataId":"Q2018815"},{"id":127011,"Name":"Steele County","state_id":1418,"state_code":"ND","state_name":"North Dakota","country_id":233,"country_code":"US","country_name":"United States","latitude":"47.45615000","longitude":"-97.72467000","wikiDataId":"Q511478"},{"id":127154,"Name":"Stutsman County","state_id":1418,"state_code":"ND","state_name":"North Dakota","country_id":233,"country_code":"US","country_name":"United States","latitude":"46.97925000","longitude":"-98.95883000","wikiDataId":"Q511498"},{"id":127291,"Name":"Surrey","state_id":1418,"state_code":"ND","state_name":"North Dakota","country_id":233,"country_code":"US","country_name":"United States","latitude":"48.23640000","longitude":"-101.13349000","wikiDataId":"Q523979"},{"id":127591,"Name":"Thompson","state_id":1418,"state_code":"ND","state_name":"North Dakota","country_id":233,"country_code":"US","country_name":"United States","latitude":"47.77359000","longitude":"-97.10980000","wikiDataId":"Q528890"},{"id":127668,"Name":"Tioga","state_id":1418,"state_code":"ND","state_name":"North Dakota","country_id":233,"country_code":"US","country_name":"United States","latitude":"48.39724000","longitude":"-102.93824000","wikiDataId":"Q2016802"},{"id":127761,"Name":"Towner","state_id":1418,"state_code":"ND","state_name":"North Dakota","country_id":233,"country_code":"US","country_name":"United States","latitude":"48.34583000","longitude":"-100.40541000","wikiDataId":"Q1998298"},{"id":127762,"Name":"Towner County","state_id":1418,"state_code":"ND","state_name":"North Dakota","country_id":233,"country_code":"US","country_name":"United States","latitude":"48.68554000","longitude":"-99.24580000","wikiDataId":"Q511510"},{"id":127778,"Name":"Traill County","state_id":1418,"state_code":"ND","state_name":"North Dakota","country_id":233,"country_code":"US","country_name":"United States","latitude":"47.45418000","longitude":"-97.16158000","wikiDataId":"Q511524"},{"id":128101,"Name":"Valley City","state_id":1418,"state_code":"ND","state_name":"North Dakota","country_id":233,"country_code":"US","country_name":"United States","latitude":"46.92331000","longitude":"-98.00315000","wikiDataId":"Q1407484"},{"id":128165,"Name":"Velva","state_id":1418,"state_code":"ND","state_name":"North Dakota","country_id":233,"country_code":"US","country_name":"United States","latitude":"48.05612000","longitude":"-100.92932000","wikiDataId":"Q2278261"},{"id":128335,"Name":"Wahpeton","state_id":1418,"state_code":"ND","state_name":"North Dakota","country_id":233,"country_code":"US","country_name":"United States","latitude":"46.26524000","longitude":"-96.60591000","wikiDataId":"Q1996092"},{"id":128427,"Name":"Walsh County","state_id":1418,"state_code":"ND","state_name":"North Dakota","country_id":233,"country_code":"US","country_name":"United States","latitude":"48.36946000","longitude":"-97.72137000","wikiDataId":"Q28286"},{"id":128459,"Name":"Ward County","state_id":1418,"state_code":"ND","state_name":"North Dakota","country_id":233,"country_code":"US","country_name":"United States","latitude":"48.22175000","longitude":"-101.54183000","wikiDataId":"Q48927"},{"id":128535,"Name":"Washburn","state_id":1418,"state_code":"ND","state_name":"North Dakota","country_id":233,"country_code":"US","country_name":"United States","latitude":"47.28916000","longitude":"-101.02903000","wikiDataId":"Q2018717"},{"id":128632,"Name":"Watford City","state_id":1418,"state_code":"ND","state_name":"North Dakota","country_id":233,"country_code":"US","country_name":"United States","latitude":"47.80224000","longitude":"-103.28325000","wikiDataId":"Q1998384"},{"id":128787,"Name":"Wells County","state_id":1418,"state_code":"ND","state_name":"North Dakota","country_id":233,"country_code":"US","country_name":"United States","latitude":"47.58753000","longitude":"-99.66095000","wikiDataId":"Q48874"},{"id":128869,"Name":"West Fargo","state_id":1418,"state_code":"ND","state_name":"North Dakota","country_id":233,"country_code":"US","country_name":"United States","latitude":"46.87497000","longitude":"-96.90036000","wikiDataId":"Q1001721"},{"id":129264,"Name":"Williams County","state_id":1418,"state_code":"ND","state_name":"North Dakota","country_id":233,"country_code":"US","country_name":"United States","latitude":"48.34368000","longitude":"-103.48021000","wikiDataId":"Q28496"},{"id":129299,"Name":"Williston","state_id":1418,"state_code":"ND","state_name":"North Dakota","country_id":233,"country_code":"US","country_name":"United States","latitude":"48.14697000","longitude":"-103.61797000","wikiDataId":"Q1999172"}]