[{"id":55056,"Name":"Arrondissement de Fort Liberté","state_id":4121,"state_code":"NE","state_name":"Nord-Est","country_id":95,"country_code":"HT","country_name":"Haiti","latitude":"19.56667000","longitude":"-71.83333000","wikiDataId":"Q2703974"},{"id":55069,"Name":"Arrondissement du Trou du Nord","state_id":4121,"state_code":"NE","state_name":"Nord-Est","country_id":95,"country_code":"HT","country_name":"Haiti","latitude":"19.55000000","longitude":"-71.98333000","wikiDataId":"Q2703974"},{"id":55077,"Name":"Caracol","state_id":4121,"state_code":"NE","state_name":"Nord-Est","country_id":95,"country_code":"HT","country_name":"Haiti","latitude":"19.69274000","longitude":"-72.01733000","wikiDataId":"Q2670981"},{"id":55078,"Name":"Carice","state_id":4121,"state_code":"NE","state_name":"Nord-Est","country_id":95,"country_code":"HT","country_name":"Haiti","latitude":"19.37795000","longitude":"-71.83030000","wikiDataId":"Q2638036"},{"id":55093,"Name":"Dérac","state_id":4121,"state_code":"NE","state_name":"Nord-Est","country_id":95,"country_code":"HT","country_name":"Haiti","latitude":"19.65476000","longitude":"-71.81451000","wikiDataId":"Q2430230"},{"id":55096,"Name":"Ferrier","state_id":4121,"state_code":"NE","state_name":"Nord-Est","country_id":95,"country_code":"HT","country_name":"Haiti","latitude":"19.61549000","longitude":"-71.77792000","wikiDataId":"Q2637933"},{"id":55101,"Name":"Fort Liberté","state_id":4121,"state_code":"NE","state_name":"Nord-Est","country_id":95,"country_code":"HT","country_name":"Haiti","latitude":"19.66273000","longitude":"-71.83798000","wikiDataId":"Q2711238"},{"id":55131,"Name":"Montòrganize","state_id":4121,"state_code":"NE","state_name":"Nord-Est","country_id":95,"country_code":"HT","country_name":"Haiti","latitude":"19.40815000","longitude":"-71.78132000","wikiDataId":"Q1707505"},{"id":55135,"Name":"Ouanaminthe","state_id":4121,"state_code":"NE","state_name":"Nord-Est","country_id":95,"country_code":"HT","country_name":"Haiti","latitude":"19.54934000","longitude":"-71.72475000","wikiDataId":"Q1013066"},{"id":55136,"Name":"Perches","state_id":4121,"state_code":"NE","state_name":"Nord-Est","country_id":95,"country_code":"HT","country_name":"Haiti","latitude":"19.52201000","longitude":"-71.92323000","wikiDataId":"Q1013066"},{"id":55140,"Name":"Phaëton","state_id":4121,"state_code":"NE","state_name":"Nord-Est","country_id":95,"country_code":"HT","country_name":"Haiti","latitude":"19.67525000","longitude":"-71.89691000","wikiDataId":"Q2637915"},{"id":55165,"Name":"Trou du Nord","state_id":4121,"state_code":"NE","state_name":"Nord-Est","country_id":95,"country_code":"HT","country_name":"Haiti","latitude":"19.61668000","longitude":"-72.02442000","wikiDataId":"Q2198738"},{"id":55167,"Name":"Wanament","state_id":4121,"state_code":"NE","state_name":"Nord-Est","country_id":95,"country_code":"HT","country_name":"Haiti","latitude":"19.48333000","longitude":"-71.76667000","wikiDataId":"Q777676"}]