[{"id":97812,"Name":"Batetskiy","state_id":1834,"state_code":"NGR","state_name":"Novgorod Oblast","country_id":182,"country_code":"RU","country_name":"Russia","latitude":"58.64610000","longitude":"30.30268000","wikiDataId":"Q1970884"},{"id":97813,"Name":"Batetskiy Rayon","state_id":1834,"state_code":"NGR","state_name":"Novgorod Oblast","country_id":182,"country_code":"RU","country_name":"Russia","latitude":"58.58333000","longitude":"30.50000000","wikiDataId":"Q2707173"},{"id":98034,"Name":"Borovichi","state_id":1834,"state_code":"NGR","state_name":"Novgorod Oblast","country_id":182,"country_code":"RU","country_name":"Russia","latitude":"58.38778000","longitude":"33.91546000","wikiDataId":"Q132714"},{"id":98035,"Name":"Borovichskiy Rayon","state_id":1834,"state_code":"NGR","state_name":"Novgorod Oblast","country_id":182,"country_code":"RU","country_name":"Russia","latitude":"58.50000000","longitude":"34.00000000","wikiDataId":"Q2711868"},{"id":98214,"Name":"Chudovo","state_id":1834,"state_code":"NGR","state_name":"Novgorod Oblast","country_id":182,"country_code":"RU","country_name":"Russia","latitude":"59.11667000","longitude":"31.68333000","wikiDataId":"Q198135"},{"id":98215,"Name":"Chudovskiy Rayon","state_id":1834,"state_code":"NGR","state_name":"Novgorod Oblast","country_id":182,"country_code":"RU","country_name":"Russia","latitude":"59.16667000","longitude":"31.83333000","wikiDataId":"Q2711851"},{"id":98261,"Name":"Demyansk","state_id":1834,"state_code":"NGR","state_name":"Novgorod Oblast","country_id":182,"country_code":"RU","country_name":"Russia","latitude":"57.64301000","longitude":"32.46600000","wikiDataId":"Q372935"},{"id":98262,"Name":"Demyanskiy Rayon","state_id":1834,"state_code":"NGR","state_name":"Novgorod Oblast","country_id":182,"country_code":"RU","country_name":"Russia","latitude":"57.58333000","longitude":"32.75000000","wikiDataId":"Q2627857"},{"id":98992,"Name":"Kholm","state_id":1834,"state_code":"NGR","state_name":"Novgorod Oblast","country_id":182,"country_code":"RU","country_name":"Russia","latitude":"59.26667000","longitude":"32.85000000","wikiDataId":"Q35695413"},{"id":98998,"Name":"Kholmskiy Rayon","state_id":1834,"state_code":"NGR","state_name":"Novgorod Oblast","country_id":182,"country_code":"RU","country_name":"Russia","latitude":"57.08333000","longitude":"31.33333000","wikiDataId":"Q2625658"},{"id":99029,"Name":"Khvoynaya","state_id":1834,"state_code":"NGR","state_name":"Novgorod Oblast","country_id":182,"country_code":"RU","country_name":"Russia","latitude":"58.90000000","longitude":"34.53333000","wikiDataId":"Q3373188"},{"id":99030,"Name":"Khvoyninskiy Rayon","state_id":1834,"state_code":"NGR","state_name":"Novgorod Oblast","country_id":182,"country_code":"RU","country_name":"Russia","latitude":"58.91667000","longitude":"34.50000000","wikiDataId":"Q2707123"},{"id":99301,"Name":"Krasnofarfornyy","state_id":1834,"state_code":"NGR","state_name":"Novgorod Oblast","country_id":182,"country_code":"RU","country_name":"Russia","latitude":"59.13640000","longitude":"31.85023000","wikiDataId":"Q4239138"},{"id":99387,"Name":"Krechevitsy","state_id":1834,"state_code":"NGR","state_name":"Novgorod Oblast","country_id":182,"country_code":"RU","country_name":"Russia","latitude":"58.61703000","longitude":"31.40101000","wikiDataId":"Q4240527"},{"id":99389,"Name":"Krestetskiy Rayon","state_id":1834,"state_code":"NGR","state_name":"Novgorod Oblast","country_id":182,"country_code":"RU","country_name":"Russia","latitude":"58.25000000","longitude":"32.50000000","wikiDataId":"Q1141765"},{"id":99391,"Name":"Kresttsy","state_id":1834,"state_code":"NGR","state_name":"Novgorod Oblast","country_id":182,"country_code":"RU","country_name":"Russia","latitude":"58.24520000","longitude":"32.51647000","wikiDataId":"Q2630120"},{"id":99434,"Name":"Kulotino","state_id":1834,"state_code":"NGR","state_name":"Novgorod Oblast","country_id":182,"country_code":"RU","country_name":"Russia","latitude":"58.45000000","longitude":"33.38333000","wikiDataId":"Q1961027"},{"id":99722,"Name":"Lyubytino","state_id":1834,"state_code":"NGR","state_name":"Novgorod Oblast","country_id":182,"country_code":"RU","country_name":"Russia","latitude":"58.81222000","longitude":"33.39222000","wikiDataId":"Q1961013"},{"id":99723,"Name":"Lyubytinskiy Rayon","state_id":1834,"state_code":"NGR","state_name":"Novgorod Oblast","country_id":182,"country_code":"RU","country_name":"Russia","latitude":"58.83333000","longitude":"33.50000000","wikiDataId":"Q2627864"},{"id":99753,"Name":"Malaya Vishera","state_id":1834,"state_code":"NGR","state_name":"Novgorod Oblast","country_id":182,"country_code":"RU","country_name":"Russia","latitude":"58.84538000","longitude":"32.22218000","wikiDataId":"Q157945"},{"id":99766,"Name":"Malovisherskiy Rayon","state_id":1834,"state_code":"NGR","state_name":"Novgorod Oblast","country_id":182,"country_code":"RU","country_name":"Russia","latitude":"58.75000000","longitude":"32.50000000","wikiDataId":"Q1140755"},{"id":99789,"Name":"Marevo","state_id":1834,"state_code":"NGR","state_name":"Novgorod Oblast","country_id":182,"country_code":"RU","country_name":"Russia","latitude":"57.31461000","longitude":"32.08045000","wikiDataId":"Q1973960"},{"id":99790,"Name":"Marevskiy Rayon","state_id":1834,"state_code":"NGR","state_name":"Novgorod Oblast","country_id":182,"country_code":"RU","country_name":"Russia","latitude":"57.33333000","longitude":"32.25000000","wikiDataId":"Q2627873"},{"id":99973,"Name":"Moshenskoy Rayon","state_id":1834,"state_code":"NGR","state_name":"Novgorod Oblast","country_id":182,"country_code":"RU","country_name":"Russia","latitude":"58.50000000","longitude":"34.75000000","wikiDataId":"Q2373743"},{"id":99974,"Name":"Moshenskoye","state_id":1834,"state_code":"NGR","state_name":"Novgorod Oblast","country_id":182,"country_code":"RU","country_name":"Russia","latitude":"58.51016000","longitude":"34.59108000","wikiDataId":"Q4305272"},{"id":100080,"Name":"Nebolchi","state_id":1834,"state_code":"NGR","state_name":"Novgorod Oblast","country_id":182,"country_code":"RU","country_name":"Russia","latitude":"59.12393000","longitude":"33.34537000","wikiDataId":"Q1970488"},{"id":100213,"Name":"Novgorodskiy Rayon","state_id":1834,"state_code":"NGR","state_name":"Novgorod Oblast","country_id":182,"country_code":"RU","country_name":"Russia","latitude":"58.75000000","longitude":"31.25000000","wikiDataId":"Q2610877"},{"id":100416,"Name":"Okulovka","state_id":1834,"state_code":"NGR","state_name":"Novgorod Oblast","country_id":182,"country_code":"RU","country_name":"Russia","latitude":"58.40083000","longitude":"33.29083000","wikiDataId":"Q176337"},{"id":100417,"Name":"Okulovskiy Rayon","state_id":1834,"state_code":"NGR","state_name":"Novgorod Oblast","country_id":182,"country_code":"RU","country_name":"Russia","latitude":"58.41667000","longitude":"33.25000000","wikiDataId":"Q2624583"},{"id":100454,"Name":"Opechenskiy Posad","state_id":1834,"state_code":"NGR","state_name":"Novgorod Oblast","country_id":182,"country_code":"RU","country_name":"Russia","latitude":"58.27510000","longitude":"34.11731000","wikiDataId":"Q4335348"},{"id":100537,"Name":"Pankovka","state_id":1834,"state_code":"NGR","state_name":"Novgorod Oblast","country_id":182,"country_code":"RU","country_name":"Russia","latitude":"58.50004000","longitude":"31.19990000","wikiDataId":"Q1013799"},{"id":100547,"Name":"Parfino","state_id":1834,"state_code":"NGR","state_name":"Novgorod Oblast","country_id":182,"country_code":"RU","country_name":"Russia","latitude":"57.97306000","longitude":"31.64806000","wikiDataId":"Q2629812"},{"id":100548,"Name":"Parfinskiy Rayon","state_id":1834,"state_code":"NGR","state_name":"Novgorod Oblast","country_id":182,"country_code":"RU","country_name":"Russia","latitude":"58.00000000","longitude":"31.66667000","wikiDataId":"Q2629427"},{"id":100638,"Name":"Pestovo","state_id":1834,"state_code":"NGR","state_name":"Novgorod Oblast","country_id":182,"country_code":"RU","country_name":"Russia","latitude":"58.59382000","longitude":"35.80244000","wikiDataId":"Q178238"},{"id":100639,"Name":"Pestovskiy Rayon","state_id":1834,"state_code":"NGR","state_name":"Novgorod Oblast","country_id":182,"country_code":"RU","country_name":"Russia","latitude":"58.66667000","longitude":"35.66667000","wikiDataId":"Q636384"},{"id":100712,"Name":"Poddor’ye","state_id":1834,"state_code":"NGR","state_name":"Novgorod Oblast","country_id":182,"country_code":"RU","country_name":"Russia","latitude":"57.46947000","longitude":"31.11561000","wikiDataId":"Q4355107"},{"id":100711,"Name":"Poddorskiy Rayon","state_id":1834,"state_code":"NGR","state_name":"Novgorod Oblast","country_id":182,"country_code":"RU","country_name":"Russia","latitude":"57.41667000","longitude":"31.25000000","wikiDataId":"Q2627842"},{"id":100862,"Name":"Proletariy","state_id":1834,"state_code":"NGR","state_name":"Novgorod Oblast","country_id":182,"country_code":"RU","country_name":"Russia","latitude":"58.43423000","longitude":"31.70462000","wikiDataId":"Q3372826"},{"id":101321,"Name":"Shimsk","state_id":1834,"state_code":"NGR","state_name":"Novgorod Oblast","country_id":182,"country_code":"RU","country_name":"Russia","latitude":"58.21201000","longitude":"30.71269000","wikiDataId":"Q2630143"},{"id":101322,"Name":"Shimskiy Rayon","state_id":1834,"state_code":"NGR","state_name":"Novgorod Oblast","country_id":182,"country_code":"RU","country_name":"Russia","latitude":"58.21667000","longitude":"30.71667000","wikiDataId":"Q2627569"},{"id":101473,"Name":"Sol’tsy","state_id":1834,"state_code":"NGR","state_name":"Novgorod Oblast","country_id":182,"country_code":"RU","country_name":"Russia","latitude":"58.12387000","longitude":"30.32377000","wikiDataId":"Q196390"},{"id":101447,"Name":"Soletskiy Rayon","state_id":1834,"state_code":"NGR","state_name":"Novgorod Oblast","country_id":182,"country_code":"RU","country_name":"Russia","latitude":"58.08333000","longitude":"30.25000000","wikiDataId":"Q2627886"},{"id":101563,"Name":"Staraya Russa","state_id":1834,"state_code":"NGR","state_name":"Novgorod Oblast","country_id":182,"country_code":"RU","country_name":"Russia","latitude":"57.99439000","longitude":"31.36081000","wikiDataId":"Q196479"},{"id":101592,"Name":"Starorusskiy Rayon","state_id":1834,"state_code":"NGR","state_name":"Novgorod Oblast","country_id":182,"country_code":"RU","country_name":"Russia","latitude":"58.00000000","longitude":"31.41667000","wikiDataId":"Q2627838"},{"id":102036,"Name":"Uglovka","state_id":1834,"state_code":"NGR","state_name":"Novgorod Oblast","country_id":182,"country_code":"RU","country_name":"Russia","latitude":"58.23917000","longitude":"33.51083000","wikiDataId":"Q2630115"},{"id":102151,"Name":"Utorgosh","state_id":1834,"state_code":"NGR","state_name":"Novgorod Oblast","country_id":182,"country_code":"RU","country_name":"Russia","latitude":"58.28127000","longitude":"30.25344000","wikiDataId":"Q4478942"},{"id":102179,"Name":"Valday","state_id":1834,"state_code":"NGR","state_name":"Novgorod Oblast","country_id":182,"country_code":"RU","country_name":"Russia","latitude":"57.97826000","longitude":"33.24737000","wikiDataId":"Q132947"},{"id":102180,"Name":"Valdayskiy Rayon","state_id":1834,"state_code":"NGR","state_name":"Novgorod Oblast","country_id":182,"country_code":"RU","country_name":"Russia","latitude":"57.91667000","longitude":"33.25000000","wikiDataId":"Q2604949"},{"id":102211,"Name":"Velikiy Novgorod","state_id":1834,"state_code":"NGR","state_name":"Novgorod Oblast","country_id":182,"country_code":"RU","country_name":"Russia","latitude":"58.52131000","longitude":"31.27104000","wikiDataId":"Q2235"},{"id":102347,"Name":"Volkhovskiy","state_id":1834,"state_code":"NGR","state_name":"Novgorod Oblast","country_id":182,"country_code":"RU","country_name":"Russia","latitude":"58.58000000","longitude":"31.31641000","wikiDataId":"Q15245"},{"id":102363,"Name":"Volot","state_id":1834,"state_code":"NGR","state_name":"Novgorod Oblast","country_id":182,"country_code":"RU","country_name":"Russia","latitude":"57.92778000","longitude":"30.70250000","wikiDataId":"Q7662"},{"id":102364,"Name":"Volotovskiy Rayon","state_id":1834,"state_code":"NGR","state_name":"Novgorod Oblast","country_id":182,"country_code":"RU","country_name":"Russia","latitude":"57.83333000","longitude":"30.66667000","wikiDataId":"Q2627879"},{"id":102521,"Name":"Yedrovo","state_id":1834,"state_code":"NGR","state_name":"Novgorod Oblast","country_id":182,"country_code":"RU","country_name":"Russia","latitude":"57.91306000","longitude":"33.62028000","wikiDataId":"Q4174064"},{"id":102660,"Name":"Zarubino","state_id":1834,"state_code":"NGR","state_name":"Novgorod Oblast","country_id":182,"country_code":"RU","country_name":"Russia","latitude":"58.73500000","longitude":"33.47556000","wikiDataId":"Q4187611"}]