[{"id":16161,"Name":"Amherst","state_id":874,"state_code":"NS","state_name":"Nova Scotia","country_id":39,"country_code":"CA","country_name":"Canada","latitude":"45.83345000","longitude":"-64.19874000","wikiDataId":"Q470594"},{"id":16170,"Name":"Annapolis County","state_id":874,"state_code":"NS","state_name":"Nova Scotia","country_id":39,"country_code":"CA","country_name":"Canada","latitude":"44.58345000","longitude":"-65.16551000","wikiDataId":"Q564523"},{"id":16171,"Name":"Antigonish","state_id":874,"state_code":"NS","state_name":"Nova Scotia","country_id":39,"country_code":"CA","country_name":"Canada","latitude":"45.61685000","longitude":"-61.99858000","wikiDataId":"Q575483"},{"id":16216,"Name":"Berwick","state_id":874,"state_code":"NS","state_name":"Nova Scotia","country_id":39,"country_code":"CA","country_name":"Canada","latitude":"45.05015000","longitude":"-64.73208000","wikiDataId":"Q2291491"},{"id":16242,"Name":"Bridgewater","state_id":874,"state_code":"NS","state_name":"Nova Scotia","country_id":39,"country_code":"CA","country_name":"Canada","latitude":"44.37856000","longitude":"-64.51882000","wikiDataId":"Q474178"},{"id":16272,"Name":"Cape Breton County","state_id":874,"state_code":"NS","state_name":"Nova Scotia","country_id":39,"country_code":"CA","country_name":"Canada","latitude":"46.00014000","longitude":"-60.31516000","wikiDataId":"Q141635"},{"id":16304,"Name":"Chester","state_id":874,"state_code":"NS","state_name":"Nova Scotia","country_id":39,"country_code":"CA","country_name":"Canada","latitude":"44.54225000","longitude":"-64.23891000","wikiDataId":"Q1070656"},{"id":16322,"Name":"Colchester","state_id":874,"state_code":"NS","state_name":"Nova Scotia","country_id":39,"country_code":"CA","country_name":"Canada","latitude":"45.33345000","longitude":"-63.24868000","wikiDataId":"Q1105193"},{"id":16324,"Name":"Cole Harbour","state_id":874,"state_code":"NS","state_name":"Nova Scotia","country_id":39,"country_code":"CA","country_name":"Canada","latitude":"44.67244000","longitude":"-63.47506000","wikiDataId":"Q2982406"},{"id":16342,"Name":"Cow Bay","state_id":874,"state_code":"NS","state_name":"Nova Scotia","country_id":39,"country_code":"CA","country_name":"Canada","latitude":"44.63141000","longitude":"-63.43218000","wikiDataId":"Q1017477"},{"id":16355,"Name":"Dartmouth","state_id":874,"state_code":"NS","state_name":"Nova Scotia","country_id":39,"country_code":"CA","country_name":"Canada","latitude":"44.67134000","longitude":"-63.57719000","wikiDataId":"Q497373"},{"id":16374,"Name":"Digby","state_id":874,"state_code":"NS","state_name":"Nova Scotia","country_id":39,"country_code":"CA","country_name":"Canada","latitude":"44.62188000","longitude":"-65.75860000","wikiDataId":"Q1224586"},{"id":16375,"Name":"Digby County","state_id":874,"state_code":"NS","state_name":"Nova Scotia","country_id":39,"country_code":"CA","country_name":"Canada","latitude":"44.36685000","longitude":"-65.69884000","wikiDataId":"Q2630244"},{"id":16406,"Name":"English Corner","state_id":874,"state_code":"NS","state_name":"Nova Scotia","country_id":39,"country_code":"CA","country_name":"Canada","latitude":"44.73345000","longitude":"-63.78201000","wikiDataId":"Q3054292"},{"id":16407,"Name":"Eskasoni 3","state_id":874,"state_code":"NS","state_name":"Nova Scotia","country_id":39,"country_code":"CA","country_name":"Canada","latitude":"45.94522000","longitude":"-60.61617000","wikiDataId":"Q3054292"},{"id":16416,"Name":"Fall River","state_id":874,"state_code":"NS","state_name":"Nova Scotia","country_id":39,"country_code":"CA","country_name":"Canada","latitude":"44.81685000","longitude":"-63.61540000","wikiDataId":"Q1744221"},{"id":16454,"Name":"Glace Bay","state_id":874,"state_code":"NS","state_name":"Nova Scotia","country_id":39,"country_code":"CA","country_name":"Canada","latitude":"46.19695000","longitude":"-59.95698000","wikiDataId":"Q3108251"},{"id":16475,"Name":"Greenwood","state_id":874,"state_code":"NS","state_name":"Nova Scotia","country_id":39,"country_code":"CA","country_name":"Canada","latitude":"44.97413000","longitude":"-64.93169000","wikiDataId":"Q5604945"},{"id":16482,"Name":"Halifax","state_id":874,"state_code":"NS","state_name":"Nova Scotia","country_id":39,"country_code":"CA","country_name":"Canada","latitude":"44.64533000","longitude":"-63.57239000","wikiDataId":"Q1001810"},{"id":16490,"Name":"Hantsport","state_id":874,"state_code":"NS","state_name":"Nova Scotia","country_id":39,"country_code":"CA","country_name":"Canada","latitude":"45.06685000","longitude":"-64.16544000","wikiDataId":"Q660265"},{"id":16499,"Name":"Hayes Subdivision","state_id":874,"state_code":"NS","state_name":"Nova Scotia","country_id":39,"country_code":"CA","country_name":"Canada","latitude":"45.05519000","longitude":"-64.58795000","wikiDataId":"Q1013062"},{"id":16539,"Name":"Kentville","state_id":874,"state_code":"NS","state_name":"Nova Scotia","country_id":39,"country_code":"CA","country_name":"Canada","latitude":"45.07710000","longitude":"-64.49605000","wikiDataId":"Q992432"},{"id":16589,"Name":"Lake Echo","state_id":874,"state_code":"NS","state_name":"Nova Scotia","country_id":39,"country_code":"CA","country_name":"Canada","latitude":"44.73345000","longitude":"-63.38198000","wikiDataId":"Q6475523"},{"id":16600,"Name":"Lantz","state_id":874,"state_code":"NS","state_name":"Nova Scotia","country_id":39,"country_code":"CA","country_name":"Canada","latitude":"44.98345000","longitude":"-63.48199000","wikiDataId":"Q3217608"},{"id":16632,"Name":"Lower Sackville","state_id":874,"state_code":"NS","state_name":"Nova Scotia","country_id":39,"country_code":"CA","country_name":"Canada","latitude":"44.77599000","longitude":"-63.67865000","wikiDataId":"Q141410"},{"id":16637,"Name":"Lunenburg","state_id":874,"state_code":"NS","state_name":"Nova Scotia","country_id":39,"country_code":"CA","country_name":"Canada","latitude":"44.37847000","longitude":"-64.31658000","wikiDataId":"Q105441"},{"id":16686,"Name":"Middleton","state_id":874,"state_code":"NS","state_name":"Nova Scotia","country_id":39,"country_code":"CA","country_name":"Canada","latitude":"44.94284000","longitude":"-65.07022000","wikiDataId":"Q3312661"},{"id":16739,"Name":"New Glasgow","state_id":874,"state_code":"NS","state_name":"Nova Scotia","country_id":39,"country_code":"CA","country_name":"Canada","latitude":"45.58344000","longitude":"-62.64863000","wikiDataId":"Q286048"},{"id":16791,"Name":"Oxford","state_id":874,"state_code":"NS","state_name":"Nova Scotia","country_id":39,"country_code":"CA","country_name":"Canada","latitude":"45.73345000","longitude":"-63.86542000","wikiDataId":"Q3248963"},{"id":16799,"Name":"Parrsboro","state_id":874,"state_code":"NS","state_name":"Nova Scotia","country_id":39,"country_code":"CA","country_name":"Canada","latitude":"45.40567000","longitude":"-64.32585000","wikiDataId":"Q499355"},{"id":16818,"Name":"Pictou","state_id":874,"state_code":"NS","state_name":"Nova Scotia","country_id":39,"country_code":"CA","country_name":"Canada","latitude":"45.67875000","longitude":"-62.70936000","wikiDataId":"Q1018711"},{"id":16819,"Name":"Pictou County","state_id":874,"state_code":"NS","state_name":"Nova Scotia","country_id":39,"country_code":"CA","country_name":"Canada","latitude":"45.50015000","longitude":"-62.58193000","wikiDataId":"Q2092485"},{"id":16840,"Name":"Port Hawkesbury","state_id":874,"state_code":"NS","state_name":"Nova Scotia","country_id":39,"country_code":"CA","country_name":"Canada","latitude":"45.61685000","longitude":"-61.34853000","wikiDataId":"Q2326975"},{"id":16846,"Name":"Port Williams","state_id":874,"state_code":"NS","state_name":"Nova Scotia","country_id":39,"country_code":"CA","country_name":"Canada","latitude":"45.10015000","longitude":"-64.41546000","wikiDataId":"Q7230953"},{"id":16859,"Name":"Princeville","state_id":874,"state_code":"NS","state_name":"Nova Scotia","country_id":39,"country_code":"CA","country_name":"Canada","latitude":"45.76684000","longitude":"-61.29853000","wikiDataId":"Q1020218"},{"id":17037,"Name":"Shelburne","state_id":874,"state_code":"NS","state_name":"Nova Scotia","country_id":39,"country_code":"CA","country_name":"Canada","latitude":"43.76325000","longitude":"-65.32355000","wikiDataId":"Q1693101"},{"id":17064,"Name":"Springhill","state_id":874,"state_code":"NS","state_name":"Nova Scotia","country_id":39,"country_code":"CA","country_name":"Canada","latitude":"45.65015000","longitude":"-64.04873000","wikiDataId":"Q1000316"},{"id":17095,"Name":"Sydney","state_id":874,"state_code":"NS","state_name":"Nova Scotia","country_id":39,"country_code":"CA","country_name":"Canada","latitude":"46.13510000","longitude":"-60.18310000","wikiDataId":"Q932261"},{"id":17096,"Name":"Sydney Mines","state_id":874,"state_code":"NS","state_name":"Nova Scotia","country_id":39,"country_code":"CA","country_name":"Canada","latitude":"46.23669000","longitude":"-60.21767000","wikiDataId":"Q7660041"},{"id":17127,"Name":"Truro","state_id":874,"state_code":"NS","state_name":"Nova Scotia","country_id":39,"country_code":"CA","country_name":"Canada","latitude":"45.36685000","longitude":"-63.26538000","wikiDataId":"Q283064"},{"id":17211,"Name":"Windsor","state_id":874,"state_code":"NS","state_name":"Nova Scotia","country_id":39,"country_code":"CA","country_name":"Canada","latitude":"44.98345000","longitude":"-64.13204000","wikiDataId":"Q1973829"},{"id":17216,"Name":"Wolfville","state_id":874,"state_code":"NS","state_name":"Nova Scotia","country_id":39,"country_code":"CA","country_name":"Canada","latitude":"45.08345000","longitude":"-64.36546000","wikiDataId":"Q475953"},{"id":17220,"Name":"Yarmouth","state_id":874,"state_code":"NS","state_name":"Nova Scotia","country_id":39,"country_code":"CA","country_name":"Canada","latitude":"43.83345000","longitude":"-66.11557000","wikiDataId":"Q864688"}]