[{"id":15764,"Name":"Maun","state_id":3065,"state_code":"NW","state_name":"North-West District","country_id":29,"country_code":"BW","country_name":"Botswana","latitude":"-19.98333000","longitude":"23.41667000","wikiDataId":"Q166327"},{"id":15780,"Name":"Nokaneng","state_id":3065,"state_code":"NW","state_name":"North-West District","country_id":29,"country_code":"BW","country_name":"Botswana","latitude":"-19.66667000","longitude":"22.26667000","wikiDataId":"Q171157"},{"id":15784,"Name":"Pandamatenga","state_id":3065,"state_code":"NW","state_name":"North-West District","country_id":29,"country_code":"BW","country_name":"Botswana","latitude":"-18.52779000","longitude":"25.62698000","wikiDataId":"Q170908"},{"id":15793,"Name":"Sehithwa","state_id":3065,"state_code":"NW","state_name":"North-West District","country_id":29,"country_code":"BW","country_name":"Botswana","latitude":"-20.46667000","longitude":"22.71667000","wikiDataId":"Q166923"},{"id":15796,"Name":"Shakawe","state_id":3065,"state_code":"NW","state_name":"North-West District","country_id":29,"country_code":"BW","country_name":"Botswana","latitude":"-18.36536000","longitude":"21.84219000","wikiDataId":"Q170663"}]