[{"id":131039,"Name":"Bloemhof","state_id":934,"state_code":"NW","state_name":"North West","country_id":204,"country_code":"ZA","country_name":"South Africa","latitude":"-27.64685000","longitude":"25.60697000","wikiDataId":"Q2633575"},{"id":131041,"Name":"Bojanala Platinum District Municipality","state_id":934,"state_code":"NW","state_name":"North West","country_id":204,"country_code":"ZA","country_name":"South Africa","latitude":"-25.42612000","longitude":"27.22430000","wikiDataId":"Q891165"},{"id":131050,"Name":"Brits","state_id":934,"state_code":"NW","state_name":"North West","country_id":204,"country_code":"ZA","country_name":"South Africa","latitude":"-25.63473000","longitude":"27.78022000","wikiDataId":"Q3948"},{"id":131069,"Name":"Christiana","state_id":934,"state_code":"NW","state_name":"North West","country_id":204,"country_code":"ZA","country_name":"South Africa","latitude":"-27.91402000","longitude":"25.16111000","wikiDataId":"Q1082602"},{"id":131087,"Name":"Dr Kenneth Kaunda District Municipality","state_id":934,"state_code":"NW","state_name":"North West","country_id":204,"country_code":"ZA","country_name":"South Africa","latitude":"-26.80678000","longitude":"26.56926000","wikiDataId":"Q1150452"},{"id":131088,"Name":"Dr Ruth Segomotsi Mompati District Municipality","state_id":934,"state_code":"NW","state_name":"North West","country_id":204,"country_code":"ZA","country_name":"South Africa","latitude":"-26.63765000","longitude":"24.27462000","wikiDataId":"Q1254171"},{"id":131108,"Name":"Fochville","state_id":934,"state_code":"NW","state_name":"North West","country_id":204,"country_code":"ZA","country_name":"South Africa","latitude":"-26.48862000","longitude":"27.49387000","wikiDataId":"Q2370739"},{"id":131114,"Name":"Ga-Rankuwa","state_id":934,"state_code":"NW","state_name":"North West","country_id":204,"country_code":"ZA","country_name":"South Africa","latitude":"-25.61692000","longitude":"27.99471000","wikiDataId":"Q2468130"},{"id":131134,"Name":"Jan Kempdorp","state_id":934,"state_code":"NW","state_name":"North West","country_id":204,"country_code":"ZA","country_name":"South Africa","latitude":"-27.92246000","longitude":"24.83051000","wikiDataId":"Q2539888"},{"id":131142,"Name":"Klerksdorp","state_id":934,"state_code":"NW","state_name":"North West","country_id":204,"country_code":"ZA","country_name":"South Africa","latitude":"-26.85213000","longitude":"26.66672000","wikiDataId":"Q1015647"},{"id":131147,"Name":"Koster","state_id":934,"state_code":"NW","state_name":"North West","country_id":204,"country_code":"ZA","country_name":"South Africa","latitude":"-25.86301000","longitude":"26.89756000","wikiDataId":"Q3643783"},{"id":131162,"Name":"Lichtenburg","state_id":934,"state_code":"NW","state_name":"North West","country_id":204,"country_code":"ZA","country_name":"South Africa","latitude":"-26.15200000","longitude":"26.15968000","wikiDataId":"Q2671213"},{"id":131167,"Name":"Mahikeng","state_id":934,"state_code":"NW","state_name":"North West","country_id":204,"country_code":"ZA","country_name":"South Africa","latitude":"-25.86522000","longitude":"25.64421000","wikiDataId":"Q211055"},{"id":131168,"Name":"Maile","state_id":934,"state_code":"NW","state_name":"North West","country_id":204,"country_code":"ZA","country_name":"South Africa","latitude":"-25.44152000","longitude":"27.28165000","wikiDataId":"Q211055"},{"id":131178,"Name":"Mmabatho","state_id":934,"state_code":"NW","state_name":"North West","country_id":204,"country_code":"ZA","country_name":"South Africa","latitude":"-25.85000000","longitude":"25.63333000","wikiDataId":"Q358762"},{"id":131201,"Name":"Ngaka Modiri Molema District Municipality","state_id":934,"state_code":"NW","state_name":"North West","country_id":204,"country_code":"ZA","country_name":"South Africa","latitude":"-25.95559000","longitude":"25.80782000","wikiDataId":"Q1984191"},{"id":131209,"Name":"Orkney","state_id":934,"state_code":"NW","state_name":"North West","country_id":204,"country_code":"ZA","country_name":"South Africa","latitude":"-26.98023000","longitude":"26.67272000","wikiDataId":"Q1788096"},{"id":131229,"Name":"Potchefstroom","state_id":934,"state_code":"NW","state_name":"North West","country_id":204,"country_code":"ZA","country_name":"South Africa","latitude":"-26.71667000","longitude":"27.10000000","wikiDataId":"Q605167"},{"id":131247,"Name":"Rustenburg","state_id":934,"state_code":"NW","state_name":"North West","country_id":204,"country_code":"ZA","country_name":"South Africa","latitude":"-25.66756000","longitude":"27.24208000","wikiDataId":"Q182049"},{"id":131250,"Name":"Schweizer-Reneke","state_id":934,"state_code":"NW","state_name":"North West","country_id":204,"country_code":"ZA","country_name":"South Africa","latitude":"-27.18871000","longitude":"25.32931000","wikiDataId":"Q2568047"},{"id":131265,"Name":"Stilfontein","state_id":934,"state_code":"NW","state_name":"North West","country_id":204,"country_code":"ZA","country_name":"South Africa","latitude":"-26.84493000","longitude":"26.76829000","wikiDataId":"Q2327720"},{"id":131296,"Name":"Vryburg","state_id":934,"state_code":"NW","state_name":"North West","country_id":204,"country_code":"ZA","country_name":"South Africa","latitude":"-26.95659000","longitude":"24.72840000","wikiDataId":"Q1027291"},{"id":131312,"Name":"Wolmaransstad","state_id":934,"state_code":"NW","state_name":"North West","country_id":204,"country_code":"ZA","country_name":"South Africa","latitude":"-27.19740000","longitude":"25.98311000","wikiDataId":"Q3642582"},{"id":131316,"Name":"Zeerust","state_id":934,"state_code":"NW","state_name":"North West","country_id":204,"country_code":"ZA","country_name":"South Africa","latitude":"-25.53695000","longitude":"26.07512000","wikiDataId":"Q184412"}]