[{"id":8068,"Name":"Cahri","state_id":562,"state_code":"NX","state_name":"Nakhchivan Autonomous Republic","country_id":16,"country_code":"AZ","country_name":"Azerbaijan","latitude":"39.34837000","longitude":"45.41557000","wikiDataId":"Q4620218"},{"id":8206,"Name":"Çalxanqala","state_id":562,"state_code":"NX","state_name":"Nakhchivan Autonomous Republic","country_id":16,"country_code":"AZ","country_name":"Azerbaijan","latitude":"39.44167000","longitude":"45.28333000","wikiDataId":"Q4739286"},{"id":8071,"Name":"Culfa","state_id":562,"state_code":"NX","state_name":"Nakhchivan Autonomous Republic","country_id":16,"country_code":"AZ","country_name":"Azerbaijan","latitude":"38.95397000","longitude":"45.62961000","wikiDataId":"Q1013454"},{"id":8072,"Name":"Deste","state_id":562,"state_code":"NX","state_name":"Nakhchivan Autonomous Republic","country_id":16,"country_code":"AZ","country_name":"Azerbaijan","latitude":"38.88375000","longitude":"45.90963000","wikiDataId":"Q4808890"},{"id":8091,"Name":"Heydarabad","state_id":562,"state_code":"NX","state_name":"Nakhchivan Autonomous Republic","country_id":16,"country_code":"AZ","country_name":"Azerbaijan","latitude":"39.72286000","longitude":"44.84846000","wikiDataId":"Q1888054"},{"id":8097,"Name":"Julfa Rayon","state_id":562,"state_code":"NX","state_name":"Nakhchivan Autonomous Republic","country_id":16,"country_code":"AZ","country_name":"Azerbaijan","latitude":"39.16667000","longitude":"45.66667000","wikiDataId":"Q644035"},{"id":8120,"Name":"Nakhchivan","state_id":562,"state_code":"NX","state_name":"Nakhchivan Autonomous Republic","country_id":16,"country_code":"AZ","country_name":"Azerbaijan","latitude":"39.20889000","longitude":"45.41222000","wikiDataId":"Q230104"},{"id":8129,"Name":"Oğlanqala","state_id":562,"state_code":"NX","state_name":"Nakhchivan Autonomous Republic","country_id":16,"country_code":"AZ","country_name":"Azerbaijan","latitude":"39.58694000","longitude":"45.04611000","wikiDataId":"Q7116768"},{"id":8126,"Name":"Ordubad","state_id":562,"state_code":"NX","state_name":"Nakhchivan Autonomous Republic","country_id":16,"country_code":"AZ","country_name":"Azerbaijan","latitude":"38.90961000","longitude":"46.02274000","wikiDataId":"Q1000839"},{"id":8127,"Name":"Ordubad Rayon","state_id":562,"state_code":"NX","state_name":"Nakhchivan Autonomous Republic","country_id":16,"country_code":"AZ","country_name":"Azerbaijan","latitude":"39.08333000","longitude":"45.91667000","wikiDataId":"Q512623"},{"id":8157,"Name":"Qıvraq","state_id":562,"state_code":"NX","state_name":"Nakhchivan Autonomous Republic","country_id":16,"country_code":"AZ","country_name":"Azerbaijan","latitude":"39.39939000","longitude":"45.11513000","wikiDataId":"Q1849093"},{"id":8211,"Name":"Şahbuz","state_id":562,"state_code":"NX","state_name":"Nakhchivan Autonomous Republic","country_id":16,"country_code":"AZ","country_name":"Azerbaijan","latitude":"39.40722000","longitude":"45.57389000","wikiDataId":"Q2159352"},{"id":8170,"Name":"Sedarak","state_id":562,"state_code":"NX","state_name":"Nakhchivan Autonomous Republic","country_id":16,"country_code":"AZ","country_name":"Azerbaijan","latitude":"39.71427000","longitude":"44.88455000","wikiDataId":"Q4404519"},{"id":8172,"Name":"Shahbuz Rayon","state_id":562,"state_code":"NX","state_name":"Nakhchivan Autonomous Republic","country_id":16,"country_code":"AZ","country_name":"Azerbaijan","latitude":"39.41667000","longitude":"45.58333000","wikiDataId":"Q4077334"},{"id":8175,"Name":"Sharur City","state_id":562,"state_code":"NX","state_name":"Nakhchivan Autonomous Republic","country_id":16,"country_code":"AZ","country_name":"Azerbaijan","latitude":"39.55298000","longitude":"44.97993000","wikiDataId":"Q390783"},{"id":8179,"Name":"Sumbatan-diza","state_id":562,"state_code":"NX","state_name":"Nakhchivan Autonomous Republic","country_id":16,"country_code":"AZ","country_name":"Azerbaijan","latitude":"38.94804000","longitude":"45.82572000","wikiDataId":"Q4120917"},{"id":8181,"Name":"Tazakend","state_id":562,"state_code":"NX","state_name":"Nakhchivan Autonomous Republic","country_id":16,"country_code":"AZ","country_name":"Azerbaijan","latitude":"39.15459000","longitude":"45.44282000","wikiDataId":"Q2043944"},{"id":8195,"Name":"Yaycı","state_id":562,"state_code":"NX","state_name":"Nakhchivan Autonomous Republic","country_id":16,"country_code":"AZ","country_name":"Azerbaijan","latitude":"38.94052000","longitude":"45.73244000","wikiDataId":"Q4725222"}]