[{"id":111005,"Name":"Ada","state_id":1421,"state_code":"OK","state_name":"Oklahoma","country_id":233,"country_code":"US","country_name":"United States","latitude":"34.77453000","longitude":"-96.67834000","wikiDataId":"Q345921"},{"id":111009,"Name":"Adair County","state_id":1421,"state_code":"OK","state_name":"Oklahoma","country_id":233,"country_code":"US","country_name":"United States","latitude":"35.88393000","longitude":"-94.65868000","wikiDataId":"Q346959"},{"id":111052,"Name":"Afton","state_id":1421,"state_code":"OK","state_name":"Oklahoma","country_id":233,"country_code":"US","country_name":"United States","latitude":"36.69369000","longitude":"-94.96302000","wikiDataId":"Q616197"},{"id":111158,"Name":"Alfalfa County","state_id":1421,"state_code":"OK","state_name":"Oklahoma","country_id":233,"country_code":"US","country_name":"United States","latitude":"36.73098000","longitude":"-98.32400000","wikiDataId":"Q490796"},{"id":111252,"Name":"Altus","state_id":1421,"state_code":"OK","state_name":"Oklahoma","country_id":233,"country_code":"US","country_name":"United States","latitude":"34.63813000","longitude":"-99.33398000","wikiDataId":"Q446314"},{"id":111256,"Name":"Alva","state_id":1421,"state_code":"OK","state_name":"Oklahoma","country_id":233,"country_code":"US","country_name":"United States","latitude":"36.80499000","longitude":"-98.66718000","wikiDataId":"Q998914"},{"id":111298,"Name":"Anadarko","state_id":1421,"state_code":"OK","state_name":"Oklahoma","country_id":233,"country_code":"US","country_name":"United States","latitude":"35.07256000","longitude":"-98.24366000","wikiDataId":"Q483647"},{"id":111374,"Name":"Antlers","state_id":1421,"state_code":"OK","state_name":"Oklahoma","country_id":233,"country_code":"US","country_name":"United States","latitude":"34.23121000","longitude":"-95.62025000","wikiDataId":"Q2296329"},{"id":111379,"Name":"Apache","state_id":1421,"state_code":"OK","state_name":"Oklahoma","country_id":233,"country_code":"US","country_name":"United States","latitude":"34.89368000","longitude":"-98.36589000","wikiDataId":"Q3287188"},{"id":111412,"Name":"Arapaho","state_id":1421,"state_code":"OK","state_name":"Oklahoma","country_id":233,"country_code":"US","country_name":"United States","latitude":"35.57783000","longitude":"-98.96453000","wikiDataId":"Q626054"},{"id":111442,"Name":"Ardmore","state_id":1421,"state_code":"OK","state_name":"Oklahoma","country_id":233,"country_code":"US","country_name":"United States","latitude":"34.17426000","longitude":"-97.14363000","wikiDataId":"Q639640"},{"id":111459,"Name":"Arkoma","state_id":1421,"state_code":"OK","state_name":"Oklahoma","country_id":233,"country_code":"US","country_name":"United States","latitude":"35.35454000","longitude":"-94.43410000","wikiDataId":"Q673693"},{"id":111483,"Name":"Arnett","state_id":1421,"state_code":"OK","state_name":"Oklahoma","country_id":233,"country_code":"US","country_name":"United States","latitude":"36.13504000","longitude":"-99.77484000","wikiDataId":"Q578195"},{"id":111603,"Name":"Atoka","state_id":1421,"state_code":"OK","state_name":"Oklahoma","country_id":233,"country_code":"US","country_name":"United States","latitude":"34.38593000","longitude":"-96.12833000","wikiDataId":"Q673953"},{"id":111606,"Name":"Atoka County","state_id":1421,"state_code":"OK","state_name":"Oklahoma","country_id":233,"country_code":"US","country_name":"United States","latitude":"34.37372000","longitude":"-96.03783000","wikiDataId":"Q485042"},{"id":111833,"Name":"Barnsdall","state_id":1421,"state_code":"OK","state_name":"Oklahoma","country_id":233,"country_code":"US","country_name":"United States","latitude":"36.56202000","longitude":"-96.16167000","wikiDataId":"Q2461969"},{"id":111860,"Name":"Bartlesville","state_id":1421,"state_code":"OK","state_name":"Oklahoma","country_id":233,"country_code":"US","country_name":"United States","latitude":"36.74731000","longitude":"-95.98082000","wikiDataId":"Q809450"},{"id":111994,"Name":"Beaver","state_id":1421,"state_code":"OK","state_name":"Oklahoma","country_id":233,"country_code":"US","country_name":"United States","latitude":"36.81614000","longitude":"-100.51987000","wikiDataId":"Q2425637"},{"id":111998,"Name":"Beaver County","state_id":1421,"state_code":"OK","state_name":"Oklahoma","country_id":233,"country_code":"US","country_name":"United States","latitude":"36.74971000","longitude":"-100.47678000","wikiDataId":"Q485047"},{"id":112016,"Name":"Beckham County","state_id":1421,"state_code":"OK","state_name":"Oklahoma","country_id":233,"country_code":"US","country_name":"United States","latitude":"35.26871000","longitude":"-99.68192000","wikiDataId":"Q491646"},{"id":112045,"Name":"Beggs","state_id":1421,"state_code":"OK","state_name":"Oklahoma","country_id":233,"country_code":"US","country_name":"United States","latitude":"35.74260000","longitude":"-96.07027000","wikiDataId":"Q2185719"},{"id":112273,"Name":"Bethany","state_id":1421,"state_code":"OK","state_name":"Oklahoma","country_id":233,"country_code":"US","country_name":"United States","latitude":"35.51867000","longitude":"-97.63226000","wikiDataId":"Q1924825"},{"id":112283,"Name":"Bethel Acres","state_id":1421,"state_code":"OK","state_name":"Oklahoma","country_id":233,"country_code":"US","country_name":"United States","latitude":"35.30868000","longitude":"-97.02558000","wikiDataId":"Q2548248"},{"id":112370,"Name":"Bixby","state_id":1421,"state_code":"OK","state_name":"Oklahoma","country_id":233,"country_code":"US","country_name":"United States","latitude":"35.94204000","longitude":"-95.88332000","wikiDataId":"Q941310"},{"id":112396,"Name":"Blackwell","state_id":1421,"state_code":"OK","state_name":"Oklahoma","country_id":233,"country_code":"US","country_name":"United States","latitude":"36.80448000","longitude":"-97.28282000","wikiDataId":"Q2950210"},{"id":112405,"Name":"Blaine County","state_id":1421,"state_code":"OK","state_name":"Oklahoma","country_id":233,"country_code":"US","country_name":"United States","latitude":"35.87525000","longitude":"-98.43346000","wikiDataId":"Q491623"},{"id":112417,"Name":"Blanchard","state_id":1421,"state_code":"OK","state_name":"Oklahoma","country_id":233,"country_code":"US","country_name":"United States","latitude":"35.13784000","longitude":"-97.65809000","wikiDataId":"Q3241314"},{"id":112509,"Name":"Boise City","state_id":1421,"state_code":"OK","state_name":"Oklahoma","country_id":233,"country_code":"US","country_name":"United States","latitude":"36.72947000","longitude":"-102.51324000","wikiDataId":"Q833668"},{"id":112513,"Name":"Boley","state_id":1421,"state_code":"OK","state_name":"Oklahoma","country_id":233,"country_code":"US","country_name":"United States","latitude":"35.49341000","longitude":"-96.48362000","wikiDataId":"Q2399645"},{"id":112702,"Name":"Bray","state_id":1421,"state_code":"OK","state_name":"Oklahoma","country_id":233,"country_code":"US","country_name":"United States","latitude":"34.63786000","longitude":"-97.81753000","wikiDataId":"Q2194777"},{"id":112816,"Name":"Bristow","state_id":1421,"state_code":"OK","state_name":"Oklahoma","country_id":233,"country_code":"US","country_name":"United States","latitude":"35.83063000","longitude":"-96.39112000","wikiDataId":"Q2856388"},{"id":112841,"Name":"Broken Arrow","state_id":1421,"state_code":"OK","state_name":"Oklahoma","country_id":233,"country_code":"US","country_name":"United States","latitude":"36.05260000","longitude":"-95.79082000","wikiDataId":"Q835810"},{"id":112842,"Name":"Broken Bow","state_id":1421,"state_code":"OK","state_name":"Oklahoma","country_id":233,"country_code":"US","country_name":"United States","latitude":"34.02928000","longitude":"-94.73910000","wikiDataId":"Q3241346"},{"id":112961,"Name":"Bryan County","state_id":1421,"state_code":"OK","state_name":"Oklahoma","country_id":233,"country_code":"US","country_name":"United States","latitude":"33.96230000","longitude":"-96.25975000","wikiDataId":"Q491616"},{"id":113008,"Name":"Buffalo","state_id":1421,"state_code":"OK","state_name":"Oklahoma","country_id":233,"country_code":"US","country_name":"United States","latitude":"36.83559000","longitude":"-99.63040000","wikiDataId":"Q742092"},{"id":113088,"Name":"Burns Flat","state_id":1421,"state_code":"OK","state_name":"Oklahoma","country_id":233,"country_code":"US","country_name":"United States","latitude":"35.34894000","longitude":"-99.17036000","wikiDataId":"Q2920502"},{"id":113104,"Name":"Bushyhead","state_id":1421,"state_code":"OK","state_name":"Oklahoma","country_id":233,"country_code":"US","country_name":"United States","latitude":"36.46148000","longitude":"-95.49414000","wikiDataId":"Q2215140"},{"id":113137,"Name":"Byng","state_id":1421,"state_code":"OK","state_name":"Oklahoma","country_id":233,"country_code":"US","country_name":"United States","latitude":"34.86120000","longitude":"-96.66557000","wikiDataId":"Q2993670"},{"id":113155,"Name":"Cache","state_id":1421,"state_code":"OK","state_name":"Oklahoma","country_id":233,"country_code":"US","country_name":"United States","latitude":"34.62952000","longitude":"-98.62867000","wikiDataId":"Q3239711"},{"id":113159,"Name":"Caddo","state_id":1421,"state_code":"OK","state_name":"Oklahoma","country_id":233,"country_code":"US","country_name":"United States","latitude":"34.12676000","longitude":"-96.26332000","wikiDataId":"Q3295724"},{"id":113160,"Name":"Caddo County","state_id":1421,"state_code":"OK","state_name":"Oklahoma","country_id":233,"country_code":"US","country_name":"United States","latitude":"35.17438000","longitude":"-98.37515000","wikiDataId":"Q491590"},{"id":113195,"Name":"Calera","state_id":1421,"state_code":"OK","state_name":"Oklahoma","country_id":233,"country_code":"US","country_name":"United States","latitude":"33.93454000","longitude":"-96.42860000","wikiDataId":"Q2260169"},{"id":113315,"Name":"Canadian County","state_id":1421,"state_code":"OK","state_name":"Oklahoma","country_id":233,"country_code":"US","country_name":"United States","latitude":"35.54244000","longitude":"-97.98238000","wikiDataId":"Q486614"},{"id":113425,"Name":"Carnegie","state_id":1421,"state_code":"OK","state_name":"Oklahoma","country_id":233,"country_code":"US","country_name":"United States","latitude":"35.10367000","longitude":"-98.60367000","wikiDataId":"Q1982359"},{"id":113482,"Name":"Carter County","state_id":1421,"state_code":"OK","state_name":"Oklahoma","country_id":233,"country_code":"US","country_name":"United States","latitude":"34.25086000","longitude":"-97.28579000","wikiDataId":"Q497854"},{"id":113576,"Name":"Catoosa","state_id":1421,"state_code":"OK","state_name":"Oklahoma","country_id":233,"country_code":"US","country_name":"United States","latitude":"36.18899000","longitude":"-95.74582000","wikiDataId":"Q1012360"},{"id":113677,"Name":"Central High","state_id":1421,"state_code":"OK","state_name":"Oklahoma","country_id":233,"country_code":"US","country_name":"United States","latitude":"34.62313000","longitude":"-98.08976000","wikiDataId":"Q2076820"},{"id":113729,"Name":"Chandler","state_id":1421,"state_code":"OK","state_name":"Oklahoma","country_id":233,"country_code":"US","country_name":"United States","latitude":"35.70173000","longitude":"-96.88086000","wikiDataId":"Q993422"},{"id":113823,"Name":"Checotah","state_id":1421,"state_code":"OK","state_name":"Oklahoma","country_id":233,"country_code":"US","country_name":"United States","latitude":"35.47010000","longitude":"-95.52304000","wikiDataId":"Q913745"},{"id":113830,"Name":"Chelsea","state_id":1421,"state_code":"OK","state_name":"Oklahoma","country_id":233,"country_code":"US","country_name":"United States","latitude":"36.53565000","longitude":"-95.43247000","wikiDataId":"Q2260963"},{"id":113847,"Name":"Cherokee","state_id":1421,"state_code":"OK","state_name":"Oklahoma","country_id":233,"country_code":"US","country_name":"United States","latitude":"36.75447000","longitude":"-98.35674000","wikiDataId":"Q2019238"},{"id":113853,"Name":"Cherokee County","state_id":1421,"state_code":"OK","state_name":"Oklahoma","country_id":233,"country_code":"US","country_name":"United States","latitude":"35.90663000","longitude":"-94.99966000","wikiDataId":"Q491633"},{"id":113925,"Name":"Cheyenne","state_id":1421,"state_code":"OK","state_name":"Oklahoma","country_id":233,"country_code":"US","country_name":"United States","latitude":"35.61394000","longitude":"-99.67149000","wikiDataId":"Q1019287"},{"id":113941,"Name":"Chickasha","state_id":1421,"state_code":"OK","state_name":"Oklahoma","country_id":233,"country_code":"US","country_name":"United States","latitude":"35.05257000","longitude":"-97.93643000","wikiDataId":"Q2794790"},{"id":113985,"Name":"Choctaw","state_id":1421,"state_code":"OK","state_name":"Oklahoma","country_id":233,"country_code":"US","country_name":"United States","latitude":"35.49756000","longitude":"-97.26892000","wikiDataId":"Q3098721"},{"id":113988,"Name":"Choctaw County","state_id":1421,"state_code":"OK","state_name":"Oklahoma","country_id":233,"country_code":"US","country_name":"United States","latitude":"34.02662000","longitude":"-95.55214000","wikiDataId":"Q490745"},{"id":113990,"Name":"Chouteau","state_id":1421,"state_code":"OK","state_name":"Oklahoma","country_id":233,"country_code":"US","country_name":"United States","latitude":"36.18593000","longitude":"-95.34302000","wikiDataId":"Q2782630"},{"id":114024,"Name":"Cimarron County","state_id":1421,"state_code":"OK","state_name":"Oklahoma","country_id":233,"country_code":"US","country_name":"United States","latitude":"36.74831000","longitude":"-102.51771000","wikiDataId":"Q485044"},{"id":114107,"Name":"Claremore","state_id":1421,"state_code":"OK","state_name":"Oklahoma","country_id":233,"country_code":"US","country_name":"United States","latitude":"36.31260000","longitude":"-95.61609000","wikiDataId":"Q2046869"},{"id":114237,"Name":"Cleora","state_id":1421,"state_code":"OK","state_name":"Oklahoma","country_id":233,"country_code":"US","country_name":"United States","latitude":"36.57897000","longitude":"-94.97107000","wikiDataId":"Q1850821"},{"id":114245,"Name":"Cleveland","state_id":1421,"state_code":"OK","state_name":"Oklahoma","country_id":233,"country_code":"US","country_name":"United States","latitude":"36.31032000","longitude":"-96.46584000","wikiDataId":"Q2360977"},{"id":114250,"Name":"Cleveland County","state_id":1421,"state_code":"OK","state_name":"Oklahoma","country_id":233,"country_code":"US","country_name":"United States","latitude":"35.20302000","longitude":"-97.32641000","wikiDataId":"Q484603"},{"id":114276,"Name":"Clinton","state_id":1421,"state_code":"OK","state_name":"Oklahoma","country_id":233,"country_code":"US","country_name":"United States","latitude":"35.51561000","longitude":"-98.96731000","wikiDataId":"Q378782"},{"id":114328,"Name":"Coal County","state_id":1421,"state_code":"OK","state_name":"Oklahoma","country_id":233,"country_code":"US","country_name":"United States","latitude":"34.58819000","longitude":"-96.29786000","wikiDataId":"Q490727"},{"id":114336,"Name":"Coalgate","state_id":1421,"state_code":"OK","state_name":"Oklahoma","country_id":233,"country_code":"US","country_name":"United States","latitude":"34.53815000","longitude":"-96.21861000","wikiDataId":"Q2379272"},{"id":114378,"Name":"Colbert","state_id":1421,"state_code":"OK","state_name":"Oklahoma","country_id":233,"country_code":"US","country_name":"United States","latitude":"33.85316000","longitude":"-96.50249000","wikiDataId":"Q2691836"},{"id":114436,"Name":"Collinsville","state_id":1421,"state_code":"OK","state_name":"Oklahoma","country_id":233,"country_code":"US","country_name":"United States","latitude":"36.36454000","longitude":"-95.83888000","wikiDataId":"Q2641980"},{"id":114510,"Name":"Comanche","state_id":1421,"state_code":"OK","state_name":"Oklahoma","country_id":233,"country_code":"US","country_name":"United States","latitude":"34.36897000","longitude":"-97.96392000","wikiDataId":"Q2361094"},{"id":114513,"Name":"Comanche County","state_id":1421,"state_code":"OK","state_name":"Oklahoma","country_id":233,"country_code":"US","country_name":"United States","latitude":"34.66210000","longitude":"-98.47166000","wikiDataId":"Q484590"},{"id":114523,"Name":"Commerce","state_id":1421,"state_code":"OK","state_name":"Oklahoma","country_id":233,"country_code":"US","country_name":"United States","latitude":"36.93340000","longitude":"-94.87301000","wikiDataId":"Q2005257"},{"id":114615,"Name":"Copeland","state_id":1421,"state_code":"OK","state_name":"Oklahoma","country_id":233,"country_code":"US","country_name":"United States","latitude":"36.65591000","longitude":"-94.82829000","wikiDataId":"Q67940"},{"id":114636,"Name":"Cordell","state_id":1421,"state_code":"OK","state_name":"Oklahoma","country_id":233,"country_code":"US","country_name":"United States","latitude":"35.29061000","longitude":"-98.98841000","wikiDataId":"Q2210265"},{"id":114697,"Name":"Cotton County","state_id":1421,"state_code":"OK","state_name":"Oklahoma","country_id":233,"country_code":"US","country_name":"United States","latitude":"34.29024000","longitude":"-98.37223000","wikiDataId":"Q483857"},{"id":114746,"Name":"Coweta","state_id":1421,"state_code":"OK","state_name":"Oklahoma","country_id":233,"country_code":"US","country_name":"United States","latitude":"35.95177000","longitude":"-95.65081000","wikiDataId":"Q3241371"},{"id":114757,"Name":"Craig County","state_id":1421,"state_code":"OK","state_name":"Oklahoma","country_id":233,"country_code":"US","country_name":"United States","latitude":"36.76176000","longitude":"-95.20850000","wikiDataId":"Q490799"},{"id":114789,"Name":"Creek County","state_id":1421,"state_code":"OK","state_name":"Oklahoma","country_id":233,"country_code":"US","country_name":"United States","latitude":"35.90268000","longitude":"-96.37094000","wikiDataId":"Q484596"},{"id":114794,"Name":"Crescent","state_id":1421,"state_code":"OK","state_name":"Oklahoma","country_id":233,"country_code":"US","country_name":"United States","latitude":"35.95254000","longitude":"-97.59477000","wikiDataId":"Q2355030"},{"id":114931,"Name":"Cushing","state_id":1421,"state_code":"OK","state_name":"Oklahoma","country_id":233,"country_code":"US","country_name":"United States","latitude":"35.98506000","longitude":"-96.76697000","wikiDataId":"Q1007904"},{"id":114935,"Name":"Custer County","state_id":1421,"state_code":"OK","state_name":"Oklahoma","country_id":233,"country_code":"US","country_name":"United States","latitude":"35.63886000","longitude":"-99.00150000","wikiDataId":"Q490716"},{"id":114959,"Name":"Cyril","state_id":1421,"state_code":"OK","state_name":"Oklahoma","country_id":233,"country_code":"US","country_name":"United States","latitude":"34.89646000","longitude":"-98.20060000","wikiDataId":"Q2188134"},{"id":115072,"Name":"Davis","state_id":1421,"state_code":"OK","state_name":"Oklahoma","country_id":233,"country_code":"US","country_name":"United States","latitude":"34.50453000","longitude":"-97.11946000","wikiDataId":"Q3240990"},{"id":115187,"Name":"Del City","state_id":1421,"state_code":"OK","state_name":"Oklahoma","country_id":233,"country_code":"US","country_name":"United States","latitude":"35.44201000","longitude":"-97.44087000","wikiDataId":"Q2888698"},{"id":115204,"Name":"Delaware County","state_id":1421,"state_code":"OK","state_name":"Oklahoma","country_id":233,"country_code":"US","country_name":"United States","latitude":"36.40820000","longitude":"-94.80265000","wikiDataId":"Q484752"},{"id":115302,"Name":"Dewey","state_id":1421,"state_code":"OK","state_name":"Oklahoma","country_id":233,"country_code":"US","country_name":"United States","latitude":"36.79592000","longitude":"-95.93554000","wikiDataId":"Q2432009"},{"id":115303,"Name":"Dewey County","state_id":1421,"state_code":"OK","state_name":"Oklahoma","country_id":233,"country_code":"US","country_name":"United States","latitude":"35.98766000","longitude":"-99.00789000","wikiDataId":"Q490722"},{"id":115330,"Name":"Dickson","state_id":1421,"state_code":"OK","state_name":"Oklahoma","country_id":233,"country_code":"US","country_name":"United States","latitude":"34.18732000","longitude":"-96.98446000","wikiDataId":"Q2921614"},{"id":115482,"Name":"Drumright","state_id":1421,"state_code":"OK","state_name":"Oklahoma","country_id":233,"country_code":"US","country_name":"United States","latitude":"35.98840000","longitude":"-96.60113000","wikiDataId":"Q959865"},{"id":115521,"Name":"Duncan","state_id":1421,"state_code":"OK","state_name":"Oklahoma","country_id":233,"country_code":"US","country_name":"United States","latitude":"34.50230000","longitude":"-97.95781000","wikiDataId":"Q3041247"},{"id":115567,"Name":"Durant","state_id":1421,"state_code":"OK","state_name":"Oklahoma","country_id":233,"country_code":"US","country_name":"United States","latitude":"33.99399000","longitude":"-96.37082000","wikiDataId":"Q974953"},{"id":115877,"Name":"Edmond","state_id":1421,"state_code":"OK","state_name":"Oklahoma","country_id":233,"country_code":"US","country_name":"United States","latitude":"35.65283000","longitude":"-97.47810000","wikiDataId":"Q862645"},{"id":115935,"Name":"El Reno","state_id":1421,"state_code":"OK","state_name":"Oklahoma","country_id":233,"country_code":"US","country_name":"United States","latitude":"35.53227000","longitude":"-97.95505000","wikiDataId":"Q1017220"},{"id":115964,"Name":"Elgin","state_id":1421,"state_code":"OK","state_name":"Oklahoma","country_id":233,"country_code":"US","country_name":"United States","latitude":"34.78035000","longitude":"-98.29227000","wikiDataId":"Q431761"},{"id":115983,"Name":"Elk City","state_id":1421,"state_code":"OK","state_name":"Oklahoma","country_id":233,"country_code":"US","country_name":"United States","latitude":"35.41199000","longitude":"-99.40426000","wikiDataId":"Q1007885"},{"id":116031,"Name":"Ellis County","state_id":1421,"state_code":"OK","state_name":"Oklahoma","country_id":233,"country_code":"US","country_name":"United States","latitude":"36.21836000","longitude":"-99.75460000","wikiDataId":"Q485013"},{"id":116138,"Name":"Enid","state_id":1421,"state_code":"OK","state_name":"Oklahoma","country_id":233,"country_code":"US","country_name":"United States","latitude":"36.39559000","longitude":"-97.87839000","wikiDataId":"Q984361"},{"id":116163,"Name":"Erick","state_id":1421,"state_code":"OK","state_name":"Oklahoma","country_id":233,"country_code":"US","country_name":"United States","latitude":"35.21533000","longitude":"-99.86649000","wikiDataId":"Q612755"},{"id":116225,"Name":"Eufaula","state_id":1421,"state_code":"OK","state_name":"Oklahoma","country_id":233,"country_code":"US","country_name":"United States","latitude":"35.28722000","longitude":"-95.58250000","wikiDataId":"Q1762858"},{"id":116302,"Name":"Fairfax","state_id":1421,"state_code":"OK","state_name":"Oklahoma","country_id":233,"country_code":"US","country_name":"United States","latitude":"36.57366000","longitude":"-96.70420000","wikiDataId":"Q2160527"},{"id":116329,"Name":"Fairland","state_id":1421,"state_code":"OK","state_name":"Oklahoma","country_id":233,"country_code":"US","country_name":"United States","latitude":"36.75118000","longitude":"-94.84746000","wikiDataId":"Q2611512"},{"id":116350,"Name":"Fairview","state_id":1421,"state_code":"OK","state_name":"Oklahoma","country_id":233,"country_code":"US","country_name":"United States","latitude":"36.26892000","longitude":"-98.47980000","wikiDataId":"Q2091782"},{"id":116565,"Name":"Fletcher","state_id":1421,"state_code":"OK","state_name":"Oklahoma","country_id":233,"country_code":"US","country_name":"United States","latitude":"34.82312000","longitude":"-98.24422000","wikiDataId":"Q2798043"},{"id":116665,"Name":"Forest Park","state_id":1421,"state_code":"OK","state_name":"Oklahoma","country_id":233,"country_code":"US","country_name":"United States","latitude":"35.50423000","longitude":"-97.44615000","wikiDataId":"Q2614735"},{"id":116713,"Name":"Fort Gibson","state_id":1421,"state_code":"OK","state_name":"Oklahoma","country_id":233,"country_code":"US","country_name":"United States","latitude":"35.79760000","longitude":"-95.25052000","wikiDataId":"Q1018308"},{"id":116886,"Name":"Frederick","state_id":1421,"state_code":"OK","state_name":"Oklahoma","country_id":233,"country_code":"US","country_name":"United States","latitude":"34.39203000","longitude":"-99.01841000","wikiDataId":"Q165941"},{"id":117082,"Name":"Garfield County","state_id":1421,"state_code":"OK","state_name":"Oklahoma","country_id":233,"country_code":"US","country_name":"United States","latitude":"36.37906000","longitude":"-97.78272000","wikiDataId":"Q484729"},{"id":117104,"Name":"Garvin County","state_id":1421,"state_code":"OK","state_name":"Oklahoma","country_id":233,"country_code":"US","country_name":"United States","latitude":"34.70457000","longitude":"-97.30932000","wikiDataId":"Q484616"},{"id":117130,"Name":"Geary","state_id":1421,"state_code":"OK","state_name":"Oklahoma","country_id":233,"country_code":"US","country_name":"United States","latitude":"35.63116000","longitude":"-98.31729000","wikiDataId":"Q3240952"},{"id":117176,"Name":"Geronimo","state_id":1421,"state_code":"OK","state_name":"Oklahoma","country_id":233,"country_code":"US","country_name":"United States","latitude":"34.48119000","longitude":"-98.38311000","wikiDataId":"Q2474112"},{"id":117302,"Name":"Glenpool","state_id":1421,"state_code":"OK","state_name":"Oklahoma","country_id":233,"country_code":"US","country_name":"United States","latitude":"35.95537000","longitude":"-96.00888000","wikiDataId":"Q1023011"},{"id":117365,"Name":"Goldsby","state_id":1421,"state_code":"OK","state_name":"Oklahoma","country_id":233,"country_code":"US","country_name":"United States","latitude":"35.14118000","longitude":"-97.47698000","wikiDataId":"Q2456775"},{"id":117392,"Name":"Goodwell","state_id":1421,"state_code":"OK","state_name":"Oklahoma","country_id":233,"country_code":"US","country_name":"United States","latitude":"36.59530000","longitude":"-101.63655000","wikiDataId":"Q2412367"},{"id":117427,"Name":"Grady County","state_id":1421,"state_code":"OK","state_name":"Oklahoma","country_id":233,"country_code":"US","country_name":"United States","latitude":"35.01694000","longitude":"-97.88411000","wikiDataId":"Q484600"},{"id":117491,"Name":"Granite","state_id":1421,"state_code":"OK","state_name":"Oklahoma","country_id":233,"country_code":"US","country_name":"United States","latitude":"34.96228000","longitude":"-99.38064000","wikiDataId":"Q2324753"},{"id":117510,"Name":"Grant County","state_id":1421,"state_code":"OK","state_name":"Oklahoma","country_id":233,"country_code":"US","country_name":"United States","latitude":"36.79614000","longitude":"-97.78616000","wikiDataId":"Q486621"},{"id":117714,"Name":"Greer County","state_id":1421,"state_code":"OK","state_name":"Oklahoma","country_id":233,"country_code":"US","country_name":"United States","latitude":"34.93570000","longitude":"-99.56080000","wikiDataId":"Q111968"},{"id":117754,"Name":"Grove","state_id":1421,"state_code":"OK","state_name":"Oklahoma","country_id":233,"country_code":"US","country_name":"United States","latitude":"36.59369000","longitude":"-94.76912000","wikiDataId":"Q3241328"},{"id":117812,"Name":"Guthrie","state_id":1421,"state_code":"OK","state_name":"Oklahoma","country_id":233,"country_code":"US","country_name":"United States","latitude":"35.87894000","longitude":"-97.42532000","wikiDataId":"Q777577"},{"id":117818,"Name":"Guymon","state_id":1421,"state_code":"OK","state_name":"Oklahoma","country_id":233,"country_code":"US","country_name":"United States","latitude":"36.68280000","longitude":"-101.48155000","wikiDataId":"Q1920861"},{"id":117867,"Name":"Hall Park","state_id":1421,"state_code":"OK","state_name":"Oklahoma","country_id":233,"country_code":"US","country_name":"United States","latitude":"35.23701000","longitude":"-97.40642000","wikiDataId":"Q2095756"},{"id":118028,"Name":"Harmon County","state_id":1421,"state_code":"OK","state_name":"Oklahoma","country_id":233,"country_code":"US","country_name":"United States","latitude":"34.74412000","longitude":"-99.84628000","wikiDataId":"Q486626"},{"id":118034,"Name":"Harper County","state_id":1421,"state_code":"OK","state_name":"Oklahoma","country_id":233,"country_code":"US","country_name":"United States","latitude":"36.78873000","longitude":"-99.66736000","wikiDataId":"Q485001"},{"id":118038,"Name":"Harrah","state_id":1421,"state_code":"OK","state_name":"Oklahoma","country_id":233,"country_code":"US","country_name":"United States","latitude":"35.48951000","longitude":"-97.16364000","wikiDataId":"Q2450077"},{"id":118103,"Name":"Hartshorne","state_id":1421,"state_code":"OK","state_name":"Oklahoma","country_id":233,"country_code":"US","country_name":"United States","latitude":"34.84510000","longitude":"-95.55748000","wikiDataId":"Q2487031"},{"id":118123,"Name":"Haskell","state_id":1421,"state_code":"OK","state_name":"Oklahoma","country_id":233,"country_code":"US","country_name":"United States","latitude":"35.82038000","longitude":"-95.67415000","wikiDataId":"Q2049844"},{"id":118125,"Name":"Haskell County","state_id":1421,"state_code":"OK","state_name":"Oklahoma","country_id":233,"country_code":"US","country_name":"United States","latitude":"35.22482000","longitude":"-95.11660000","wikiDataId":"Q490690"},{"id":118218,"Name":"Healdton","state_id":1421,"state_code":"OK","state_name":"Oklahoma","country_id":233,"country_code":"US","country_name":"United States","latitude":"34.23315000","longitude":"-97.48780000","wikiDataId":"Q2055051"},{"id":118226,"Name":"Heavener","state_id":1421,"state_code":"OK","state_name":"Oklahoma","country_id":233,"country_code":"US","country_name":"United States","latitude":"34.88927000","longitude":"-94.60078000","wikiDataId":"Q2055138"},{"id":118250,"Name":"Helena","state_id":1421,"state_code":"OK","state_name":"Oklahoma","country_id":233,"country_code":"US","country_name":"United States","latitude":"36.54614000","longitude":"-98.27007000","wikiDataId":"Q517637"},{"id":118292,"Name":"Hennessey","state_id":1421,"state_code":"OK","state_name":"Oklahoma","country_id":233,"country_code":"US","country_name":"United States","latitude":"36.10920000","longitude":"-97.89867000","wikiDataId":"Q2305381"},{"id":118307,"Name":"Henryetta","state_id":1421,"state_code":"OK","state_name":"Oklahoma","country_id":233,"country_code":"US","country_name":"United States","latitude":"35.43983000","longitude":"-95.98194000","wikiDataId":"Q2278965"},{"id":118488,"Name":"Hinton","state_id":1421,"state_code":"OK","state_name":"Oklahoma","country_id":233,"country_code":"US","country_name":"United States","latitude":"35.47144000","longitude":"-98.35562000","wikiDataId":"Q2392475"},{"id":118496,"Name":"Hobart","state_id":1421,"state_code":"OK","state_name":"Oklahoma","country_id":233,"country_code":"US","country_name":"United States","latitude":"35.02950000","longitude":"-99.09313000","wikiDataId":"Q2081308"},{"id":118526,"Name":"Holdenville","state_id":1421,"state_code":"OK","state_name":"Oklahoma","country_id":233,"country_code":"US","country_name":"United States","latitude":"35.08036000","longitude":"-96.39918000","wikiDataId":"Q1007845"},{"id":118547,"Name":"Hollis","state_id":1421,"state_code":"OK","state_name":"Oklahoma","country_id":233,"country_code":"US","country_name":"United States","latitude":"34.68839000","longitude":"-99.91205000","wikiDataId":"Q525880"},{"id":118609,"Name":"Hominy","state_id":1421,"state_code":"OK","state_name":"Oklahoma","country_id":233,"country_code":"US","country_name":"United States","latitude":"36.41424000","longitude":"-96.39530000","wikiDataId":"Q2932032"},{"id":118628,"Name":"Hooker","state_id":1421,"state_code":"OK","state_name":"Oklahoma","country_id":233,"country_code":"US","country_name":"United States","latitude":"36.86003000","longitude":"-101.21350000","wikiDataId":"Q2609168"},{"id":118758,"Name":"Hughes County","state_id":1421,"state_code":"OK","state_name":"Oklahoma","country_id":233,"country_code":"US","country_name":"United States","latitude":"35.04834000","longitude":"-96.25024000","wikiDataId":"Q489327"},{"id":118765,"Name":"Hugo","state_id":1421,"state_code":"OK","state_name":"Oklahoma","country_id":233,"country_code":"US","country_name":"United States","latitude":"34.01066000","longitude":"-95.50968000","wikiDataId":"Q1774840"},{"id":118868,"Name":"Idabel","state_id":1421,"state_code":"OK","state_name":"Oklahoma","country_id":233,"country_code":"US","country_name":"United States","latitude":"33.89566000","longitude":"-94.82633000","wikiDataId":"Q2106941"},{"id":118948,"Name":"Inola","state_id":1421,"state_code":"OK","state_name":"Oklahoma","country_id":233,"country_code":"US","country_name":"United States","latitude":"36.15121000","longitude":"-95.50942000","wikiDataId":"Q2019815"},{"id":119086,"Name":"Jackson County","state_id":1421,"state_code":"OK","state_name":"Oklahoma","country_id":233,"country_code":"US","country_name":"United States","latitude":"34.58797000","longitude":"-99.41476000","wikiDataId":"Q485030"},{"id":119153,"Name":"Jay","state_id":1421,"state_code":"OK","state_name":"Oklahoma","country_id":233,"country_code":"US","country_name":"United States","latitude":"36.42119000","longitude":"-94.79690000","wikiDataId":"Q733055"},{"id":119185,"Name":"Jefferson County","state_id":1421,"state_code":"OK","state_name":"Oklahoma","country_id":233,"country_code":"US","country_name":"United States","latitude":"34.11101000","longitude":"-97.83585000","wikiDataId":"Q485024"},{"id":119217,"Name":"Jenks","state_id":1421,"state_code":"OK","state_name":"Oklahoma","country_id":233,"country_code":"US","country_name":"United States","latitude":"36.02287000","longitude":"-95.96833000","wikiDataId":"Q2237107"},{"id":119282,"Name":"Johnston County","state_id":1421,"state_code":"OK","state_name":"Oklahoma","country_id":233,"country_code":"US","country_name":"United States","latitude":"34.31649000","longitude":"-96.66066000","wikiDataId":"Q486651"},{"id":119291,"Name":"Jones","state_id":1421,"state_code":"OK","state_name":"Oklahoma","country_id":233,"country_code":"US","country_name":"United States","latitude":"35.56589000","longitude":"-97.28698000","wikiDataId":"Q584956"},{"id":119344,"Name":"Justice","state_id":1421,"state_code":"OK","state_name":"Oklahoma","country_id":233,"country_code":"US","country_name":"United States","latitude":"36.29287000","longitude":"-95.56664000","wikiDataId":"Q1939076"},{"id":119401,"Name":"Kay County","state_id":1421,"state_code":"OK","state_name":"Oklahoma","country_id":233,"country_code":"US","country_name":"United States","latitude":"36.81801000","longitude":"-97.14392000","wikiDataId":"Q489318"},{"id":119430,"Name":"Kellyville","state_id":1421,"state_code":"OK","state_name":"Oklahoma","country_id":233,"country_code":"US","country_name":"United States","latitude":"35.94370000","longitude":"-96.21361000","wikiDataId":"Q2513439"},{"id":119503,"Name":"Kenwood","state_id":1421,"state_code":"OK","state_name":"Oklahoma","country_id":233,"country_code":"US","country_name":"United States","latitude":"36.31453000","longitude":"-94.98579000","wikiDataId":"Q4120834"},{"id":119553,"Name":"Kiefer","state_id":1421,"state_code":"OK","state_name":"Oklahoma","country_id":233,"country_code":"US","country_name":"United States","latitude":"35.94482000","longitude":"-96.06528000","wikiDataId":"Q2171473"},{"id":119592,"Name":"Kingfisher","state_id":1421,"state_code":"OK","state_name":"Oklahoma","country_id":233,"country_code":"US","country_name":"United States","latitude":"35.86143000","longitude":"-97.93172000","wikiDataId":"Q1013136"},{"id":119593,"Name":"Kingfisher County","state_id":1421,"state_code":"OK","state_name":"Oklahoma","country_id":233,"country_code":"US","country_name":"United States","latitude":"35.94539000","longitude":"-97.94211000","wikiDataId":"Q267164"},{"id":119622,"Name":"Kingston","state_id":1421,"state_code":"OK","state_name":"Oklahoma","country_id":233,"country_code":"US","country_name":"United States","latitude":"33.99871000","longitude":"-96.71972000","wikiDataId":"Q2443274"},{"id":119647,"Name":"Kiowa County","state_id":1421,"state_code":"OK","state_name":"Oklahoma","country_id":233,"country_code":"US","country_name":"United States","latitude":"34.91637000","longitude":"-98.98087000","wikiDataId":"Q485006"},{"id":119704,"Name":"Konawa","state_id":1421,"state_code":"OK","state_name":"Oklahoma","country_id":233,"country_code":"US","country_name":"United States","latitude":"34.95953000","longitude":"-96.75280000","wikiDataId":"Q2705887"},{"id":119715,"Name":"Krebs","state_id":1421,"state_code":"OK","state_name":"Oklahoma","country_id":233,"country_code":"US","country_name":"United States","latitude":"34.92787000","longitude":"-95.71582000","wikiDataId":"Q427766"},{"id":120116,"Name":"Langston","state_id":1421,"state_code":"OK","state_name":"Oklahoma","country_id":233,"country_code":"US","country_name":"United States","latitude":"35.94505000","longitude":"-97.25531000","wikiDataId":"Q534059"},{"id":120173,"Name":"Latimer County","state_id":1421,"state_code":"OK","state_name":"Oklahoma","country_id":233,"country_code":"US","country_name":"United States","latitude":"34.87606000","longitude":"-95.25042000","wikiDataId":"Q848649"},{"id":120218,"Name":"Laverne","state_id":1421,"state_code":"OK","state_name":"Oklahoma","country_id":233,"country_code":"US","country_name":"United States","latitude":"36.70975000","longitude":"-99.89346000","wikiDataId":"Q2628383"},{"id":120250,"Name":"Lawton","state_id":1421,"state_code":"OK","state_name":"Oklahoma","country_id":233,"country_code":"US","country_name":"United States","latitude":"34.60869000","longitude":"-98.39033000","wikiDataId":"Q503336"},{"id":120259,"Name":"Le Flore County","state_id":1421,"state_code":"OK","state_name":"Oklahoma","country_id":233,"country_code":"US","country_name":"United States","latitude":"34.90030000","longitude":"-94.70339000","wikiDataId":"Q495944"},{"id":120445,"Name":"Lexington","state_id":1421,"state_code":"OK","state_name":"Oklahoma","country_id":233,"country_code":"US","country_name":"United States","latitude":"35.01479000","longitude":"-97.33558000","wikiDataId":"Q1012179"},{"id":120523,"Name":"Lincoln County","state_id":1421,"state_code":"OK","state_name":"Oklahoma","country_id":233,"country_code":"US","country_name":"United States","latitude":"35.70300000","longitude":"-96.88092000","wikiDataId":"Q495899"},{"id":120572,"Name":"Lindsay","state_id":1421,"state_code":"OK","state_name":"Oklahoma","country_id":233,"country_code":"US","country_name":"United States","latitude":"34.83480000","longitude":"-97.60253000","wikiDataId":"Q2927866"},{"id":120687,"Name":"Locust Grove","state_id":1421,"state_code":"OK","state_name":"Oklahoma","country_id":233,"country_code":"US","country_name":"United States","latitude":"36.20009000","longitude":"-95.16774000","wikiDataId":"Q2006311"},{"id":120698,"Name":"Logan County","state_id":1421,"state_code":"OK","state_name":"Oklahoma","country_id":233,"country_code":"US","country_name":"United States","latitude":"35.91934000","longitude":"-97.44332000","wikiDataId":"Q495906"},{"id":120726,"Name":"Lone Grove","state_id":1421,"state_code":"OK","state_name":"Oklahoma","country_id":233,"country_code":"US","country_name":"United States","latitude":"34.17537000","longitude":"-97.26279000","wikiDataId":"Q919139"},{"id":120755,"Name":"Longtown","state_id":1421,"state_code":"OK","state_name":"Oklahoma","country_id":233,"country_code":"US","country_name":"United States","latitude":"35.24538000","longitude":"-95.51276000","wikiDataId":"Q2242974"},{"id":120820,"Name":"Love County","state_id":1421,"state_code":"OK","state_name":"Oklahoma","country_id":233,"country_code":"US","country_name":"United States","latitude":"33.94986000","longitude":"-97.24418000","wikiDataId":"Q489312"},{"id":120894,"Name":"Luther","state_id":1421,"state_code":"OK","state_name":"Oklahoma","country_id":233,"country_code":"US","country_name":"United States","latitude":"35.66173000","longitude":"-97.19559000","wikiDataId":"Q2267586"},{"id":120983,"Name":"Madill","state_id":1421,"state_code":"OK","state_name":"Oklahoma","country_id":233,"country_code":"US","country_name":"United States","latitude":"34.09038000","longitude":"-96.77167000","wikiDataId":"Q1927386"},{"id":121053,"Name":"Major County","state_id":1421,"state_code":"OK","state_name":"Oklahoma","country_id":233,"country_code":"US","country_name":"United States","latitude":"36.31164000","longitude":"-98.53595000","wikiDataId":"Q495839"},{"id":121110,"Name":"Mangum","state_id":1421,"state_code":"OK","state_name":"Oklahoma","country_id":233,"country_code":"US","country_name":"United States","latitude":"34.87200000","longitude":"-99.50426000","wikiDataId":"Q2040743"},{"id":121133,"Name":"Mannford","state_id":1421,"state_code":"OK","state_name":"Oklahoma","country_id":233,"country_code":"US","country_name":"United States","latitude":"36.13341000","longitude":"-96.35446000","wikiDataId":"Q2003150"},{"id":121217,"Name":"Marietta","state_id":1421,"state_code":"OK","state_name":"Oklahoma","country_id":233,"country_code":"US","country_name":"United States","latitude":"33.93704000","longitude":"-97.11668000","wikiDataId":"Q199793"},{"id":121285,"Name":"Marlow","state_id":1421,"state_code":"OK","state_name":"Oklahoma","country_id":233,"country_code":"US","country_name":"United States","latitude":"34.64813000","longitude":"-97.95809000","wikiDataId":"Q2124015"},{"id":121314,"Name":"Marshall County","state_id":1421,"state_code":"OK","state_name":"Oklahoma","country_id":233,"country_code":"US","country_name":"United States","latitude":"34.02449000","longitude":"-96.76913000","wikiDataId":"Q489306"},{"id":121416,"Name":"Maud","state_id":1421,"state_code":"OK","state_name":"Oklahoma","country_id":233,"country_code":"US","country_name":"United States","latitude":"35.13036000","longitude":"-96.77585000","wikiDataId":"Q2608037"},{"id":121435,"Name":"Mayes County","state_id":1421,"state_code":"OK","state_name":"Oklahoma","country_id":233,"country_code":"US","country_name":"United States","latitude":"36.30188000","longitude":"-95.23085000","wikiDataId":"Q495937"},{"id":121452,"Name":"Maysville","state_id":1421,"state_code":"OK","state_name":"Oklahoma","country_id":233,"country_code":"US","country_name":"United States","latitude":"34.81730000","longitude":"-97.40586000","wikiDataId":"Q3287538"},{"id":121462,"Name":"McAlester","state_id":1421,"state_code":"OK","state_name":"Oklahoma","country_id":233,"country_code":"US","country_name":"United States","latitude":"34.93343000","longitude":"-95.76971000","wikiDataId":"Q1994656"},{"id":121469,"Name":"McClain County","state_id":1421,"state_code":"OK","state_name":"Oklahoma","country_id":233,"country_code":"US","country_name":"United States","latitude":"35.00934000","longitude":"-97.44430000","wikiDataId":"Q495862"},{"id":121481,"Name":"McCord","state_id":1421,"state_code":"OK","state_name":"Oklahoma","country_id":233,"country_code":"US","country_name":"United States","latitude":"36.67847000","longitude":"-97.04000000","wikiDataId":"Q2133033"},{"id":121490,"Name":"McCurtain County","state_id":1421,"state_code":"OK","state_name":"Oklahoma","country_id":233,"country_code":"US","country_name":"United States","latitude":"34.11529000","longitude":"-94.77133000","wikiDataId":"Q495851"},{"id":121514,"Name":"McIntosh County","state_id":1421,"state_code":"OK","state_name":"Oklahoma","country_id":233,"country_code":"US","country_name":"United States","latitude":"35.37366000","longitude":"-95.66684000","wikiDataId":"Q495951"},{"id":121536,"Name":"McLoud","state_id":1421,"state_code":"OK","state_name":"Oklahoma","country_id":233,"country_code":"US","country_name":"United States","latitude":"35.43590000","longitude":"-97.09142000","wikiDataId":"Q2127796"},{"id":121591,"Name":"Medford","state_id":1421,"state_code":"OK","state_name":"Oklahoma","country_id":233,"country_code":"US","country_name":"United States","latitude":"36.80697000","longitude":"-97.73366000","wikiDataId":"Q2879033"},{"id":121612,"Name":"Meeker","state_id":1421,"state_code":"OK","state_name":"Oklahoma","country_id":233,"country_code":"US","country_name":"United States","latitude":"35.50340000","longitude":"-96.90280000","wikiDataId":"Q2266788"},{"id":121691,"Name":"Meridian","state_id":1421,"state_code":"OK","state_name":"Oklahoma","country_id":233,"country_code":"US","country_name":"United States","latitude":"34.42731000","longitude":"-97.97809000","wikiDataId":"Q6819280"},{"id":121747,"Name":"Miami","state_id":1421,"state_code":"OK","state_name":"Oklahoma","country_id":233,"country_code":"US","country_name":"United States","latitude":"36.87451000","longitude":"-94.87746000","wikiDataId":"Q2350102"},{"id":121824,"Name":"Midwest City","state_id":1421,"state_code":"OK","state_name":"Oklahoma","country_id":233,"country_code":"US","country_name":"United States","latitude":"35.44951000","longitude":"-97.39670000","wikiDataId":"Q985298"},{"id":121927,"Name":"Minco","state_id":1421,"state_code":"OK","state_name":"Oklahoma","country_id":233,"country_code":"US","country_name":"United States","latitude":"35.31284000","longitude":"-97.94449000","wikiDataId":"Q2084663"},{"id":122200,"Name":"Moore","state_id":1421,"state_code":"OK","state_name":"Oklahoma","country_id":233,"country_code":"US","country_name":"United States","latitude":"35.33951000","longitude":"-97.48670000","wikiDataId":"Q917458"},{"id":122206,"Name":"Mooreland","state_id":1421,"state_code":"OK","state_name":"Oklahoma","country_id":233,"country_code":"US","country_name":"United States","latitude":"36.43920000","longitude":"-99.20482000","wikiDataId":"Q937413"},{"id":122266,"Name":"Morris","state_id":1421,"state_code":"OK","state_name":"Oklahoma","country_id":233,"country_code":"US","country_name":"United States","latitude":"35.60760000","longitude":"-95.86027000","wikiDataId":"Q2361800"},{"id":122325,"Name":"Mounds","state_id":1421,"state_code":"OK","state_name":"Oklahoma","country_id":233,"country_code":"US","country_name":"United States","latitude":"35.87648000","longitude":"-96.06111000","wikiDataId":"Q3287550"},{"id":122456,"Name":"Muldrow","state_id":1421,"state_code":"OK","state_name":"Oklahoma","country_id":233,"country_code":"US","country_name":"United States","latitude":"35.40620000","longitude":"-94.59883000","wikiDataId":"Q774746"},{"id":122494,"Name":"Murray County","state_id":1421,"state_code":"OK","state_name":"Oklahoma","country_id":233,"country_code":"US","country_name":"United States","latitude":"34.48233000","longitude":"-97.06792000","wikiDataId":"Q489477"},{"id":122512,"Name":"Muskogee","state_id":1421,"state_code":"OK","state_name":"Oklahoma","country_id":233,"country_code":"US","country_name":"United States","latitude":"35.74788000","longitude":"-95.36969000","wikiDataId":"Q524233"},{"id":122513,"Name":"Muskogee County","state_id":1421,"state_code":"OK","state_name":"Oklahoma","country_id":233,"country_code":"US","country_name":"United States","latitude":"35.61613000","longitude":"-95.37953000","wikiDataId":"Q495867"},{"id":122515,"Name":"Mustang","state_id":1421,"state_code":"OK","state_name":"Oklahoma","country_id":233,"country_code":"US","country_name":"United States","latitude":"35.38423000","longitude":"-97.72449000","wikiDataId":"Q2525875"},{"id":122820,"Name":"Newcastle","state_id":1421,"state_code":"OK","state_name":"Oklahoma","country_id":233,"country_code":"US","country_name":"United States","latitude":"35.24729000","longitude":"-97.59976000","wikiDataId":"Q3204894"},{"id":122832,"Name":"Newkirk","state_id":1421,"state_code":"OK","state_name":"Oklahoma","country_id":233,"country_code":"US","country_name":"United States","latitude":"36.88225000","longitude":"-97.05337000","wikiDataId":"Q3020762"},{"id":122891,"Name":"Nichols Hills","state_id":1421,"state_code":"OK","state_name":"Oklahoma","country_id":233,"country_code":"US","country_name":"United States","latitude":"35.55089000","longitude":"-97.54893000","wikiDataId":"Q1911298"},{"id":122897,"Name":"Nicoma Park","state_id":1421,"state_code":"OK","state_name":"Oklahoma","country_id":233,"country_code":"US","country_name":"United States","latitude":"35.49117000","longitude":"-97.32309000","wikiDataId":"Q1826451"},{"id":122903,"Name":"Ninnekah","state_id":1421,"state_code":"OK","state_name":"Oklahoma","country_id":233,"country_code":"US","country_name":"United States","latitude":"34.94785000","longitude":"-97.92393000","wikiDataId":"Q2677429"},{"id":122916,"Name":"Noble","state_id":1421,"state_code":"OK","state_name":"Oklahoma","country_id":233,"country_code":"US","country_name":"United States","latitude":"35.13924000","longitude":"-97.39475000","wikiDataId":"Q3240344"},{"id":122917,"Name":"Noble County","state_id":1421,"state_code":"OK","state_name":"Oklahoma","country_id":233,"country_code":"US","country_name":"United States","latitude":"36.38860000","longitude":"-97.23051000","wikiDataId":"Q495570"},{"id":122949,"Name":"Norman","state_id":1421,"state_code":"OK","state_name":"Oklahoma","country_id":233,"country_code":"US","country_name":"United States","latitude":"35.22257000","longitude":"-97.43948000","wikiDataId":"Q40347"},{"id":123209,"Name":"Nowata","state_id":1421,"state_code":"OK","state_name":"Oklahoma","country_id":233,"country_code":"US","country_name":"United States","latitude":"36.70065000","longitude":"-95.63803000","wikiDataId":"Q2620142"},{"id":123210,"Name":"Nowata County","state_id":1421,"state_code":"OK","state_name":"Oklahoma","country_id":233,"country_code":"US","country_name":"United States","latitude":"36.79848000","longitude":"-95.61740000","wikiDataId":"Q495918"},{"id":123279,"Name":"Oakhurst","state_id":1421,"state_code":"OK","state_name":"Oklahoma","country_id":233,"country_code":"US","country_name":"United States","latitude":"36.07537000","longitude":"-96.06444000","wikiDataId":"Q2079137"},{"id":123287,"Name":"Oakland","state_id":1421,"state_code":"OK","state_name":"Oklahoma","country_id":233,"country_code":"US","country_name":"United States","latitude":"34.10010000","longitude":"-96.79389000","wikiDataId":"Q2629463"},{"id":123389,"Name":"Oilton","state_id":1421,"state_code":"OK","state_name":"Oklahoma","country_id":233,"country_code":"US","country_name":"United States","latitude":"36.08451000","longitude":"-96.58363000","wikiDataId":"Q2284602"},{"id":123395,"Name":"Okarche","state_id":1421,"state_code":"OK","state_name":"Oklahoma","country_id":233,"country_code":"US","country_name":"United States","latitude":"35.72588000","longitude":"-97.97644000","wikiDataId":"Q1987297"},{"id":123400,"Name":"Okeene","state_id":1421,"state_code":"OK","state_name":"Oklahoma","country_id":233,"country_code":"US","country_name":"United States","latitude":"36.11615000","longitude":"-98.31702000","wikiDataId":"Q2552599"},{"id":123401,"Name":"Okemah","state_id":1421,"state_code":"OK","state_name":"Oklahoma","country_id":233,"country_code":"US","country_name":"United States","latitude":"35.43259000","longitude":"-96.30501000","wikiDataId":"Q3032300"},{"id":123403,"Name":"Okfuskee County","state_id":1421,"state_code":"OK","state_name":"Oklahoma","country_id":233,"country_code":"US","country_name":"United States","latitude":"35.46546000","longitude":"-96.32280000","wikiDataId":"Q495885"},{"id":123404,"Name":"Oklahoma City","state_id":1421,"state_code":"OK","state_name":"Oklahoma","country_id":233,"country_code":"US","country_name":"United States","latitude":"35.46756000","longitude":"-97.51643000","wikiDataId":"Q34863"},{"id":123405,"Name":"Oklahoma County","state_id":1421,"state_code":"OK","state_name":"Oklahoma","country_id":233,"country_code":"US","country_name":"United States","latitude":"35.55152000","longitude":"-97.40720000","wikiDataId":"Q485038"},{"id":123406,"Name":"Okmulgee","state_id":1421,"state_code":"OK","state_name":"Oklahoma","country_id":233,"country_code":"US","country_name":"United States","latitude":"35.62344000","longitude":"-95.96055000","wikiDataId":"Q991015"},{"id":123407,"Name":"Okmulgee County","state_id":1421,"state_code":"OK","state_name":"Oklahoma","country_id":233,"country_code":"US","country_name":"United States","latitude":"35.64666000","longitude":"-95.96431000","wikiDataId":"Q495930"},{"id":123492,"Name":"Oologah","state_id":1421,"state_code":"OK","state_name":"Oklahoma","country_id":233,"country_code":"US","country_name":"United States","latitude":"36.44704000","longitude":"-95.70832000","wikiDataId":"Q1419292"},{"id":123591,"Name":"Osage County","state_id":1421,"state_code":"OK","state_name":"Oklahoma","country_id":233,"country_code":"US","country_name":"United States","latitude":"36.62919000","longitude":"-96.39849000","wikiDataId":"Q495925"},{"id":123639,"Name":"Ottawa County","state_id":1421,"state_code":"OK","state_name":"Oklahoma","country_id":233,"country_code":"US","country_name":"United States","latitude":"36.83551000","longitude":"-94.81044000","wikiDataId":"Q495564"},{"id":123658,"Name":"Owasso","state_id":1421,"state_code":"OK","state_name":"Oklahoma","country_id":233,"country_code":"US","country_name":"United States","latitude":"36.26954000","longitude":"-95.85471000","wikiDataId":"Q2677698"},{"id":123797,"Name":"Panama","state_id":1421,"state_code":"OK","state_name":"Oklahoma","country_id":233,"country_code":"US","country_name":"United States","latitude":"35.16732000","longitude":"-94.67245000","wikiDataId":"Q2204538"},{"id":123847,"Name":"Park Hill","state_id":1421,"state_code":"OK","state_name":"Oklahoma","country_id":233,"country_code":"US","country_name":"United States","latitude":"35.86120000","longitude":"-94.95884000","wikiDataId":"Q2281349"},{"id":123925,"Name":"Pauls Valley","state_id":1421,"state_code":"OK","state_name":"Oklahoma","country_id":233,"country_code":"US","country_name":"United States","latitude":"34.74008000","longitude":"-97.22225000","wikiDataId":"Q2797403"},{"id":123930,"Name":"Pawhuska","state_id":1421,"state_code":"OK","state_name":"Oklahoma","country_id":233,"country_code":"US","country_name":"United States","latitude":"36.66784000","longitude":"-96.33723000","wikiDataId":"Q1150740"},{"id":123934,"Name":"Pawnee","state_id":1421,"state_code":"OK","state_name":"Oklahoma","country_id":233,"country_code":"US","country_name":"United States","latitude":"36.33783000","longitude":"-96.80392000","wikiDataId":"Q3240408"},{"id":123937,"Name":"Pawnee County","state_id":1421,"state_code":"OK","state_name":"Oklahoma","country_id":233,"country_code":"US","country_name":"United States","latitude":"36.31693000","longitude":"-96.69930000","wikiDataId":"Q489471"},{"id":123946,"Name":"Payne County","state_id":1421,"state_code":"OK","state_name":"Oklahoma","country_id":233,"country_code":"US","country_name":"United States","latitude":"36.07732000","longitude":"-96.97577000","wikiDataId":"Q495873"},{"id":124062,"Name":"Perkins","state_id":1421,"state_code":"OK","state_name":"Oklahoma","country_id":233,"country_code":"US","country_name":"United States","latitude":"35.97394000","longitude":"-97.03364000","wikiDataId":"Q3240354"},{"id":124069,"Name":"Perry","state_id":1421,"state_code":"OK","state_name":"Oklahoma","country_id":233,"country_code":"US","country_name":"United States","latitude":"36.28949000","longitude":"-97.28810000","wikiDataId":"Q2191790"},{"id":124167,"Name":"Piedmont","state_id":1421,"state_code":"OK","state_name":"Oklahoma","country_id":233,"country_code":"US","country_name":"United States","latitude":"35.64200000","longitude":"-97.74643000","wikiDataId":"Q29689"},{"id":124270,"Name":"Pink","state_id":1421,"state_code":"OK","state_name":"Oklahoma","country_id":233,"country_code":"US","country_name":"United States","latitude":"35.26063000","longitude":"-97.11975000","wikiDataId":"Q2710021"},{"id":124295,"Name":"Pittsburg County","state_id":1421,"state_code":"OK","state_name":"Oklahoma","country_id":233,"country_code":"US","country_name":"United States","latitude":"34.92391000","longitude":"-95.74840000","wikiDataId":"Q495479"},{"id":124419,"Name":"Pocola","state_id":1421,"state_code":"OK","state_name":"Oklahoma","country_id":233,"country_code":"US","country_name":"United States","latitude":"35.23121000","longitude":"-94.47800000","wikiDataId":"Q2198735"},{"id":124464,"Name":"Ponca City","state_id":1421,"state_code":"OK","state_name":"Oklahoma","country_id":233,"country_code":"US","country_name":"United States","latitude":"36.70698000","longitude":"-97.08559000","wikiDataId":"Q1778752"},{"id":124478,"Name":"Pontotoc County","state_id":1421,"state_code":"OK","state_name":"Oklahoma","country_id":233,"country_code":"US","country_name":"United States","latitude":"34.72800000","longitude":"-96.68444000","wikiDataId":"Q495856"},{"id":124579,"Name":"Poteau","state_id":1421,"state_code":"OK","state_name":"Oklahoma","country_id":233,"country_code":"US","country_name":"United States","latitude":"35.05371000","longitude":"-94.62356000","wikiDataId":"Q1926095"},{"id":124590,"Name":"Pottawatomie County","state_id":1421,"state_code":"OK","state_name":"Oklahoma","country_id":233,"country_code":"US","country_name":"United States","latitude":"35.20672000","longitude":"-96.94830000","wikiDataId":"Q495880"},{"id":124622,"Name":"Prague","state_id":1421,"state_code":"OK","state_name":"Oklahoma","country_id":233,"country_code":"US","country_name":"United States","latitude":"35.48674000","longitude":"-96.68502000","wikiDataId":"Q1953283"},{"id":124726,"Name":"Pryor","state_id":1421,"state_code":"OK","state_name":"Oklahoma","country_id":233,"country_code":"US","country_name":"United States","latitude":"36.30843000","longitude":"-95.31691000","wikiDataId":"Q3296010"},{"id":124727,"Name":"Pryor Creek","state_id":1421,"state_code":"OK","state_name":"Oklahoma","country_id":233,"country_code":"US","country_name":"United States","latitude":"36.30862000","longitude":"-95.31777000","wikiDataId":"Q3296010"},{"id":124753,"Name":"Purcell","state_id":1421,"state_code":"OK","state_name":"Oklahoma","country_id":233,"country_code":"US","country_name":"United States","latitude":"35.01368000","longitude":"-97.36114000","wikiDataId":"Q2308188"},{"id":124759,"Name":"Pushmataha County","state_id":1421,"state_code":"OK","state_name":"Oklahoma","country_id":233,"country_code":"US","country_name":"United States","latitude":"34.41620000","longitude":"-95.37579000","wikiDataId":"Q489463"},{"id":124804,"Name":"Quinton","state_id":1421,"state_code":"OK","state_name":"Oklahoma","country_id":233,"country_code":"US","country_name":"United States","latitude":"35.12288000","longitude":"-95.37109000","wikiDataId":"Q3287488"},{"id":125144,"Name":"Ringling","state_id":1421,"state_code":"OK","state_name":"Oklahoma","country_id":233,"country_code":"US","country_name":"United States","latitude":"34.17843000","longitude":"-97.59253000","wikiDataId":"Q2539392"},{"id":125347,"Name":"Roger Mills County","state_id":1421,"state_code":"OK","state_name":"Oklahoma","country_id":233,"country_code":"US","country_name":"United States","latitude":"35.68839000","longitude":"-99.69569000","wikiDataId":"Q489332"},{"id":125352,"Name":"Rogers County","state_id":1421,"state_code":"OK","state_name":"Oklahoma","country_id":233,"country_code":"US","country_name":"United States","latitude":"36.37157000","longitude":"-95.60436000","wikiDataId":"Q495912"},{"id":125359,"Name":"Roland","state_id":1421,"state_code":"OK","state_name":"Oklahoma","country_id":233,"country_code":"US","country_name":"United States","latitude":"35.42120000","longitude":"-94.51466000","wikiDataId":"Q2321457"},{"id":125522,"Name":"Rush Springs","state_id":1421,"state_code":"OK","state_name":"Oklahoma","country_id":233,"country_code":"US","country_name":"United States","latitude":"34.78257000","longitude":"-97.95698000","wikiDataId":"Q2772287"},{"id":125745,"Name":"Salina","state_id":1421,"state_code":"OK","state_name":"Oklahoma","country_id":233,"country_code":"US","country_name":"United States","latitude":"36.29287000","longitude":"-95.15330000","wikiDataId":"Q927861"},{"id":125762,"Name":"Sallisaw","state_id":1421,"state_code":"OK","state_name":"Oklahoma","country_id":233,"country_code":"US","country_name":"United States","latitude":"35.46037000","longitude":"-94.78745000","wikiDataId":"Q2984962"},{"id":125861,"Name":"Sand Springs","state_id":1421,"state_code":"OK","state_name":"Oklahoma","country_id":233,"country_code":"US","country_name":"United States","latitude":"36.13981000","longitude":"-96.10889000","wikiDataId":"Q2220501"},{"id":125933,"Name":"Sapulpa","state_id":1421,"state_code":"OK","state_name":"Oklahoma","country_id":233,"country_code":"US","country_name":"United States","latitude":"35.99870000","longitude":"-96.11417000","wikiDataId":"Q3240318"},{"id":125989,"Name":"Sayre","state_id":1421,"state_code":"OK","state_name":"Oklahoma","country_id":233,"country_code":"US","country_name":"United States","latitude":"35.29116000","longitude":"-99.64010000","wikiDataId":"Q2002499"},{"id":126145,"Name":"Seminole","state_id":1421,"state_code":"OK","state_name":"Oklahoma","country_id":233,"country_code":"US","country_name":"United States","latitude":"35.22452000","longitude":"-96.67057000","wikiDataId":"Q1007917"},{"id":126149,"Name":"Seminole County","state_id":1421,"state_code":"OK","state_name":"Oklahoma","country_id":233,"country_code":"US","country_name":"United States","latitude":"35.16749000","longitude":"-96.61552000","wikiDataId":"Q495891"},{"id":126165,"Name":"Sequoyah County","state_id":1421,"state_code":"OK","state_name":"Oklahoma","country_id":233,"country_code":"US","country_name":"United States","latitude":"35.49535000","longitude":"-94.75524000","wikiDataId":"Q495845"},{"id":126241,"Name":"Shattuck","state_id":1421,"state_code":"OK","state_name":"Oklahoma","country_id":233,"country_code":"US","country_name":"United States","latitude":"36.27614000","longitude":"-99.88276000","wikiDataId":"Q3287528"},{"id":126250,"Name":"Shawnee","state_id":1421,"state_code":"OK","state_name":"Oklahoma","country_id":233,"country_code":"US","country_name":"United States","latitude":"35.32729000","longitude":"-96.92530000","wikiDataId":"Q843999"},{"id":126478,"Name":"Skiatook","state_id":1421,"state_code":"OK","state_name":"Oklahoma","country_id":233,"country_code":"US","country_name":"United States","latitude":"36.36842000","longitude":"-96.00138000","wikiDataId":"Q2539627"},{"id":126494,"Name":"Slaughterville","state_id":1421,"state_code":"OK","state_name":"Oklahoma","country_id":233,"country_code":"US","country_name":"United States","latitude":"35.08729000","longitude":"-97.33503000","wikiDataId":"Q2596089"},{"id":126549,"Name":"Snyder","state_id":1421,"state_code":"OK","state_name":"Oklahoma","country_id":233,"country_code":"US","country_name":"United States","latitude":"34.65896000","longitude":"-98.95174000","wikiDataId":"Q603272"},{"id":126822,"Name":"Spencer","state_id":1421,"state_code":"OK","state_name":"Oklahoma","country_id":233,"country_code":"US","country_name":"United States","latitude":"35.52284000","longitude":"-97.37726000","wikiDataId":"Q2600382"},{"id":126833,"Name":"Sperry","state_id":1421,"state_code":"OK","state_name":"Oklahoma","country_id":233,"country_code":"US","country_name":"United States","latitude":"36.29731000","longitude":"-95.99139000","wikiDataId":"Q2317317"},{"id":126840,"Name":"Spiro","state_id":1421,"state_code":"OK","state_name":"Oklahoma","country_id":233,"country_code":"US","country_name":"United States","latitude":"35.24121000","longitude":"-94.61994000","wikiDataId":"Q1968037"},{"id":127022,"Name":"Stephens County","state_id":1421,"state_code":"OK","state_name":"Oklahoma","country_id":233,"country_code":"US","country_name":"United States","latitude":"34.48559000","longitude":"-97.85148000","wikiDataId":"Q495581"},{"id":127057,"Name":"Stigler","state_id":1421,"state_code":"OK","state_name":"Oklahoma","country_id":233,"country_code":"US","country_name":"United States","latitude":"35.25371000","longitude":"-95.12302000","wikiDataId":"Q5674962"},{"id":127060,"Name":"Stillwater","state_id":1421,"state_code":"OK","state_name":"Oklahoma","country_id":233,"country_code":"US","country_name":"United States","latitude":"36.11561000","longitude":"-97.05837000","wikiDataId":"Q852714"},{"id":127064,"Name":"Stilwell","state_id":1421,"state_code":"OK","state_name":"Oklahoma","country_id":233,"country_code":"US","country_name":"United States","latitude":"35.81453000","longitude":"-94.62856000","wikiDataId":"Q1992906"},{"id":127123,"Name":"Stratford","state_id":1421,"state_code":"OK","state_name":"Oklahoma","country_id":233,"country_code":"US","country_name":"United States","latitude":"34.79675000","longitude":"-96.95946000","wikiDataId":"Q2586445"},{"id":127139,"Name":"Stroud","state_id":1421,"state_code":"OK","state_name":"Oklahoma","country_id":233,"country_code":"US","country_name":"United States","latitude":"35.74868000","longitude":"-96.65807000","wikiDataId":"Q2294176"},{"id":127195,"Name":"Sulphur","state_id":1421,"state_code":"OK","state_name":"Oklahoma","country_id":233,"country_code":"US","country_name":"United States","latitude":"34.50787000","longitude":"-96.96835000","wikiDataId":"Q3239732"},{"id":127377,"Name":"Tahlequah","state_id":1421,"state_code":"OK","state_name":"Oklahoma","country_id":233,"country_code":"US","country_name":"United States","latitude":"35.91537000","longitude":"-94.96996000","wikiDataId":"Q736809"},{"id":127388,"Name":"Talihina","state_id":1421,"state_code":"OK","state_name":"Oklahoma","country_id":233,"country_code":"US","country_name":"United States","latitude":"34.75149000","longitude":"-95.04802000","wikiDataId":"Q2610778"},{"id":127398,"Name":"Taloga","state_id":1421,"state_code":"OK","state_name":"Oklahoma","country_id":233,"country_code":"US","country_name":"United States","latitude":"36.03865000","longitude":"-98.96371000","wikiDataId":"Q2443361"},{"id":127478,"Name":"Tecumseh","state_id":1421,"state_code":"OK","state_name":"Oklahoma","country_id":233,"country_code":"US","country_name":"United States","latitude":"35.25785000","longitude":"-96.93669000","wikiDataId":"Q2481815"},{"id":127543,"Name":"Texanna","state_id":1421,"state_code":"OK","state_name":"Oklahoma","country_id":233,"country_code":"US","country_name":"United States","latitude":"35.34732000","longitude":"-95.43692000","wikiDataId":"Q2475790"},{"id":127548,"Name":"Texas County","state_id":1421,"state_code":"OK","state_name":"Oklahoma","country_id":233,"country_code":"US","country_name":"United States","latitude":"36.74791000","longitude":"-101.49001000","wikiDataId":"Q485017"},{"id":127564,"Name":"The Village","state_id":1421,"state_code":"OK","state_name":"Oklahoma","country_id":233,"country_code":"US","country_name":"United States","latitude":"35.56089000","longitude":"-97.55143000","wikiDataId":"Q3240968"},{"id":127578,"Name":"Thomas","state_id":1421,"state_code":"OK","state_name":"Oklahoma","country_id":233,"country_code":"US","country_name":"United States","latitude":"35.74422000","longitude":"-98.74758000","wikiDataId":"Q2614509"},{"id":127650,"Name":"Tillman County","state_id":1421,"state_code":"OK","state_name":"Oklahoma","country_id":233,"country_code":"US","country_name":"United States","latitude":"34.37285000","longitude":"-98.92424000","wikiDataId":"Q489324"},{"id":127682,"Name":"Tishomingo","state_id":1421,"state_code":"OK","state_name":"Oklahoma","country_id":233,"country_code":"US","country_name":"United States","latitude":"34.23621000","longitude":"-96.67861000","wikiDataId":"Q927136"},{"id":127721,"Name":"Tonkawa","state_id":1421,"state_code":"OK","state_name":"Oklahoma","country_id":233,"country_code":"US","country_name":"United States","latitude":"36.67837000","longitude":"-97.31004000","wikiDataId":"Q2091202"},{"id":127888,"Name":"Tulsa","state_id":1421,"state_code":"OK","state_name":"Oklahoma","country_id":233,"country_code":"US","country_name":"United States","latitude":"36.15398000","longitude":"-95.99277000","wikiDataId":"Q44989"},{"id":127889,"Name":"Tulsa County","state_id":1421,"state_code":"OK","state_name":"Oklahoma","country_id":233,"country_code":"US","country_name":"United States","latitude":"36.12108000","longitude":"-95.94148000","wikiDataId":"Q489481"},{"id":127899,"Name":"Turley","state_id":1421,"state_code":"OK","state_name":"Oklahoma","country_id":233,"country_code":"US","country_name":"United States","latitude":"36.24204000","longitude":"-95.97583000","wikiDataId":"Q1865211"},{"id":127918,"Name":"Tuttle","state_id":1421,"state_code":"OK","state_name":"Oklahoma","country_id":233,"country_code":"US","country_name":"United States","latitude":"35.29089000","longitude":"-97.81227000","wikiDataId":"Q3240396"},{"id":127981,"Name":"Union City","state_id":1421,"state_code":"OK","state_name":"Oklahoma","country_id":233,"country_code":"US","country_name":"United States","latitude":"35.39172000","longitude":"-97.94144000","wikiDataId":"Q3470566"},{"id":128181,"Name":"Verdigris","state_id":1421,"state_code":"OK","state_name":"Oklahoma","country_id":233,"country_code":"US","country_name":"United States","latitude":"36.23482000","longitude":"-95.69109000","wikiDataId":"Q3476950"},{"id":128214,"Name":"Vian","state_id":1421,"state_code":"OK","state_name":"Oklahoma","country_id":233,"country_code":"US","country_name":"United States","latitude":"35.49843000","longitude":"-94.96967000","wikiDataId":"Q1928864"},{"id":128277,"Name":"Vinita","state_id":1421,"state_code":"OK","state_name":"Oklahoma","country_id":233,"country_code":"US","country_name":"United States","latitude":"36.63869000","longitude":"-95.15413000","wikiDataId":"Q1003693"},{"id":128329,"Name":"Wagoner","state_id":1421,"state_code":"OK","state_name":"Oklahoma","country_id":233,"country_code":"US","country_name":"United States","latitude":"35.95954000","longitude":"-95.36941000","wikiDataId":"Q2714334"},{"id":128330,"Name":"Wagoner County","state_id":1421,"state_code":"OK","state_name":"Oklahoma","country_id":233,"country_code":"US","country_name":"United States","latitude":"35.96110000","longitude":"-95.52118000","wikiDataId":"Q489457"},{"id":128429,"Name":"Walters","state_id":1421,"state_code":"OK","state_name":"Oklahoma","country_id":233,"country_code":"US","country_name":"United States","latitude":"34.35981000","longitude":"-98.30783000","wikiDataId":"Q2039617"},{"id":128473,"Name":"Warner","state_id":1421,"state_code":"OK","state_name":"Oklahoma","country_id":233,"country_code":"US","country_name":"United States","latitude":"35.49426000","longitude":"-95.30552000","wikiDataId":"Q513445"},{"id":128475,"Name":"Warr Acres","state_id":1421,"state_code":"OK","state_name":"Oklahoma","country_id":233,"country_code":"US","country_name":"United States","latitude":"35.52256000","longitude":"-97.61893000","wikiDataId":"Q3240940"},{"id":128564,"Name":"Washington County","state_id":1421,"state_code":"OK","state_name":"Oklahoma","country_id":233,"country_code":"US","country_name":"United States","latitude":"36.71524000","longitude":"-95.90437000","wikiDataId":"Q489486"},{"id":128589,"Name":"Washita County","state_id":1421,"state_code":"OK","state_name":"Oklahoma","country_id":233,"country_code":"US","country_name":"United States","latitude":"35.29038000","longitude":"-98.99223000","wikiDataId":"Q495958"},{"id":128636,"Name":"Watonga","state_id":1421,"state_code":"OK","state_name":"Oklahoma","country_id":233,"country_code":"US","country_name":"United States","latitude":"35.84477000","longitude":"-98.41313000","wikiDataId":"Q3052936"},{"id":128651,"Name":"Waukomis","state_id":1421,"state_code":"OK","state_name":"Oklahoma","country_id":233,"country_code":"US","country_name":"United States","latitude":"36.28031000","longitude":"-97.89811000","wikiDataId":"Q3287077"},{"id":128659,"Name":"Waurika","state_id":1421,"state_code":"OK","state_name":"Oklahoma","country_id":233,"country_code":"US","country_name":"United States","latitude":"34.16704000","longitude":"-97.99754000","wikiDataId":"Q3240380"},{"id":128717,"Name":"Weatherford","state_id":1421,"state_code":"OK","state_name":"Oklahoma","country_id":233,"country_code":"US","country_name":"United States","latitude":"35.52616000","longitude":"-98.70757000","wikiDataId":"Q2542048"},{"id":129077,"Name":"Westville","state_id":1421,"state_code":"OK","state_name":"Oklahoma","country_id":233,"country_code":"US","country_name":"United States","latitude":"35.99258000","longitude":"-94.56800000","wikiDataId":"Q2166633"},{"id":129091,"Name":"Wetumka","state_id":1421,"state_code":"OK","state_name":"Oklahoma","country_id":233,"country_code":"US","country_name":"United States","latitude":"35.23759000","longitude":"-96.24167000","wikiDataId":"Q2241307"},{"id":129096,"Name":"Wewoka","state_id":1421,"state_code":"OK","state_name":"Oklahoma","country_id":233,"country_code":"US","country_name":"United States","latitude":"35.15869000","longitude":"-96.49335000","wikiDataId":"Q3240303"},{"id":129227,"Name":"Wilburton","state_id":1421,"state_code":"OK","state_name":"Oklahoma","country_id":233,"country_code":"US","country_name":"United States","latitude":"34.91871000","longitude":"-95.30914000","wikiDataId":"Q2740499"},{"id":129330,"Name":"Wilson","state_id":1421,"state_code":"OK","state_name":"Oklahoma","country_id":233,"country_code":"US","country_name":"United States","latitude":"34.16204000","longitude":"-97.42586000","wikiDataId":"Q1928331"},{"id":129463,"Name":"Wister","state_id":1421,"state_code":"OK","state_name":"Oklahoma","country_id":233,"country_code":"US","country_name":"United States","latitude":"34.96732000","longitude":"-94.72467000","wikiDataId":"Q1915380"},{"id":129549,"Name":"Woods County","state_id":1421,"state_code":"OK","state_name":"Oklahoma","country_id":233,"country_code":"US","country_name":"United States","latitude":"36.76694000","longitude":"-98.86512000","wikiDataId":"Q489468"},{"id":129575,"Name":"Woodward","state_id":1421,"state_code":"OK","state_name":"Oklahoma","country_id":233,"country_code":"US","country_name":"United States","latitude":"36.43365000","longitude":"-99.39039000","wikiDataId":"Q2173029"},{"id":129577,"Name":"Woodward County","state_id":1421,"state_code":"OK","state_name":"Oklahoma","country_id":233,"country_code":"US","country_name":"United States","latitude":"36.42267000","longitude":"-99.26497000","wikiDataId":"Q489447"},{"id":129633,"Name":"Wynnewood","state_id":1421,"state_code":"OK","state_name":"Oklahoma","country_id":233,"country_code":"US","country_name":"United States","latitude":"34.64342000","longitude":"-97.16447000","wikiDataId":"Q3241319"},{"id":129654,"Name":"Yale","state_id":1421,"state_code":"OK","state_name":"Oklahoma","country_id":233,"country_code":"US","country_name":"United States","latitude":"36.11423000","longitude":"-96.69919000","wikiDataId":"Q2846167"},{"id":129730,"Name":"Yukon","state_id":1421,"state_code":"OK","state_name":"Oklahoma","country_id":233,"country_code":"US","country_name":"United States","latitude":"35.50672000","longitude":"-97.76254000","wikiDataId":"Q2073642"}]