[{"id":77326,"Name":"Almelo","state_id":2618,"state_code":"OV","state_name":"Overijssel","country_id":156,"country_code":"NL","country_name":"Netherlands","latitude":"52.35667000","longitude":"6.66250000","wikiDataId":"Q33421017"},{"id":77363,"Name":"Baalder","state_id":2618,"state_code":"OV","state_name":"Overijssel","country_id":156,"country_code":"NL","country_name":"Netherlands","latitude":"52.58579000","longitude":"6.65299000","wikiDataId":"Q1616240"},{"id":77418,"Name":"Berkum","state_id":2618,"state_code":"OV","state_name":"Overijssel","country_id":156,"country_code":"NL","country_name":"Netherlands","latitude":"52.52395000","longitude":"6.13655000","wikiDataId":"Q2272260"},{"id":77446,"Name":"Blokzijl","state_id":2618,"state_code":"OV","state_name":"Overijssel","country_id":156,"country_code":"NL","country_name":"Netherlands","latitude":"52.72667000","longitude":"5.96111000","wikiDataId":"Q59605"},{"id":77455,"Name":"Borgele","state_id":2618,"state_code":"OV","state_name":"Overijssel","country_id":156,"country_code":"NL","country_name":"Netherlands","latitude":"52.27630000","longitude":"6.14926000","wikiDataId":"Q1025685"},{"id":77459,"Name":"Borne","state_id":2618,"state_code":"OV","state_name":"Overijssel","country_id":156,"country_code":"NL","country_name":"Netherlands","latitude":"52.30136000","longitude":"6.74820000","wikiDataId":"Q502343"},{"id":77462,"Name":"Boskamp","state_id":2618,"state_code":"OV","state_name":"Overijssel","country_id":156,"country_code":"NL","country_name":"Netherlands","latitude":"52.33083000","longitude":"6.12778000","wikiDataId":"Q508326"},{"id":77494,"Name":"Brunnepe","state_id":2618,"state_code":"OV","state_name":"Overijssel","country_id":156,"country_code":"NL","country_name":"Netherlands","latitude":"52.56185000","longitude":"5.90343000","wikiDataId":"Q16069702"},{"id":77529,"Name":"Dalfsen","state_id":2618,"state_code":"OV","state_name":"Overijssel","country_id":156,"country_code":"NL","country_name":"Netherlands","latitude":"52.51167000","longitude":"6.25694000","wikiDataId":"Q15644904"},{"id":77546,"Name":"De Hoven","state_id":2618,"state_code":"OV","state_name":"Overijssel","country_id":156,"country_code":"NL","country_name":"Netherlands","latitude":"52.24901000","longitude":"6.14367000","wikiDataId":"Q2993272"},{"id":77566,"Name":"Delden","state_id":2618,"state_code":"OV","state_name":"Overijssel","country_id":156,"country_code":"NL","country_name":"Netherlands","latitude":"52.26000000","longitude":"6.71111000","wikiDataId":"Q1007172"},{"id":77572,"Name":"Den Ham","state_id":2618,"state_code":"OV","state_name":"Overijssel","country_id":156,"country_code":"NL","country_name":"Netherlands","latitude":"52.46583000","longitude":"6.49583000","wikiDataId":"Q2594212"},{"id":77576,"Name":"Deventer","state_id":2618,"state_code":"OV","state_name":"Overijssel","country_id":156,"country_code":"NL","country_name":"Netherlands","latitude":"52.25500000","longitude":"6.16389000","wikiDataId":"Q26296883"},{"id":77578,"Name":"Diepenheim","state_id":2618,"state_code":"OV","state_name":"Overijssel","country_id":156,"country_code":"NL","country_name":"Netherlands","latitude":"52.20000000","longitude":"6.55556000","wikiDataId":"Q2243026"},{"id":77662,"Name":"Enschede","state_id":2618,"state_code":"OV","state_name":"Overijssel","country_id":156,"country_code":"NL","country_name":"Netherlands","latitude":"52.21833000","longitude":"6.89583000","wikiDataId":"Q33435365"},{"id":77677,"Name":"Flevowijk","state_id":2618,"state_code":"OV","state_name":"Overijssel","country_id":156,"country_code":"NL","country_name":"Netherlands","latitude":"52.54583000","longitude":"5.91338000","wikiDataId":"Q2483396"},{"id":77679,"Name":"Frankhuis","state_id":2618,"state_code":"OV","state_name":"Overijssel","country_id":156,"country_code":"NL","country_name":"Netherlands","latitude":"52.52500000","longitude":"6.06806000","wikiDataId":"Q41974"},{"id":77703,"Name":"Gemeente Almelo","state_id":2618,"state_code":"OV","state_name":"Overijssel","country_id":156,"country_code":"NL","country_name":"Netherlands","latitude":"52.34463000","longitude":"6.65942000","wikiDataId":"Q988"},{"id":77736,"Name":"Gemeente Borne","state_id":2618,"state_code":"OV","state_name":"Overijssel","country_id":156,"country_code":"NL","country_name":"Netherlands","latitude":"52.31120000","longitude":"6.74404000","wikiDataId":"Q9997"},{"id":77754,"Name":"Gemeente Dalfsen","state_id":2618,"state_code":"OV","state_name":"Overijssel","country_id":156,"country_code":"NL","country_name":"Netherlands","latitude":"52.52461000","longitude":"6.27214000","wikiDataId":"Q9998"},{"id":77764,"Name":"Gemeente Deventer","state_id":2618,"state_code":"OV","state_name":"Overijssel","country_id":156,"country_code":"NL","country_name":"Netherlands","latitude":"52.26927000","longitude":"6.23795000","wikiDataId":"Q10001"},{"id":77766,"Name":"Gemeente Dinkelland","state_id":2618,"state_code":"OV","state_name":"Overijssel","country_id":156,"country_code":"NL","country_name":"Netherlands","latitude":"52.37108000","longitude":"6.89294000","wikiDataId":"Q9999"},{"id":77785,"Name":"Gemeente Enschede","state_id":2618,"state_code":"OV","state_name":"Overijssel","country_id":156,"country_code":"NL","country_name":"Netherlands","latitude":"52.21909000","longitude":"6.88041000","wikiDataId":"Q10002"},{"id":77801,"Name":"Gemeente Haaksbergen","state_id":2618,"state_code":"OV","state_name":"Overijssel","country_id":156,"country_code":"NL","country_name":"Netherlands","latitude":"52.15514000","longitude":"6.75404000","wikiDataId":"Q10003"},{"id":77806,"Name":"Gemeente Hardenberg","state_id":2618,"state_code":"OV","state_name":"Overijssel","country_id":156,"country_code":"NL","country_name":"Netherlands","latitude":"52.59312000","longitude":"6.53476000","wikiDataId":"Q3916626"},{"id":77819,"Name":"Gemeente Hellendoorn","state_id":2618,"state_code":"OV","state_name":"Overijssel","country_id":156,"country_code":"NL","country_name":"Netherlands","latitude":"52.39022000","longitude":"6.46434000","wikiDataId":"Q10005"},{"id":77823,"Name":"Gemeente Hengelo","state_id":2618,"state_code":"OV","state_name":"Overijssel","country_id":156,"country_code":"NL","country_name":"Netherlands","latitude":"52.25910000","longitude":"6.77876000","wikiDataId":"Q10006"},{"id":77829,"Name":"Gemeente Hof van Twente","state_id":2618,"state_code":"OV","state_name":"Overijssel","country_id":156,"country_code":"NL","country_name":"Netherlands","latitude":"52.24341000","longitude":"6.59749000","wikiDataId":"Q9996"},{"id":77839,"Name":"Gemeente Kampen","state_id":2618,"state_code":"OV","state_name":"Overijssel","country_id":156,"country_code":"NL","country_name":"Netherlands","latitude":"52.56181000","longitude":"5.91535000","wikiDataId":"Q23814173"},{"id":77864,"Name":"Gemeente Losser","state_id":2618,"state_code":"OV","state_name":"Overijssel","country_id":156,"country_code":"NL","country_name":"Netherlands","latitude":"52.29819000","longitude":"7.00106000","wikiDataId":"Q10015"},{"id":77896,"Name":"Gemeente Oldenzaal","state_id":2618,"state_code":"OV","state_name":"Overijssel","country_id":156,"country_code":"NL","country_name":"Netherlands","latitude":"52.30750000","longitude":"6.90750000","wikiDataId":"Q10016"},{"id":77897,"Name":"Gemeente Olst-Wijhe","state_id":2618,"state_code":"OV","state_name":"Overijssel","country_id":156,"country_code":"NL","country_name":"Netherlands","latitude":"52.35734000","longitude":"6.13481000","wikiDataId":"Q10017"},{"id":77898,"Name":"Gemeente Ommen","state_id":2618,"state_code":"OV","state_name":"Overijssel","country_id":156,"country_code":"NL","country_name":"Netherlands","latitude":"52.51659000","longitude":"6.45631000","wikiDataId":"Q10018"},{"id":77914,"Name":"Gemeente Raalte","state_id":2618,"state_code":"OV","state_name":"Overijssel","country_id":156,"country_code":"NL","country_name":"Netherlands","latitude":"52.40299000","longitude":"6.28773000","wikiDataId":"Q10019"},{"id":77922,"Name":"Gemeente Rijssen-Holten","state_id":2618,"state_code":"OV","state_name":"Overijssel","country_id":156,"country_code":"NL","country_name":"Netherlands","latitude":"52.29000000","longitude":"6.42515000","wikiDataId":"Q10020"},{"id":77944,"Name":"Gemeente Staphorst","state_id":2618,"state_code":"OV","state_name":"Overijssel","country_id":156,"country_code":"NL","country_name":"Netherlands","latitude":"52.63241000","longitude":"6.20737000","wikiDataId":"Q10021"},{"id":77947,"Name":"Gemeente Steenwijkerland","state_id":2618,"state_code":"OV","state_name":"Overijssel","country_id":156,"country_code":"NL","country_name":"Netherlands","latitude":"52.75587000","longitude":"6.04028000","wikiDataId":"Q10022"},{"id":77956,"Name":"Gemeente Tubbergen","state_id":2618,"state_code":"OV","state_name":"Overijssel","country_id":156,"country_code":"NL","country_name":"Netherlands","latitude":"52.40451000","longitude":"6.78241000","wikiDataId":"Q10023"},{"id":77957,"Name":"Gemeente Twenterand","state_id":2618,"state_code":"OV","state_name":"Overijssel","country_id":156,"country_code":"NL","country_name":"Netherlands","latitude":"52.44974000","longitude":"6.56122000","wikiDataId":"Q10024"},{"id":77996,"Name":"Gemeente Wierden","state_id":2618,"state_code":"OV","state_name":"Overijssel","country_id":156,"country_code":"NL","country_name":"Netherlands","latitude":"52.34247000","longitude":"6.55795000","wikiDataId":"Q10025"},{"id":78016,"Name":"Gemeente Zwartewaterland","state_id":2618,"state_code":"OV","state_name":"Overijssel","country_id":156,"country_code":"NL","country_name":"Netherlands","latitude":"52.60240000","longitude":"6.07402000","wikiDataId":"Q10026"},{"id":78018,"Name":"Gemeente Zwolle","state_id":2618,"state_code":"OV","state_name":"Overijssel","country_id":156,"country_code":"NL","country_name":"Netherlands","latitude":"52.51264000","longitude":"6.09359000","wikiDataId":"Q793"},{"id":78032,"Name":"Giethoorn","state_id":2618,"state_code":"OV","state_name":"Overijssel","country_id":156,"country_code":"NL","country_name":"Netherlands","latitude":"52.74000000","longitude":"6.07917000","wikiDataId":"Q1025664"},{"id":78040,"Name":"Goor","state_id":2618,"state_code":"OV","state_name":"Overijssel","country_id":156,"country_code":"NL","country_name":"Netherlands","latitude":"52.23333000","longitude":"6.58611000","wikiDataId":"Q2054185"},{"id":78050,"Name":"Grafhorst","state_id":2618,"state_code":"OV","state_name":"Overijssel","country_id":156,"country_code":"NL","country_name":"Netherlands","latitude":"52.58250000","longitude":"5.93333000","wikiDataId":"Q2793903"},{"id":78075,"Name":"Haaksbergen","state_id":2618,"state_code":"OV","state_name":"Overijssel","country_id":156,"country_code":"NL","country_name":"Netherlands","latitude":"52.15667000","longitude":"6.73889000","wikiDataId":"Q18152317"},{"id":78080,"Name":"Haarle","state_id":2618,"state_code":"OV","state_name":"Overijssel","country_id":156,"country_code":"NL","country_name":"Netherlands","latitude":"52.35917000","longitude":"6.38056000","wikiDataId":"Q2309125"},{"id":78091,"Name":"Hardenberg","state_id":2618,"state_code":"OV","state_name":"Overijssel","country_id":156,"country_code":"NL","country_name":"Netherlands","latitude":"52.57583000","longitude":"6.61944000","wikiDataId":"Q10013"},{"id":78099,"Name":"Hasselt","state_id":2618,"state_code":"OV","state_name":"Overijssel","country_id":156,"country_code":"NL","country_name":"Netherlands","latitude":"52.59267000","longitude":"6.09527000","wikiDataId":"Q81159"},{"id":78131,"Name":"Heino","state_id":2618,"state_code":"OV","state_name":"Overijssel","country_id":156,"country_code":"NL","country_name":"Netherlands","latitude":"52.43661000","longitude":"6.23282000","wikiDataId":"Q1025670"},{"id":78140,"Name":"Hengelo","state_id":2618,"state_code":"OV","state_name":"Overijssel","country_id":156,"country_code":"NL","country_name":"Netherlands","latitude":"52.26583000","longitude":"6.79306000","wikiDataId":"Q33444630"},{"id":78142,"Name":"Hengevelde","state_id":2618,"state_code":"OV","state_name":"Overijssel","country_id":156,"country_code":"NL","country_name":"Netherlands","latitude":"52.19917000","longitude":"6.63611000","wikiDataId":"Q2419092"},{"id":78150,"Name":"Het Oostrik","state_id":2618,"state_code":"OV","state_name":"Overijssel","country_id":156,"country_code":"NL","country_name":"Netherlands","latitude":"52.25000000","longitude":"6.21667000","wikiDataId":"Q2347830"},{"id":78213,"Name":"Kampen","state_id":2618,"state_code":"OV","state_name":"Overijssel","country_id":156,"country_code":"NL","country_name":"Netherlands","latitude":"52.55500000","longitude":"5.91111000","wikiDataId":"Q10014"},{"id":78236,"Name":"Klein Driene","state_id":2618,"state_code":"OV","state_name":"Overijssel","country_id":156,"country_code":"NL","country_name":"Netherlands","latitude":"52.26935000","longitude":"6.81613000","wikiDataId":"Q2738719"},{"id":78323,"Name":"Losser","state_id":2618,"state_code":"OV","state_name":"Overijssel","country_id":156,"country_code":"NL","country_name":"Netherlands","latitude":"52.26083000","longitude":"7.00417000","wikiDataId":"Q2184767"},{"id":78342,"Name":"Magele","state_id":2618,"state_code":"OV","state_name":"Overijssel","country_id":156,"country_code":"NL","country_name":"Netherlands","latitude":"52.46917000","longitude":"6.52083000","wikiDataId":"Q1892693"},{"id":78351,"Name":"Markelo","state_id":2618,"state_code":"OV","state_name":"Overijssel","country_id":156,"country_code":"NL","country_name":"Netherlands","latitude":"52.23500000","longitude":"6.49861000","wikiDataId":"Q852674"},{"id":78375,"Name":"Mekkelholt","state_id":2618,"state_code":"OV","state_name":"Overijssel","country_id":156,"country_code":"NL","country_name":"Netherlands","latitude":"52.23645000","longitude":"6.89058000","wikiDataId":"Q1007185"},{"id":78448,"Name":"Nieuwoord","state_id":2618,"state_code":"OV","state_name":"Overijssel","country_id":156,"country_code":"NL","country_name":"Netherlands","latitude":"52.46667000","longitude":"6.55000000","wikiDataId":"Q2483664"},{"id":78456,"Name":"Nijrees","state_id":2618,"state_code":"OV","state_name":"Overijssel","country_id":156,"country_code":"NL","country_name":"Netherlands","latitude":"52.33500000","longitude":"6.66389000","wikiDataId":"Q2999962"},{"id":78496,"Name":"Oldemarkt","state_id":2618,"state_code":"OV","state_name":"Overijssel","country_id":156,"country_code":"NL","country_name":"Netherlands","latitude":"52.82083000","longitude":"5.97500000","wikiDataId":"Q3117018"},{"id":78497,"Name":"Oldenzaal","state_id":2618,"state_code":"OV","state_name":"Overijssel","country_id":156,"country_code":"NL","country_name":"Netherlands","latitude":"52.31333000","longitude":"6.92917000","wikiDataId":"Q33469242"},{"id":78498,"Name":"Olst","state_id":2618,"state_code":"OV","state_name":"Overijssel","country_id":156,"country_code":"NL","country_name":"Netherlands","latitude":"52.33750000","longitude":"6.10972000","wikiDataId":"Q3032495"},{"id":78500,"Name":"Ommen","state_id":2618,"state_code":"OV","state_name":"Overijssel","country_id":156,"country_code":"NL","country_name":"Netherlands","latitude":"52.52083000","longitude":"6.42083000","wikiDataId":"Q3032495"},{"id":78517,"Name":"Oosterholt","state_id":2618,"state_code":"OV","state_name":"Overijssel","country_id":156,"country_code":"NL","country_name":"Netherlands","latitude":"52.55917000","longitude":"5.95556000","wikiDataId":"Q523812"},{"id":78522,"Name":"Oostermeenthe","state_id":2618,"state_code":"OV","state_name":"Overijssel","country_id":156,"country_code":"NL","country_name":"Netherlands","latitude":"52.79319000","longitude":"6.13138000","wikiDataId":"Q2299625"},{"id":78530,"Name":"Ootmarsum","state_id":2618,"state_code":"OV","state_name":"Overijssel","country_id":156,"country_code":"NL","country_name":"Netherlands","latitude":"52.40833000","longitude":"6.90139000","wikiDataId":"Q1615365"},{"id":78582,"Name":"Pathmos","state_id":2618,"state_code":"OV","state_name":"Overijssel","country_id":156,"country_code":"NL","country_name":"Netherlands","latitude":"52.21397000","longitude":"6.87555000","wikiDataId":"Q939394"},{"id":78589,"Name":"Pierik","state_id":2618,"state_code":"OV","state_name":"Overijssel","country_id":156,"country_code":"NL","country_name":"Netherlands","latitude":"52.50141000","longitude":"6.11170000","wikiDataId":"Q446232"},{"id":78604,"Name":"Raalte","state_id":2618,"state_code":"OV","state_name":"Overijssel","country_id":156,"country_code":"NL","country_name":"Netherlands","latitude":"52.38583000","longitude":"6.27500000","wikiDataId":"Q18012068"},{"id":78640,"Name":"Rossum","state_id":2618,"state_code":"OV","state_name":"Overijssel","country_id":156,"country_code":"NL","country_name":"Netherlands","latitude":"52.35167000","longitude":"6.92222000","wikiDataId":"Q765030"},{"id":78658,"Name":"Schalkhaar","state_id":2618,"state_code":"OV","state_name":"Overijssel","country_id":156,"country_code":"NL","country_name":"Netherlands","latitude":"52.26833000","longitude":"6.19444000","wikiDataId":"Q2454474"},{"id":78697,"Name":"Sint Jansklooster","state_id":2618,"state_code":"OV","state_name":"Overijssel","country_id":156,"country_code":"NL","country_name":"Netherlands","latitude":"52.67750000","longitude":"6.00556000","wikiDataId":"Q1979634"},{"id":78745,"Name":"Staphorst","state_id":2618,"state_code":"OV","state_name":"Overijssel","country_id":156,"country_code":"NL","country_name":"Netherlands","latitude":"52.64500000","longitude":"6.21111000","wikiDataId":"Q2314541"},{"id":78751,"Name":"Steenwijk","state_id":2618,"state_code":"OV","state_name":"Overijssel","country_id":156,"country_code":"NL","country_name":"Netherlands","latitude":"52.78750000","longitude":"6.12083000","wikiDataId":"Q81175"},{"id":78752,"Name":"Steenwijkerwold","state_id":2618,"state_code":"OV","state_name":"Overijssel","country_id":156,"country_code":"NL","country_name":"Netherlands","latitude":"52.80417000","longitude":"6.06389000","wikiDataId":"Q3116953"},{"id":78792,"Name":"Tubbergen","state_id":2618,"state_code":"OV","state_name":"Overijssel","country_id":156,"country_code":"NL","country_name":"Netherlands","latitude":"52.40750000","longitude":"6.78472000","wikiDataId":"Q27825709"},{"id":78795,"Name":"Tuk","state_id":2618,"state_code":"OV","state_name":"Overijssel","country_id":156,"country_code":"NL","country_name":"Netherlands","latitude":"52.79667000","longitude":"6.09444000","wikiDataId":"Q2428342"},{"id":78797,"Name":"Twekkelerveld","state_id":2618,"state_code":"OV","state_name":"Overijssel","country_id":156,"country_code":"NL","country_name":"Netherlands","latitude":"52.23064000","longitude":"6.86004000","wikiDataId":"Q585186"},{"id":78872,"Name":"Vollenhove","state_id":2618,"state_code":"OV","state_name":"Overijssel","country_id":156,"country_code":"NL","country_name":"Netherlands","latitude":"52.68083000","longitude":"5.95417000","wikiDataId":"Q81132"},{"id":78886,"Name":"Vriezenveen","state_id":2618,"state_code":"OV","state_name":"Overijssel","country_id":156,"country_code":"NL","country_name":"Netherlands","latitude":"52.40833000","longitude":"6.62222000","wikiDataId":"Q3120872"},{"id":78887,"Name":"Vroomshoop","state_id":2618,"state_code":"OV","state_name":"Overijssel","country_id":156,"country_code":"NL","country_name":"Netherlands","latitude":"52.46083000","longitude":"6.56528000","wikiDataId":"Q2544104"},{"id":78936,"Name":"Westerhaar-Vriezenveensewijk","state_id":2618,"state_code":"OV","state_name":"Overijssel","country_id":156,"country_code":"NL","country_name":"Netherlands","latitude":"52.45583000","longitude":"6.62361000","wikiDataId":"Q2914959"},{"id":78946,"Name":"Wierden","state_id":2618,"state_code":"OV","state_name":"Overijssel","country_id":156,"country_code":"NL","country_name":"Netherlands","latitude":"52.35917000","longitude":"6.59306000","wikiDataId":"Q3276324"},{"id":78952,"Name":"Wijhe","state_id":2618,"state_code":"OV","state_name":"Overijssel","country_id":156,"country_code":"NL","country_name":"Netherlands","latitude":"52.38667000","longitude":"6.13472000","wikiDataId":"Q3164650"},{"id":78980,"Name":"Woolde","state_id":2618,"state_code":"OV","state_name":"Overijssel","country_id":156,"country_code":"NL","country_name":"Netherlands","latitude":"52.27210000","longitude":"6.75891000","wikiDataId":"Q3112153"},{"id":78981,"Name":"Wooldrik","state_id":2618,"state_code":"OV","state_name":"Overijssel","country_id":156,"country_code":"NL","country_name":"Netherlands","latitude":"52.21667000","longitude":"6.91667000","wikiDataId":"Q3112153"},{"id":79023,"Name":"Zuid-Berghuizen","state_id":2618,"state_code":"OV","state_name":"Overijssel","country_id":156,"country_code":"NL","country_name":"Netherlands","latitude":"52.30083000","longitude":"6.93333000","wikiDataId":"Q227064"},{"id":79036,"Name":"Zwolle","state_id":2618,"state_code":"OV","state_name":"Overijssel","country_id":156,"country_code":"NL","country_name":"Netherlands","latitude":"52.51250000","longitude":"6.09444000","wikiDataId":"Q13189044"}]