[{"id":76758,"Name":"Ago Are","state_id":296,"state_code":"OY","state_name":"Oyo","country_id":161,"country_code":"NG","country_name":"Nigeria","latitude":"8.50000000","longitude":"3.41667000","wikiDataId":"Q3509527"},{"id":76766,"Name":"Alapa","state_id":296,"state_code":"OY","state_name":"Oyo","country_id":161,"country_code":"NG","country_name":"Nigeria","latitude":"8.61667000","longitude":"4.38333000","wikiDataId":"Q423831"},{"id":76868,"Name":"Fiditi","state_id":296,"state_code":"OY","state_name":"Oyo","country_id":161,"country_code":"NG","country_name":"Nigeria","latitude":"7.71361000","longitude":"3.91722000","wikiDataId":"Q1023707"},{"id":76906,"Name":"Ibadan","state_id":296,"state_code":"OY","state_name":"Oyo","country_id":161,"country_code":"NG","country_name":"Nigeria","latitude":"7.37756000","longitude":"3.90591000","wikiDataId":"Q183298"},{"id":76918,"Name":"Igbeti","state_id":296,"state_code":"OY","state_name":"Oyo","country_id":161,"country_code":"NG","country_name":"Nigeria","latitude":"8.74921000","longitude":"4.13113000","wikiDataId":"Q183298"},{"id":76919,"Name":"Igbo-Ora","state_id":296,"state_code":"OY","state_name":"Oyo","country_id":161,"country_code":"NG","country_name":"Nigeria","latitude":"7.43383000","longitude":"3.28788000","wikiDataId":"Q5991559"},{"id":76921,"Name":"Igboho","state_id":296,"state_code":"OY","state_name":"Oyo","country_id":161,"country_code":"NG","country_name":"Nigeria","latitude":"8.83784000","longitude":"3.75628000","wikiDataId":"Q5991613"},{"id":76984,"Name":"Kisi","state_id":296,"state_code":"OY","state_name":"Oyo","country_id":161,"country_code":"NG","country_name":"Nigeria","latitude":"9.08297000","longitude":"3.85196000","wikiDataId":"Q937487"},{"id":77004,"Name":"Lalupon","state_id":296,"state_code":"OY","state_name":"Oyo","country_id":161,"country_code":"NG","country_name":"Nigeria","latitude":"7.46791000","longitude":"4.06594000","wikiDataId":"Q8673"},{"id":77053,"Name":"Ogbomoso","state_id":296,"state_code":"OY","state_name":"Oyo","country_id":161,"country_code":"NG","country_name":"Nigeria","latitude":"8.13373000","longitude":"4.24014000","wikiDataId":"Q500366"},{"id":77060,"Name":"Okeho","state_id":296,"state_code":"OY","state_name":"Oyo","country_id":161,"country_code":"NG","country_name":"Nigeria","latitude":"8.03386000","longitude":"3.34759000","wikiDataId":"Q7080311"},{"id":77072,"Name":"Orita Eruwa","state_id":296,"state_code":"OY","state_name":"Oyo","country_id":161,"country_code":"NG","country_name":"Nigeria","latitude":"7.55000000","longitude":"3.43333000","wikiDataId":"Q852238"},{"id":77082,"Name":"Oyo","state_id":296,"state_code":"OY","state_name":"Oyo","country_id":161,"country_code":"NG","country_name":"Nigeria","latitude":"7.85257000","longitude":"3.93125000","wikiDataId":"Q1023703"},{"id":77096,"Name":"Saki","state_id":296,"state_code":"OY","state_name":"Oyo","country_id":161,"country_code":"NG","country_name":"Nigeria","latitude":"8.66762000","longitude":"3.39393000","wikiDataId":"Q3500788"}]