[{"id":110971,"Name":"Abbottstown","state_id":1422,"state_code":"PA","state_name":"Pennsylvania","country_id":233,"country_code":"US","country_name":"United States","latitude":"39.88649000","longitude":"-76.98470000","wikiDataId":"Q1133516"},{"id":111019,"Name":"Adams County","state_id":1422,"state_code":"PA","state_name":"Pennsylvania","country_id":233,"country_code":"US","country_name":"United States","latitude":"39.87145000","longitude":"-77.21789000","wikiDataId":"Q351865"},{"id":111030,"Name":"Adamstown","state_id":1422,"state_code":"PA","state_name":"Pennsylvania","country_id":233,"country_code":"US","country_name":"United States","latitude":"40.24120000","longitude":"-76.05633000","wikiDataId":"Q352108"},{"id":111079,"Name":"Akron","state_id":1422,"state_code":"PA","state_name":"Pennsylvania","country_id":233,"country_code":"US","country_name":"United States","latitude":"40.15676000","longitude":"-76.20217000","wikiDataId":"Q1133805"},{"id":111129,"Name":"Albion","state_id":1422,"state_code":"PA","state_name":"Pennsylvania","country_id":233,"country_code":"US","country_name":"United States","latitude":"41.89061000","longitude":"-80.36645000","wikiDataId":"Q1131364"},{"id":111131,"Name":"Alburtis","state_id":1422,"state_code":"PA","state_name":"Pennsylvania","country_id":233,"country_code":"US","country_name":"United States","latitude":"40.51093000","longitude":"-75.60297000","wikiDataId":"Q1133934"},{"id":111135,"Name":"Aldan","state_id":1422,"state_code":"PA","state_name":"Pennsylvania","country_id":233,"country_code":"US","country_name":"United States","latitude":"39.92150000","longitude":"-75.28796000","wikiDataId":"Q1131419"},{"id":111174,"Name":"Aliquippa","state_id":1422,"state_code":"PA","state_name":"Pennsylvania","country_id":233,"country_code":"US","country_name":"United States","latitude":"40.63673000","longitude":"-80.24006000","wikiDataId":"Q599716"},{"id":111185,"Name":"Allegheny County","state_id":1422,"state_code":"PA","state_name":"Pennsylvania","country_id":233,"country_code":"US","country_name":"United States","latitude":"40.46883000","longitude":"-79.98119000","wikiDataId":"Q156291"},{"id":111186,"Name":"Alleghenyville","state_id":1422,"state_code":"PA","state_name":"Pennsylvania","country_id":233,"country_code":"US","country_name":"United States","latitude":"40.23426000","longitude":"-75.98855000","wikiDataId":"Q4731369"},{"id":111199,"Name":"Allentown","state_id":1422,"state_code":"PA","state_name":"Pennsylvania","country_id":233,"country_code":"US","country_name":"United States","latitude":"40.60843000","longitude":"-75.49018000","wikiDataId":"Q142811"},{"id":111202,"Name":"Allison Park","state_id":1422,"state_code":"PA","state_name":"Pennsylvania","country_id":233,"country_code":"US","country_name":"United States","latitude":"40.55951000","longitude":"-79.95867000","wikiDataId":"Q4732809"},{"id":111212,"Name":"Almedia","state_id":1422,"state_code":"PA","state_name":"Pennsylvania","country_id":233,"country_code":"US","country_name":"United States","latitude":"41.01453000","longitude":"-76.38105000","wikiDataId":"Q1131443"},{"id":111248,"Name":"Altoona","state_id":1422,"state_code":"PA","state_name":"Pennsylvania","country_id":233,"country_code":"US","country_name":"United States","latitude":"40.51868000","longitude":"-78.39474000","wikiDataId":"Q444210"},{"id":111264,"Name":"Ambler","state_id":1422,"state_code":"PA","state_name":"Pennsylvania","country_id":233,"country_code":"US","country_name":"United States","latitude":"40.15455000","longitude":"-75.22157000","wikiDataId":"Q372248"},{"id":111267,"Name":"Ambridge","state_id":1422,"state_code":"PA","state_name":"Pennsylvania","country_id":233,"country_code":"US","country_name":"United States","latitude":"40.58923000","longitude":"-80.22506000","wikiDataId":"Q1130536"},{"id":111291,"Name":"Amity Gardens","state_id":1422,"state_code":"PA","state_name":"Pennsylvania","country_id":233,"country_code":"US","country_name":"United States","latitude":"40.27426000","longitude":"-75.73519000","wikiDataId":"Q1132282"},{"id":111307,"Name":"Ancient Oaks","state_id":1422,"state_code":"PA","state_name":"Pennsylvania","country_id":233,"country_code":"US","country_name":"United States","latitude":"40.54732000","longitude":"-75.58935000","wikiDataId":"Q1132336"},{"id":111357,"Name":"Annville","state_id":1422,"state_code":"PA","state_name":"Pennsylvania","country_id":233,"country_code":"US","country_name":"United States","latitude":"40.32954000","longitude":"-76.51524000","wikiDataId":"Q143027"},{"id":111387,"Name":"Apollo","state_id":1422,"state_code":"PA","state_name":"Pennsylvania","country_id":233,"country_code":"US","country_name":"United States","latitude":"40.58145000","longitude":"-79.56643000","wikiDataId":"Q618977"},{"id":111427,"Name":"Archbald","state_id":1422,"state_code":"PA","state_name":"Pennsylvania","country_id":233,"country_code":"US","country_name":"United States","latitude":"41.49480000","longitude":"-75.53685000","wikiDataId":"Q1132449"},{"id":111443,"Name":"Ardmore","state_id":1422,"state_code":"PA","state_name":"Pennsylvania","country_id":233,"country_code":"US","country_name":"United States","latitude":"40.00678000","longitude":"-75.28546000","wikiDataId":"Q1132213"},{"id":111473,"Name":"Arlington Heights","state_id":1422,"state_code":"PA","state_name":"Pennsylvania","country_id":233,"country_code":"US","country_name":"United States","latitude":"40.99009000","longitude":"-75.21629000","wikiDataId":"Q1134407"},{"id":111480,"Name":"Armstrong County","state_id":1422,"state_code":"PA","state_name":"Pennsylvania","country_id":233,"country_code":"US","country_name":"United States","latitude":"40.81229000","longitude":"-79.46454000","wikiDataId":"Q494186"},{"id":111487,"Name":"Arnold","state_id":1422,"state_code":"PA","state_name":"Pennsylvania","country_id":233,"country_code":"US","country_name":"United States","latitude":"40.58007000","longitude":"-79.76672000","wikiDataId":"Q966457"},{"id":111537,"Name":"Ashland","state_id":1422,"state_code":"PA","state_name":"Pennsylvania","country_id":233,"country_code":"US","country_name":"United States","latitude":"40.78175000","longitude":"-76.34578000","wikiDataId":"Q1132883"},{"id":111544,"Name":"Ashley","state_id":1422,"state_code":"PA","state_name":"Pennsylvania","country_id":233,"country_code":"US","country_name":"United States","latitude":"41.21036000","longitude":"-75.89659000","wikiDataId":"Q725731"},{"id":111555,"Name":"Aspinwall","state_id":1422,"state_code":"PA","state_name":"Pennsylvania","country_id":233,"country_code":"US","country_name":"United States","latitude":"40.49146000","longitude":"-79.90477000","wikiDataId":"Q1130345"},{"id":111571,"Name":"Atglen","state_id":1422,"state_code":"PA","state_name":"Pennsylvania","country_id":233,"country_code":"US","country_name":"United States","latitude":"39.94927000","longitude":"-75.97356000","wikiDataId":"Q1133206"},{"id":111580,"Name":"Athens","state_id":1422,"state_code":"PA","state_name":"Pennsylvania","country_id":233,"country_code":"US","country_name":"United States","latitude":"41.95730000","longitude":"-76.51800000","wikiDataId":"Q1130437"},{"id":111640,"Name":"Audubon","state_id":1422,"state_code":"PA","state_name":"Pennsylvania","country_id":233,"country_code":"US","country_name":"United States","latitude":"40.12788000","longitude":"-75.43185000","wikiDataId":"Q759052"},{"id":111674,"Name":"Avalon","state_id":1422,"state_code":"PA","state_name":"Pennsylvania","country_id":233,"country_code":"US","country_name":"United States","latitude":"40.50090000","longitude":"-80.06756000","wikiDataId":"Q1132997"},{"id":111685,"Name":"Avis","state_id":1422,"state_code":"PA","state_name":"Pennsylvania","country_id":233,"country_code":"US","country_name":"United States","latitude":"41.18479000","longitude":"-77.31386000","wikiDataId":"Q1133533"},{"id":111688,"Name":"Avoca","state_id":1422,"state_code":"PA","state_name":"Pennsylvania","country_id":233,"country_code":"US","country_name":"United States","latitude":"41.33980000","longitude":"-75.73630000","wikiDataId":"Q1132344"},{"id":111694,"Name":"Avon","state_id":1422,"state_code":"PA","state_name":"Pennsylvania","country_id":233,"country_code":"US","country_name":"United States","latitude":"40.34565000","longitude":"-76.38996000","wikiDataId":"Q1130397"},{"id":111699,"Name":"Avondale","state_id":1422,"state_code":"PA","state_name":"Pennsylvania","country_id":233,"country_code":"US","country_name":"United States","latitude":"39.82344000","longitude":"-75.78327000","wikiDataId":"Q923547"},{"id":111703,"Name":"Avonia","state_id":1422,"state_code":"PA","state_name":"Pennsylvania","country_id":233,"country_code":"US","country_name":"United States","latitude":"42.04561000","longitude":"-80.26979000","wikiDataId":"Q1132239"},{"id":111718,"Name":"Back Mountain","state_id":1422,"state_code":"PA","state_name":"Pennsylvania","country_id":233,"country_code":"US","country_name":"United States","latitude":"41.33591000","longitude":"-75.99631000","wikiDataId":"Q1132234"},{"id":111723,"Name":"Baden","state_id":1422,"state_code":"PA","state_name":"Pennsylvania","country_id":233,"country_code":"US","country_name":"United States","latitude":"40.63507000","longitude":"-80.22812000","wikiDataId":"Q600967"},{"id":111729,"Name":"Baidland","state_id":1422,"state_code":"PA","state_name":"Pennsylvania","country_id":233,"country_code":"US","country_name":"United States","latitude":"40.19479000","longitude":"-79.97088000","wikiDataId":"Q943397"},{"id":111734,"Name":"Bainbridge","state_id":1422,"state_code":"PA","state_name":"Pennsylvania","country_id":233,"country_code":"US","country_name":"United States","latitude":"40.09093000","longitude":"-76.66747000","wikiDataId":"Q3960016"},{"id":111745,"Name":"Bakerstown","state_id":1422,"state_code":"PA","state_name":"Pennsylvania","country_id":233,"country_code":"US","country_name":"United States","latitude":"40.65090000","longitude":"-79.93644000","wikiDataId":"Q4849318"},{"id":111748,"Name":"Bala-Cynwyd","state_id":1422,"state_code":"PA","state_name":"Pennsylvania","country_id":233,"country_code":"US","country_name":"United States","latitude":"40.00761000","longitude":"-75.23407000","wikiDataId":"Q804572"},{"id":111757,"Name":"Baldwin","state_id":1422,"state_code":"PA","state_name":"Pennsylvania","country_id":233,"country_code":"US","country_name":"United States","latitude":"40.33813000","longitude":"-79.97894000","wikiDataId":"Q1132790"},{"id":111777,"Name":"Bally","state_id":1422,"state_code":"PA","state_name":"Pennsylvania","country_id":233,"country_code":"US","country_name":"United States","latitude":"40.40232000","longitude":"-75.58713000","wikiDataId":"Q805390"},{"id":111793,"Name":"Bangor","state_id":1422,"state_code":"PA","state_name":"Pennsylvania","country_id":233,"country_code":"US","country_name":"United States","latitude":"40.86565000","longitude":"-75.20657000","wikiDataId":"Q1134758"},{"id":111828,"Name":"Barnesboro","state_id":1422,"state_code":"PA","state_name":"Pennsylvania","country_id":233,"country_code":"US","country_name":"United States","latitude":"40.66257000","longitude":"-78.78003000","wikiDataId":"Q1893206"},{"id":111899,"Name":"Bath","state_id":1422,"state_code":"PA","state_name":"Pennsylvania","country_id":233,"country_code":"US","country_name":"United States","latitude":"40.72565000","longitude":"-75.39407000","wikiDataId":"Q1132060"},{"id":111978,"Name":"Bear Rocks","state_id":1422,"state_code":"PA","state_name":"Pennsylvania","country_id":233,"country_code":"US","country_name":"United States","latitude":"40.12285000","longitude":"-79.46170000","wikiDataId":"Q4876566"},{"id":111993,"Name":"Beaver","state_id":1422,"state_code":"PA","state_name":"Pennsylvania","country_id":233,"country_code":"US","country_name":"United States","latitude":"40.69534000","longitude":"-80.30478000","wikiDataId":"Q1133320"},{"id":111997,"Name":"Beaver County","state_id":1422,"state_code":"PA","state_name":"Pennsylvania","country_id":233,"country_code":"US","country_name":"United States","latitude":"40.68226000","longitude":"-80.34929000","wikiDataId":"Q494104"},{"id":112004,"Name":"Beaver Falls","state_id":1422,"state_code":"PA","state_name":"Pennsylvania","country_id":233,"country_code":"US","country_name":"United States","latitude":"40.75201000","longitude":"-80.31923000","wikiDataId":"Q1130843"},{"id":112006,"Name":"Beaverdale","state_id":1422,"state_code":"PA","state_name":"Pennsylvania","country_id":233,"country_code":"US","country_name":"United States","latitude":"40.32202000","longitude":"-78.69696000","wikiDataId":"Q1132557"},{"id":112026,"Name":"Bedford","state_id":1422,"state_code":"PA","state_name":"Pennsylvania","country_id":233,"country_code":"US","country_name":"United States","latitude":"40.01869000","longitude":"-78.50391000","wikiDataId":"Q1133571"},{"id":112029,"Name":"Bedford County","state_id":1422,"state_code":"PA","state_name":"Pennsylvania","country_id":233,"country_code":"US","country_name":"United States","latitude":"40.00656000","longitude":"-78.49032000","wikiDataId":"Q494174"},{"id":112032,"Name":"Bedminster","state_id":1422,"state_code":"PA","state_name":"Pennsylvania","country_id":233,"country_code":"US","country_name":"United States","latitude":"40.42594000","longitude":"-75.17906000","wikiDataId":"Q2018861"},{"id":112038,"Name":"Beech Mountain Lakes","state_id":1422,"state_code":"PA","state_name":"Pennsylvania","country_id":233,"country_code":"US","country_name":"United States","latitude":"41.04158000","longitude":"-75.93545000","wikiDataId":"Q2018240"},{"id":112057,"Name":"Belfast","state_id":1422,"state_code":"PA","state_name":"Pennsylvania","country_id":233,"country_code":"US","country_name":"United States","latitude":"40.78065000","longitude":"-75.27796000","wikiDataId":"Q1132483"},{"id":112067,"Name":"Bell Acres","state_id":1422,"state_code":"PA","state_name":"Pennsylvania","country_id":233,"country_code":"US","country_name":"United States","latitude":"40.59007000","longitude":"-80.16645000","wikiDataId":"Q675892"},{"id":112093,"Name":"Belle Vernon","state_id":1422,"state_code":"PA","state_name":"Pennsylvania","country_id":233,"country_code":"US","country_name":"United States","latitude":"40.12507000","longitude":"-79.86644000","wikiDataId":"Q1131959"},{"id":112099,"Name":"Bellefonte","state_id":1422,"state_code":"PA","state_name":"Pennsylvania","country_id":233,"country_code":"US","country_name":"United States","latitude":"40.91339000","longitude":"-77.77833000","wikiDataId":"Q1133274"},{"id":112107,"Name":"Belleville","state_id":1422,"state_code":"PA","state_name":"Pennsylvania","country_id":233,"country_code":"US","country_name":"United States","latitude":"40.60507000","longitude":"-77.72555000","wikiDataId":"Q1134316"},{"id":112114,"Name":"Bellevue","state_id":1422,"state_code":"PA","state_name":"Pennsylvania","country_id":233,"country_code":"US","country_name":"United States","latitude":"40.49396000","longitude":"-80.05172000","wikiDataId":"Q1130899"},{"id":112132,"Name":"Bellwood","state_id":1422,"state_code":"PA","state_name":"Pennsylvania","country_id":233,"country_code":"US","country_name":"United States","latitude":"40.60340000","longitude":"-78.32474000","wikiDataId":"Q1130588"},{"id":112141,"Name":"Belmont","state_id":1422,"state_code":"PA","state_name":"Pennsylvania","country_id":233,"country_code":"US","country_name":"United States","latitude":"40.28730000","longitude":"-78.88947000","wikiDataId":"Q769952"},{"id":112161,"Name":"Ben Avon","state_id":1422,"state_code":"PA","state_name":"Pennsylvania","country_id":233,"country_code":"US","country_name":"United States","latitude":"40.50812000","longitude":"-80.08311000","wikiDataId":"Q816423"},{"id":112190,"Name":"Bentleyville","state_id":1422,"state_code":"PA","state_name":"Pennsylvania","country_id":233,"country_code":"US","country_name":"United States","latitude":"40.11674000","longitude":"-80.00839000","wikiDataId":"Q1131739"},{"id":112232,"Name":"Berks County","state_id":1422,"state_code":"PA","state_name":"Pennsylvania","country_id":233,"country_code":"US","country_name":"United States","latitude":"40.41630000","longitude":"-75.92600000","wikiDataId":"Q490920"},{"id":112236,"Name":"Berlin","state_id":1422,"state_code":"PA","state_name":"Pennsylvania","country_id":233,"country_code":"US","country_name":"United States","latitude":"39.92064000","longitude":"-78.95780000","wikiDataId":"Q1130950"},{"id":112263,"Name":"Berwick","state_id":1422,"state_code":"PA","state_name":"Pennsylvania","country_id":233,"country_code":"US","country_name":"United States","latitude":"41.05453000","longitude":"-76.23327000","wikiDataId":"Q1131639"},{"id":112265,"Name":"Berwyn","state_id":1422,"state_code":"PA","state_name":"Pennsylvania","country_id":233,"country_code":"US","country_name":"United States","latitude":"40.04483000","longitude":"-75.43881000","wikiDataId":"Q261549"},{"id":112269,"Name":"Bessemer","state_id":1422,"state_code":"PA","state_name":"Pennsylvania","country_id":233,"country_code":"US","country_name":"United States","latitude":"40.97478000","longitude":"-80.49368000","wikiDataId":"Q1134391"},{"id":112287,"Name":"Bethel Park","state_id":1422,"state_code":"PA","state_name":"Pennsylvania","country_id":233,"country_code":"US","country_name":"United States","latitude":"40.32757000","longitude":"-80.03950000","wikiDataId":"Q3306108"},{"id":112291,"Name":"Bethlehem","state_id":1422,"state_code":"PA","state_name":"Pennsylvania","country_id":233,"country_code":"US","country_name":"United States","latitude":"40.62593000","longitude":"-75.37046000","wikiDataId":"Q164380"},{"id":112314,"Name":"Big Bass Lake","state_id":1422,"state_code":"PA","state_name":"Pennsylvania","country_id":233,"country_code":"US","country_name":"United States","latitude":"41.25383000","longitude":"-75.47644000","wikiDataId":"Q4905037"},{"id":112317,"Name":"Big Beaver","state_id":1422,"state_code":"PA","state_name":"Pennsylvania","country_id":233,"country_code":"US","country_name":"United States","latitude":"40.82451000","longitude":"-80.36284000","wikiDataId":"Q1130675"},{"id":112341,"Name":"Biglerville","state_id":1422,"state_code":"PA","state_name":"Pennsylvania","country_id":233,"country_code":"US","country_name":"United States","latitude":"39.93037000","longitude":"-77.24804000","wikiDataId":"Q1130809"},{"id":112356,"Name":"Birchwood Lakes","state_id":1422,"state_code":"PA","state_name":"Pennsylvania","country_id":233,"country_code":"US","country_name":"United States","latitude":"41.25454000","longitude":"-74.91850000","wikiDataId":"Q4915789"},{"id":112357,"Name":"Birdsboro","state_id":1422,"state_code":"PA","state_name":"Pennsylvania","country_id":233,"country_code":"US","country_name":"United States","latitude":"40.26454000","longitude":"-75.80409000","wikiDataId":"Q865116"},{"id":112379,"Name":"Black Lick","state_id":1422,"state_code":"PA","state_name":"Pennsylvania","country_id":233,"country_code":"US","country_name":"United States","latitude":"40.47250000","longitude":"-79.18688000","wikiDataId":"Q880344"},{"id":112411,"Name":"Blair County","state_id":1422,"state_code":"PA","state_name":"Pennsylvania","country_id":233,"country_code":"US","country_name":"United States","latitude":"40.48100000","longitude":"-78.34860000","wikiDataId":"Q494152"},{"id":112413,"Name":"Blairsville","state_id":1422,"state_code":"PA","state_name":"Pennsylvania","country_id":233,"country_code":"US","country_name":"United States","latitude":"40.43118000","longitude":"-79.26087000","wikiDataId":"Q1131052"},{"id":112415,"Name":"Blakely","state_id":1422,"state_code":"PA","state_name":"Pennsylvania","country_id":233,"country_code":"US","country_name":"United States","latitude":"41.48091000","longitude":"-75.59463000","wikiDataId":"Q1131808"},{"id":112423,"Name":"Blandon","state_id":1422,"state_code":"PA","state_name":"Pennsylvania","country_id":233,"country_code":"US","country_name":"United States","latitude":"40.44120000","longitude":"-75.88687000","wikiDataId":"Q388840"},{"id":112426,"Name":"Blawnox","state_id":1422,"state_code":"PA","state_name":"Pennsylvania","country_id":233,"country_code":"US","country_name":"United States","latitude":"40.49340000","longitude":"-79.86061000","wikiDataId":"Q1117687"},{"id":112439,"Name":"Bloomfield","state_id":1422,"state_code":"PA","state_name":"Pennsylvania","country_id":233,"country_code":"US","country_name":"United States","latitude":"40.46090000","longitude":"-79.95089000","wikiDataId":"Q4928223"},{"id":112454,"Name":"Bloomsburg","state_id":1422,"state_code":"PA","state_name":"Pennsylvania","country_id":233,"country_code":"US","country_name":"United States","latitude":"41.00370000","longitude":"-76.45495000","wikiDataId":"Q1133544"},{"id":112455,"Name":"Blossburg","state_id":1422,"state_code":"PA","state_name":"Pennsylvania","country_id":233,"country_code":"US","country_name":"United States","latitude":"41.67952000","longitude":"-77.06386000","wikiDataId":"Q1132495"},{"id":112463,"Name":"Blue Ball","state_id":1422,"state_code":"PA","state_name":"Pennsylvania","country_id":233,"country_code":"US","country_name":"United States","latitude":"40.11871000","longitude":"-76.04717000","wikiDataId":"Q3960047"},{"id":112464,"Name":"Blue Bell","state_id":1422,"state_code":"PA","state_name":"Pennsylvania","country_id":233,"country_code":"US","country_name":"United States","latitude":"40.15233000","longitude":"-75.26629000","wikiDataId":"Q885631"},{"id":112488,"Name":"Boalsburg","state_id":1422,"state_code":"PA","state_name":"Pennsylvania","country_id":233,"country_code":"US","country_name":"United States","latitude":"40.77562000","longitude":"-77.79250000","wikiDataId":"Q1132574"},{"id":112507,"Name":"Boiling Springs","state_id":1422,"state_code":"PA","state_name":"Pennsylvania","country_id":233,"country_code":"US","country_name":"United States","latitude":"40.14981000","longitude":"-77.12831000","wikiDataId":"Q891031"},{"id":112541,"Name":"Bonneauville","state_id":1422,"state_code":"PA","state_name":"Pennsylvania","country_id":233,"country_code":"US","country_name":"United States","latitude":"39.81204000","longitude":"-77.13721000","wikiDataId":"Q1132988"},{"id":112574,"Name":"Boothwyn","state_id":1422,"state_code":"PA","state_name":"Pennsylvania","country_id":233,"country_code":"US","country_name":"United States","latitude":"39.83011000","longitude":"-75.44158000","wikiDataId":"Q1134266"},{"id":112592,"Name":"Boswell","state_id":1422,"state_code":"PA","state_name":"Pennsylvania","country_id":233,"country_code":"US","country_name":"United States","latitude":"40.16147000","longitude":"-79.02892000","wikiDataId":"Q1131021"},{"id":112634,"Name":"Bowmansville","state_id":1422,"state_code":"PA","state_name":"Pennsylvania","country_id":233,"country_code":"US","country_name":"United States","latitude":"40.19676000","longitude":"-76.01744000","wikiDataId":"Q4951353"},{"id":112645,"Name":"Boyertown","state_id":1422,"state_code":"PA","state_name":"Pennsylvania","country_id":233,"country_code":"US","country_name":"United States","latitude":"40.33371000","longitude":"-75.63741000","wikiDataId":"Q1132054"},{"id":112656,"Name":"Brackenridge","state_id":1422,"state_code":"PA","state_name":"Pennsylvania","country_id":233,"country_code":"US","country_name":"United States","latitude":"40.60812000","longitude":"-79.74116000","wikiDataId":"Q667487"},{"id":112659,"Name":"Braddock","state_id":1422,"state_code":"PA","state_name":"Pennsylvania","country_id":233,"country_code":"US","country_name":"United States","latitude":"40.40340000","longitude":"-79.86838000","wikiDataId":"Q1132991"},{"id":112661,"Name":"Braddock Hills","state_id":1422,"state_code":"PA","state_name":"Pennsylvania","country_id":233,"country_code":"US","country_name":"United States","latitude":"40.41729000","longitude":"-79.86505000","wikiDataId":"Q1133021"},{"id":112666,"Name":"Bradford","state_id":1422,"state_code":"PA","state_name":"Pennsylvania","country_id":233,"country_code":"US","country_name":"United States","latitude":"41.95590000","longitude":"-78.64392000","wikiDataId":"Q662409"},{"id":112669,"Name":"Bradford County","state_id":1422,"state_code":"PA","state_name":"Pennsylvania","country_id":233,"country_code":"US","country_name":"United States","latitude":"41.78867000","longitude":"-76.51545000","wikiDataId":"Q488687"},{"id":112670,"Name":"Bradford Woods","state_id":1422,"state_code":"PA","state_name":"Pennsylvania","country_id":233,"country_code":"US","country_name":"United States","latitude":"40.63757000","longitude":"-80.08172000","wikiDataId":"Q1132773"},{"id":112719,"Name":"Breinigsville","state_id":1422,"state_code":"PA","state_name":"Pennsylvania","country_id":233,"country_code":"US","country_name":"United States","latitude":"40.53676000","longitude":"-75.63130000","wikiDataId":"Q4960426"},{"id":112732,"Name":"Brentwood","state_id":1422,"state_code":"PA","state_name":"Pennsylvania","country_id":233,"country_code":"US","country_name":"United States","latitude":"40.37063000","longitude":"-79.97477000","wikiDataId":"Q1132750"},{"id":112735,"Name":"Bressler","state_id":1422,"state_code":"PA","state_name":"Pennsylvania","country_id":233,"country_code":"US","country_name":"United States","latitude":"40.22953000","longitude":"-76.81997000","wikiDataId":"Q4961883"},{"id":112754,"Name":"Brickerville","state_id":1422,"state_code":"PA","state_name":"Pennsylvania","country_id":233,"country_code":"US","country_name":"United States","latitude":"40.22593000","longitude":"-76.30246000","wikiDataId":"Q1134136"},{"id":112764,"Name":"Bridgeport","state_id":1422,"state_code":"PA","state_name":"Pennsylvania","country_id":233,"country_code":"US","country_name":"United States","latitude":"40.10511000","longitude":"-75.34518000","wikiDataId":"Q1131524"},{"id":112773,"Name":"Bridgeville","state_id":1422,"state_code":"PA","state_name":"Pennsylvania","country_id":233,"country_code":"US","country_name":"United States","latitude":"40.35618000","longitude":"-80.11006000","wikiDataId":"Q913924"},{"id":112808,"Name":"Bristol","state_id":1422,"state_code":"PA","state_name":"Pennsylvania","country_id":233,"country_code":"US","country_name":"United States","latitude":"40.10067000","longitude":"-74.85183000","wikiDataId":"Q1132588"},{"id":112818,"Name":"Brittany Farms-Highlands","state_id":1422,"state_code":"PA","state_name":"Pennsylvania","country_id":233,"country_code":"US","country_name":"United States","latitude":"40.26901000","longitude":"-75.21401000","wikiDataId":"Q1132504"},{"id":112835,"Name":"Brockway","state_id":1422,"state_code":"PA","state_name":"Pennsylvania","country_id":233,"country_code":"US","country_name":"United States","latitude":"41.24923000","longitude":"-78.79947000","wikiDataId":"Q1130513"},{"id":112839,"Name":"Brodheadsville","state_id":1422,"state_code":"PA","state_name":"Pennsylvania","country_id":233,"country_code":"US","country_name":"United States","latitude":"40.92454000","longitude":"-75.39379000","wikiDataId":"Q604090"},{"id":112858,"Name":"Brookhaven","state_id":1422,"state_code":"PA","state_name":"Pennsylvania","country_id":233,"country_code":"US","country_name":"United States","latitude":"39.86928000","longitude":"-75.38241000","wikiDataId":"Q1134968"},{"id":112896,"Name":"Brookville","state_id":1422,"state_code":"PA","state_name":"Pennsylvania","country_id":233,"country_code":"US","country_name":"United States","latitude":"41.16117000","longitude":"-79.08309000","wikiDataId":"Q1133325"},{"id":112898,"Name":"Broomall","state_id":1422,"state_code":"PA","state_name":"Pennsylvania","country_id":233,"country_code":"US","country_name":"United States","latitude":"39.98150000","longitude":"-75.35658000","wikiDataId":"Q990622"},{"id":112927,"Name":"Brownstown","state_id":1422,"state_code":"PA","state_name":"Pennsylvania","country_id":233,"country_code":"US","country_name":"United States","latitude":"40.12371000","longitude":"-76.21384000","wikiDataId":"Q3476231"},{"id":112934,"Name":"Brownsville","state_id":1422,"state_code":"PA","state_name":"Pennsylvania","country_id":233,"country_code":"US","country_name":"United States","latitude":"40.02369000","longitude":"-79.88394000","wikiDataId":"Q1132976"},{"id":112936,"Name":"Browntown","state_id":1422,"state_code":"PA","state_name":"Pennsylvania","country_id":233,"country_code":"US","country_name":"United States","latitude":"41.30980000","longitude":"-75.78742000","wikiDataId":"Q1925181"},{"id":112965,"Name":"Bryn Athyn","state_id":1422,"state_code":"PA","state_name":"Pennsylvania","country_id":233,"country_code":"US","country_name":"United States","latitude":"40.13150000","longitude":"-75.06739000","wikiDataId":"Q4980536"},{"id":112966,"Name":"Bryn Mawr","state_id":1422,"state_code":"PA","state_name":"Pennsylvania","country_id":233,"country_code":"US","country_name":"United States","latitude":"40.01983000","longitude":"-75.30463000","wikiDataId":"Q995267"},{"id":112991,"Name":"Bucks County","state_id":1422,"state_code":"PA","state_name":"Pennsylvania","country_id":233,"country_code":"US","country_name":"United States","latitude":"40.33694000","longitude":"-75.10687000","wikiDataId":"Q494192"},{"id":113051,"Name":"Burgettstown","state_id":1422,"state_code":"PA","state_name":"Pennsylvania","country_id":233,"country_code":"US","country_name":"United States","latitude":"40.38201000","longitude":"-80.39284000","wikiDataId":"Q1132117"},{"id":113085,"Name":"Burnham","state_id":1422,"state_code":"PA","state_name":"Pennsylvania","country_id":233,"country_code":"US","country_name":"United States","latitude":"40.63868000","longitude":"-77.56861000","wikiDataId":"Q1016786"},{"id":113111,"Name":"Butler","state_id":1422,"state_code":"PA","state_name":"Pennsylvania","country_id":233,"country_code":"US","country_name":"United States","latitude":"40.86118000","longitude":"-79.89533000","wikiDataId":"Q1017948"},{"id":113120,"Name":"Butler County","state_id":1422,"state_code":"PA","state_name":"Pennsylvania","country_id":233,"country_code":"US","country_name":"United States","latitude":"40.91172000","longitude":"-79.91299000","wikiDataId":"Q488672"},{"id":113217,"Name":"California","state_id":1422,"state_code":"PA","state_name":"Pennsylvania","country_id":233,"country_code":"US","country_name":"United States","latitude":"40.06563000","longitude":"-79.89171000","wikiDataId":"Q1134176"},{"id":113228,"Name":"Caln","state_id":1422,"state_code":"PA","state_name":"Pennsylvania","country_id":233,"country_code":"US","country_name":"United States","latitude":"39.99094000","longitude":"-75.78022000","wikiDataId":"Q5023059"},{"id":113229,"Name":"Calumet","state_id":1422,"state_code":"PA","state_name":"Pennsylvania","country_id":233,"country_code":"US","country_name":"United States","latitude":"40.21090000","longitude":"-79.48532000","wikiDataId":"Q11680441"},{"id":113247,"Name":"Cambria County","state_id":1422,"state_code":"PA","state_name":"Pennsylvania","country_id":233,"country_code":"US","country_name":"United States","latitude":"40.49529000","longitude":"-78.71370000","wikiDataId":"Q490077"},{"id":113258,"Name":"Cambridge Springs","state_id":1422,"state_code":"PA","state_name":"Pennsylvania","country_id":233,"country_code":"US","country_name":"United States","latitude":"41.80367000","longitude":"-80.05644000","wikiDataId":"Q948014"},{"id":113278,"Name":"Cameron County","state_id":1422,"state_code":"PA","state_name":"Pennsylvania","country_id":233,"country_code":"US","country_name":"United States","latitude":"41.43680000","longitude":"-78.20378000","wikiDataId":"Q494142"},{"id":113287,"Name":"Camp Hill","state_id":1422,"state_code":"PA","state_name":"Pennsylvania","country_id":233,"country_code":"US","country_name":"United States","latitude":"40.23981000","longitude":"-76.91997000","wikiDataId":"Q961372"},{"id":113306,"Name":"Campbelltown","state_id":1422,"state_code":"PA","state_name":"Pennsylvania","country_id":233,"country_code":"US","country_name":"United States","latitude":"40.27759000","longitude":"-76.58525000","wikiDataId":"Q1134882"},{"id":113336,"Name":"Canonsburg","state_id":1422,"state_code":"PA","state_name":"Pennsylvania","country_id":233,"country_code":"US","country_name":"United States","latitude":"40.26257000","longitude":"-80.18728000","wikiDataId":"Q509115"},{"id":113349,"Name":"Canton","state_id":1422,"state_code":"PA","state_name":"Pennsylvania","country_id":233,"country_code":"US","country_name":"United States","latitude":"41.65646000","longitude":"-76.85329000","wikiDataId":"Q962268"},{"id":113382,"Name":"Carbon County","state_id":1422,"state_code":"PA","state_name":"Pennsylvania","country_id":233,"country_code":"US","country_name":"United States","latitude":"40.91818000","longitude":"-75.70882000","wikiDataId":"Q488698"},{"id":113389,"Name":"Carbondale","state_id":1422,"state_code":"PA","state_name":"Pennsylvania","country_id":233,"country_code":"US","country_name":"United States","latitude":"41.57369000","longitude":"-75.50185000","wikiDataId":"Q1131767"},{"id":113405,"Name":"Carlisle","state_id":1422,"state_code":"PA","state_name":"Pennsylvania","country_id":233,"country_code":"US","country_name":"United States","latitude":"40.20148000","longitude":"-77.18887000","wikiDataId":"Q1010228"},{"id":113426,"Name":"Carnegie","state_id":1422,"state_code":"PA","state_name":"Pennsylvania","country_id":233,"country_code":"US","country_name":"United States","latitude":"40.40868000","longitude":"-80.08339000","wikiDataId":"Q1131994"},{"id":113430,"Name":"Carnot-Moon","state_id":1422,"state_code":"PA","state_name":"Pennsylvania","country_id":233,"country_code":"US","country_name":"United States","latitude":"40.51856000","longitude":"-80.21736000","wikiDataId":"Q1132688"},{"id":113462,"Name":"Carroll Valley","state_id":1422,"state_code":"PA","state_name":"Pennsylvania","country_id":233,"country_code":"US","country_name":"United States","latitude":"39.74926000","longitude":"-77.38304000","wikiDataId":"Q1130385"},{"id":113541,"Name":"Castanea","state_id":1422,"state_code":"PA","state_name":"Pennsylvania","country_id":233,"country_code":"US","country_name":"United States","latitude":"41.12479000","longitude":"-77.42970000","wikiDataId":"Q1131538"},{"id":113551,"Name":"Castle Shannon","state_id":1422,"state_code":"PA","state_name":"Pennsylvania","country_id":233,"country_code":"US","country_name":"United States","latitude":"40.36479000","longitude":"-80.02228000","wikiDataId":"Q1133591"},{"id":113565,"Name":"Catasauqua","state_id":1422,"state_code":"PA","state_name":"Pennsylvania","country_id":233,"country_code":"US","country_name":"United States","latitude":"40.65482000","longitude":"-75.47463000","wikiDataId":"Q1132470"},{"id":113568,"Name":"Catawissa","state_id":1422,"state_code":"PA","state_name":"Pennsylvania","country_id":233,"country_code":"US","country_name":"United States","latitude":"40.95203000","longitude":"-76.45967000","wikiDataId":"Q1133135"},{"id":113599,"Name":"Cecil-Bishop","state_id":1422,"state_code":"PA","state_name":"Pennsylvania","country_id":233,"country_code":"US","country_name":"United States","latitude":"40.31819000","longitude":"-80.19331000","wikiDataId":"Q1134185"},{"id":113633,"Name":"Cementon","state_id":1422,"state_code":"PA","state_name":"Pennsylvania","country_id":233,"country_code":"US","country_name":"United States","latitude":"40.68926000","longitude":"-75.50768000","wikiDataId":"Q5058682"},{"id":113641,"Name":"Center City","state_id":1422,"state_code":"PA","state_name":"Pennsylvania","country_id":233,"country_code":"US","country_name":"United States","latitude":"39.95120000","longitude":"-75.15923000","wikiDataId":"Q1926706"},{"id":113661,"Name":"Centerville","state_id":1422,"state_code":"PA","state_name":"Pennsylvania","country_id":233,"country_code":"US","country_name":"United States","latitude":"40.04535000","longitude":"-79.97561000","wikiDataId":"Q5060115"},{"id":113670,"Name":"Central City","state_id":1422,"state_code":"PA","state_name":"Pennsylvania","country_id":233,"country_code":"US","country_name":"United States","latitude":"40.11063000","longitude":"-78.80197000","wikiDataId":"Q1130917"},{"id":113689,"Name":"Centre County","state_id":1422,"state_code":"PA","state_name":"Pennsylvania","country_id":233,"country_code":"US","country_name":"United States","latitude":"40.91934000","longitude":"-77.81995000","wikiDataId":"Q494248"},{"id":113690,"Name":"Centre Hall","state_id":1422,"state_code":"PA","state_name":"Pennsylvania","country_id":233,"country_code":"US","country_name":"United States","latitude":"40.84756000","longitude":"-77.68611000","wikiDataId":"Q1131213"},{"id":113704,"Name":"Cetronia","state_id":1422,"state_code":"PA","state_name":"Pennsylvania","country_id":233,"country_code":"US","country_name":"United States","latitude":"40.58676000","longitude":"-75.52963000","wikiDataId":"Q5065703"},{"id":113712,"Name":"Chalfont","state_id":1422,"state_code":"PA","state_name":"Pennsylvania","country_id":233,"country_code":"US","country_name":"United States","latitude":"40.28844000","longitude":"-75.20906000","wikiDataId":"Q656873"},{"id":113722,"Name":"Chambersburg","state_id":1422,"state_code":"PA","state_name":"Pennsylvania","country_id":233,"country_code":"US","country_name":"United States","latitude":"39.93759000","longitude":"-77.66110000","wikiDataId":"Q1133562"},{"id":113753,"Name":"Charleroi","state_id":1422,"state_code":"PA","state_name":"Pennsylvania","country_id":233,"country_code":"US","country_name":"United States","latitude":"40.13785000","longitude":"-79.89810000","wikiDataId":"Q403104"},{"id":113871,"Name":"Cherryville","state_id":1422,"state_code":"PA","state_name":"Pennsylvania","country_id":233,"country_code":"US","country_name":"United States","latitude":"40.75398000","longitude":"-75.53852000","wikiDataId":"Q5092555"},{"id":113884,"Name":"Chester","state_id":1422,"state_code":"PA","state_name":"Pennsylvania","country_id":233,"country_code":"US","country_name":"United States","latitude":"39.84967000","longitude":"-75.35707000","wikiDataId":"Q368045"},{"id":113897,"Name":"Chester County","state_id":1422,"state_code":"PA","state_name":"Pennsylvania","country_id":233,"country_code":"US","country_name":"United States","latitude":"39.97314000","longitude":"-75.74845000","wikiDataId":"Q27840"},{"id":113898,"Name":"Chester Heights","state_id":1422,"state_code":"PA","state_name":"Pennsylvania","country_id":233,"country_code":"US","country_name":"United States","latitude":"39.89011000","longitude":"-75.47548000","wikiDataId":"Q1132103"},{"id":113899,"Name":"Chester Springs","state_id":1422,"state_code":"PA","state_name":"Pennsylvania","country_id":233,"country_code":"US","country_name":"United States","latitude":"40.09510000","longitude":"-75.61687000","wikiDataId":"Q5093717"},{"id":113900,"Name":"Chesterbrook","state_id":1422,"state_code":"PA","state_name":"Pennsylvania","country_id":233,"country_code":"US","country_name":"United States","latitude":"40.07566000","longitude":"-75.45908000","wikiDataId":"Q1134243"},{"id":113913,"Name":"Cheswick","state_id":1422,"state_code":"PA","state_name":"Pennsylvania","country_id":233,"country_code":"US","country_name":"United States","latitude":"40.54173000","longitude":"-79.79922000","wikiDataId":"Q1132797"},{"id":113922,"Name":"Chevy Chase Heights","state_id":1422,"state_code":"PA","state_name":"Pennsylvania","country_id":233,"country_code":"US","country_name":"United States","latitude":"40.63673000","longitude":"-79.14420000","wikiDataId":"Q1132693"},{"id":113946,"Name":"Chicora","state_id":1422,"state_code":"PA","state_name":"Pennsylvania","country_id":233,"country_code":"US","country_name":"United States","latitude":"40.94812000","longitude":"-79.74283000","wikiDataId":"Q1131881"},{"id":113965,"Name":"Chinchilla","state_id":1422,"state_code":"PA","state_name":"Pennsylvania","country_id":233,"country_code":"US","country_name":"United States","latitude":"41.47508000","longitude":"-75.67713000","wikiDataId":"Q5100306"},{"id":113999,"Name":"Christiana","state_id":1422,"state_code":"PA","state_name":"Pennsylvania","country_id":233,"country_code":"US","country_name":"United States","latitude":"39.95483000","longitude":"-75.99689000","wikiDataId":"Q1133883"},{"id":114008,"Name":"Church Hill","state_id":1422,"state_code":"PA","state_name":"Pennsylvania","country_id":233,"country_code":"US","country_name":"United States","latitude":"40.68201000","longitude":"-77.59861000","wikiDataId":"Q2142739"},{"id":114011,"Name":"Churchill","state_id":1422,"state_code":"PA","state_name":"Pennsylvania","country_id":233,"country_code":"US","country_name":"United States","latitude":"40.43840000","longitude":"-79.84310000","wikiDataId":"Q1130423"},{"id":114014,"Name":"Churchville","state_id":1422,"state_code":"PA","state_name":"Pennsylvania","country_id":233,"country_code":"US","country_name":"United States","latitude":"40.18622000","longitude":"-75.01878000","wikiDataId":"Q1132458"},{"id":114096,"Name":"Clairton","state_id":1422,"state_code":"PA","state_name":"Pennsylvania","country_id":233,"country_code":"US","country_name":"United States","latitude":"40.29229000","longitude":"-79.88171000","wikiDataId":"Q1133095"},{"id":114117,"Name":"Clarion","state_id":1422,"state_code":"PA","state_name":"Pennsylvania","country_id":233,"country_code":"US","country_name":"United States","latitude":"41.21479000","longitude":"-79.38532000","wikiDataId":"Q1025797"},{"id":114118,"Name":"Clarion County","state_id":1422,"state_code":"PA","state_name":"Pennsylvania","country_id":233,"country_code":"US","country_name":"United States","latitude":"41.19239000","longitude":"-79.42096000","wikiDataId":"Q494198"},{"id":114141,"Name":"Clarks Green","state_id":1422,"state_code":"PA","state_name":"Pennsylvania","country_id":233,"country_code":"US","country_name":"United States","latitude":"41.49286000","longitude":"-75.69964000","wikiDataId":"Q1131584"},{"id":114142,"Name":"Clarks Summit","state_id":1422,"state_code":"PA","state_name":"Pennsylvania","country_id":233,"country_code":"US","country_name":"United States","latitude":"41.48869000","longitude":"-75.70852000","wikiDataId":"Q1131888"},{"id":114168,"Name":"Clay","state_id":1422,"state_code":"PA","state_name":"Pennsylvania","country_id":233,"country_code":"US","country_name":"United States","latitude":"40.21843000","longitude":"-76.25551000","wikiDataId":"Q5129809"},{"id":114195,"Name":"Claysburg","state_id":1422,"state_code":"PA","state_name":"Pennsylvania","country_id":233,"country_code":"US","country_name":"United States","latitude":"40.29674000","longitude":"-78.44974000","wikiDataId":"Q1132753"},{"id":114216,"Name":"Clearfield","state_id":1422,"state_code":"PA","state_name":"Pennsylvania","country_id":233,"country_code":"US","country_name":"United States","latitude":"41.02728000","longitude":"-78.43919000","wikiDataId":"Q1133690"},{"id":114218,"Name":"Clearfield County","state_id":1422,"state_code":"PA","state_name":"Pennsylvania","country_id":233,"country_code":"US","country_name":"United States","latitude":"41.00019000","longitude":"-78.47411000","wikiDataId":"Q494233"},{"id":114236,"Name":"Cleona","state_id":1422,"state_code":"PA","state_name":"Pennsylvania","country_id":233,"country_code":"US","country_name":"United States","latitude":"40.33731000","longitude":"-76.47552000","wikiDataId":"Q1134068"},{"id":114263,"Name":"Clifton Heights","state_id":1422,"state_code":"PA","state_name":"Pennsylvania","country_id":233,"country_code":"US","country_name":"United States","latitude":"39.92928000","longitude":"-75.29630000","wikiDataId":"Q1131896"},{"id":114296,"Name":"Clinton County","state_id":1422,"state_code":"PA","state_name":"Pennsylvania","country_id":233,"country_code":"US","country_name":"United States","latitude":"41.23405000","longitude":"-77.63811000","wikiDataId":"Q494093"},{"id":114323,"Name":"Clymer","state_id":1422,"state_code":"PA","state_name":"Pennsylvania","country_id":233,"country_code":"US","country_name":"United States","latitude":"40.66812000","longitude":"-79.01170000","wikiDataId":"Q1131031"},{"id":114334,"Name":"Coaldale","state_id":1422,"state_code":"PA","state_name":"Pennsylvania","country_id":233,"country_code":"US","country_name":"United States","latitude":"40.82287000","longitude":"-75.90687000","wikiDataId":"Q3476375"},{"id":114341,"Name":"Coatesville","state_id":1422,"state_code":"PA","state_name":"Pennsylvania","country_id":233,"country_code":"US","country_name":"United States","latitude":"39.98316000","longitude":"-75.82384000","wikiDataId":"Q1133193"},{"id":114353,"Name":"Cochranton","state_id":1422,"state_code":"PA","state_name":"Pennsylvania","country_id":233,"country_code":"US","country_name":"United States","latitude":"41.52005000","longitude":"-80.04839000","wikiDataId":"Q1131658"},{"id":114420,"Name":"Collegeville","state_id":1422,"state_code":"PA","state_name":"Pennsylvania","country_id":233,"country_code":"US","country_name":"United States","latitude":"40.18566000","longitude":"-75.45157000","wikiDataId":"Q1131352"},{"id":114427,"Name":"Collingdale","state_id":1422,"state_code":"PA","state_name":"Pennsylvania","country_id":233,"country_code":"US","country_name":"United States","latitude":"39.91178000","longitude":"-75.27713000","wikiDataId":"Q1132028"},{"id":114432,"Name":"Collinsburg","state_id":1422,"state_code":"PA","state_name":"Pennsylvania","country_id":233,"country_code":"US","country_name":"United States","latitude":"40.22424000","longitude":"-79.76838000","wikiDataId":"Q5147422"},{"id":114450,"Name":"Colonial Park","state_id":1422,"state_code":"PA","state_name":"Pennsylvania","country_id":233,"country_code":"US","country_name":"United States","latitude":"40.30064000","longitude":"-76.80969000","wikiDataId":"Q1131752"},{"id":114453,"Name":"Colony Park","state_id":1422,"state_code":"PA","state_name":"Pennsylvania","country_id":233,"country_code":"US","country_name":"United States","latitude":"40.34683000","longitude":"-75.98240000","wikiDataId":"Q5148502"},{"id":114473,"Name":"Columbia","state_id":1422,"state_code":"PA","state_name":"Pennsylvania","country_id":233,"country_code":"US","country_name":"United States","latitude":"40.03371000","longitude":"-76.50441000","wikiDataId":"Q1133892"},{"id":114481,"Name":"Columbia County","state_id":1422,"state_code":"PA","state_name":"Pennsylvania","country_id":233,"country_code":"US","country_name":"United States","latitude":"41.04865000","longitude":"-76.40515000","wikiDataId":"Q488693"},{"id":114508,"Name":"Colwyn","state_id":1422,"state_code":"PA","state_name":"Pennsylvania","country_id":233,"country_code":"US","country_name":"United States","latitude":"39.91234000","longitude":"-75.25379000","wikiDataId":"Q1132078"},{"id":114532,"Name":"Conashaugh Lakes","state_id":1422,"state_code":"PA","state_name":"Pennsylvania","country_id":233,"country_code":"US","country_name":"United States","latitude":"41.30593000","longitude":"-74.98962000","wikiDataId":"Q5158229"},{"id":114554,"Name":"Conemaugh","state_id":1422,"state_code":"PA","state_name":"Pennsylvania","country_id":233,"country_code":"US","country_name":"United States","latitude":"40.32674000","longitude":"-78.90808000","wikiDataId":"Q312455"},{"id":114555,"Name":"Conestoga","state_id":1422,"state_code":"PA","state_name":"Pennsylvania","country_id":233,"country_code":"US","country_name":"United States","latitude":"39.94066000","longitude":"-76.34635000","wikiDataId":"Q288042"},{"id":114560,"Name":"Conneaut Lakeshore","state_id":1422,"state_code":"PA","state_name":"Pennsylvania","country_id":233,"country_code":"US","country_name":"United States","latitude":"41.62711000","longitude":"-80.31008000","wikiDataId":"Q1132249"},{"id":114562,"Name":"Connellsville","state_id":1422,"state_code":"PA","state_name":"Pennsylvania","country_id":233,"country_code":"US","country_name":"United States","latitude":"40.01785000","longitude":"-79.58948000","wikiDataId":"Q1126267"},{"id":114571,"Name":"Conshohocken","state_id":1422,"state_code":"PA","state_name":"Pennsylvania","country_id":233,"country_code":"US","country_name":"United States","latitude":"40.07928000","longitude":"-75.30157000","wikiDataId":"Q1133674"},{"id":114586,"Name":"Conway","state_id":1422,"state_code":"PA","state_name":"Pennsylvania","country_id":233,"country_code":"US","country_name":"United States","latitude":"40.65979000","longitude":"-80.23923000","wikiDataId":"Q1134056"},{"id":114590,"Name":"Conyngham","state_id":1422,"state_code":"PA","state_name":"Pennsylvania","country_id":233,"country_code":"US","country_name":"United States","latitude":"40.99203000","longitude":"-76.05659000","wikiDataId":"Q1133252"},{"id":114604,"Name":"Coopersburg","state_id":1422,"state_code":"PA","state_name":"Pennsylvania","country_id":233,"country_code":"US","country_name":"United States","latitude":"40.51149000","longitude":"-75.39046000","wikiDataId":"Q1133102"},{"id":114618,"Name":"Coplay","state_id":1422,"state_code":"PA","state_name":"Pennsylvania","country_id":233,"country_code":"US","country_name":"United States","latitude":"40.67010000","longitude":"-75.49546000","wikiDataId":"Q1134639"},{"id":114630,"Name":"Coraopolis","state_id":1422,"state_code":"PA","state_name":"Pennsylvania","country_id":233,"country_code":"US","country_name":"United States","latitude":"40.51840000","longitude":"-80.16672000","wikiDataId":"Q1130247"},{"id":114659,"Name":"Cornwall","state_id":1422,"state_code":"PA","state_name":"Pennsylvania","country_id":233,"country_code":"US","country_name":"United States","latitude":"40.27370000","longitude":"-76.40607000","wikiDataId":"Q1131819"},{"id":114660,"Name":"Cornwells Heights","state_id":1422,"state_code":"PA","state_name":"Pennsylvania","country_id":233,"country_code":"US","country_name":"United States","latitude":"40.07678000","longitude":"-74.94878000","wikiDataId":"Q5172051"},{"id":114669,"Name":"Corry","state_id":1422,"state_code":"PA","state_name":"Pennsylvania","country_id":233,"country_code":"US","country_name":"United States","latitude":"41.92033000","longitude":"-79.64033000","wikiDataId":"Q1132048"},{"id":114709,"Name":"Coudersport","state_id":1422,"state_code":"PA","state_name":"Pennsylvania","country_id":233,"country_code":"US","country_name":"United States","latitude":"41.77479000","longitude":"-78.02056000","wikiDataId":"Q507887"},{"id":114754,"Name":"Crafton","state_id":1422,"state_code":"PA","state_name":"Pennsylvania","country_id":233,"country_code":"US","country_name":"United States","latitude":"40.43507000","longitude":"-80.06617000","wikiDataId":"Q1130411"},{"id":114763,"Name":"Cranberry Township","state_id":1422,"state_code":"PA","state_name":"Pennsylvania","country_id":233,"country_code":"US","country_name":"United States","latitude":"40.68496000","longitude":"-80.10714000","wikiDataId":"Q5181916"},{"id":114782,"Name":"Crawford County","state_id":1422,"state_code":"PA","state_name":"Pennsylvania","country_id":233,"country_code":"US","country_name":"United States","latitude":"41.68470000","longitude":"-80.10628000","wikiDataId":"Q494086"},{"id":114800,"Name":"Cresson","state_id":1422,"state_code":"PA","state_name":"Pennsylvania","country_id":233,"country_code":"US","country_name":"United States","latitude":"40.45979000","longitude":"-78.59168000","wikiDataId":"Q1130655"},{"id":114801,"Name":"Cressona","state_id":1422,"state_code":"PA","state_name":"Pennsylvania","country_id":233,"country_code":"US","country_name":"United States","latitude":"40.62676000","longitude":"-76.19272000","wikiDataId":"Q1131062"},{"id":114870,"Name":"Croydon","state_id":1422,"state_code":"PA","state_name":"Pennsylvania","country_id":233,"country_code":"US","country_name":"United States","latitude":"40.08733000","longitude":"-74.90350000","wikiDataId":"Q1131985"},{"id":114919,"Name":"Cumberland County","state_id":1422,"state_code":"PA","state_name":"Pennsylvania","country_id":233,"country_code":"US","country_name":"United States","latitude":"40.16363000","longitude":"-77.26555000","wikiDataId":"Q494134"},{"id":114929,"Name":"Curtisville","state_id":1422,"state_code":"PA","state_name":"Pennsylvania","country_id":233,"country_code":"US","country_name":"United States","latitude":"40.64229000","longitude":"-79.85089000","wikiDataId":"Q1134215"},{"id":114930,"Name":"Curwensville","state_id":1422,"state_code":"PA","state_name":"Pennsylvania","country_id":233,"country_code":"US","country_name":"United States","latitude":"40.97561000","longitude":"-78.52502000","wikiDataId":"Q1131787"},{"id":114980,"Name":"Dale","state_id":1422,"state_code":"PA","state_name":"Pennsylvania","country_id":233,"country_code":"US","country_name":"United States","latitude":"40.31285000","longitude":"-78.90419000","wikiDataId":"Q1130625"},{"id":114991,"Name":"Dallas","state_id":1422,"state_code":"PA","state_name":"Pennsylvania","country_id":233,"country_code":"US","country_name":"United States","latitude":"41.33619000","longitude":"-75.96325000","wikiDataId":"Q1133183"},{"id":114999,"Name":"Dallastown","state_id":1422,"state_code":"PA","state_name":"Pennsylvania","country_id":233,"country_code":"US","country_name":"United States","latitude":"39.89954000","longitude":"-76.64025000","wikiDataId":"Q1130850"},{"id":115003,"Name":"Dalton","state_id":1422,"state_code":"PA","state_name":"Pennsylvania","country_id":233,"country_code":"US","country_name":"United States","latitude":"41.53424000","longitude":"-75.73603000","wikiDataId":"Q1133177"},{"id":115037,"Name":"Danville","state_id":1422,"state_code":"PA","state_name":"Pennsylvania","country_id":233,"country_code":"US","country_name":"United States","latitude":"40.96342000","longitude":"-76.61273000","wikiDataId":"Q1135472"},{"id":115041,"Name":"Darby","state_id":1422,"state_code":"PA","state_name":"Pennsylvania","country_id":233,"country_code":"US","country_name":"United States","latitude":"39.91845000","longitude":"-75.25907000","wikiDataId":"Q1133990"},{"id":115056,"Name":"Dauphin County","state_id":1422,"state_code":"PA","state_name":"Pennsylvania","country_id":233,"country_code":"US","country_name":"United States","latitude":"40.41544000","longitude":"-76.77947000","wikiDataId":"Q488690"},{"id":115066,"Name":"Davidsville","state_id":1422,"state_code":"PA","state_name":"Pennsylvania","country_id":233,"country_code":"US","country_name":"United States","latitude":"40.22702000","longitude":"-78.93641000","wikiDataId":"Q1132515"},{"id":115208,"Name":"Delaware County","state_id":1422,"state_code":"PA","state_name":"Pennsylvania","country_id":233,"country_code":"US","country_name":"United States","latitude":"39.91681000","longitude":"-75.39890000","wikiDataId":"Q27844"},{"id":115219,"Name":"Delmont","state_id":1422,"state_code":"PA","state_name":"Pennsylvania","country_id":233,"country_code":"US","country_name":"United States","latitude":"40.41312000","longitude":"-79.57032000","wikiDataId":"Q1130992"},{"id":115252,"Name":"Denver","state_id":1422,"state_code":"PA","state_name":"Pennsylvania","country_id":233,"country_code":"US","country_name":"United States","latitude":"40.23315000","longitude":"-76.13717000","wikiDataId":"Q1134230"},{"id":115266,"Name":"Derry","state_id":1422,"state_code":"PA","state_name":"Pennsylvania","country_id":233,"country_code":"US","country_name":"United States","latitude":"40.33396000","longitude":"-79.29976000","wikiDataId":"Q1130490"},{"id":115300,"Name":"Devon","state_id":1422,"state_code":"PA","state_name":"Pennsylvania","country_id":233,"country_code":"US","country_name":"United States","latitude":"40.04928000","longitude":"-75.42908000","wikiDataId":"Q5267677"},{"id":115301,"Name":"Dewart","state_id":1422,"state_code":"PA","state_name":"Pennsylvania","country_id":233,"country_code":"US","country_name":"United States","latitude":"41.10925000","longitude":"-76.87663000","wikiDataId":"Q5268088"},{"id":115332,"Name":"Dickson City","state_id":1422,"state_code":"PA","state_name":"Pennsylvania","country_id":233,"country_code":"US","country_name":"United States","latitude":"41.47147000","longitude":"-75.60769000","wikiDataId":"Q1131902"},{"id":115346,"Name":"Dillsburg","state_id":1422,"state_code":"PA","state_name":"Pennsylvania","country_id":233,"country_code":"US","country_name":"United States","latitude":"40.11093000","longitude":"-77.03498000","wikiDataId":"Q335821"},{"id":115401,"Name":"Donora","state_id":1422,"state_code":"PA","state_name":"Pennsylvania","country_id":233,"country_code":"US","country_name":"United States","latitude":"40.17340000","longitude":"-79.85755000","wikiDataId":"Q1134745"},{"id":115412,"Name":"Dormont","state_id":1422,"state_code":"PA","state_name":"Pennsylvania","country_id":233,"country_code":"US","country_name":"United States","latitude":"40.39590000","longitude":"-80.03311000","wikiDataId":"Q1133036"},{"id":115413,"Name":"Dorneyville","state_id":1422,"state_code":"PA","state_name":"Pennsylvania","country_id":233,"country_code":"US","country_name":"United States","latitude":"40.57510000","longitude":"-75.51963000","wikiDataId":"Q5298116"},{"id":115451,"Name":"Dover","state_id":1422,"state_code":"PA","state_name":"Pennsylvania","country_id":233,"country_code":"US","country_name":"United States","latitude":"40.00176000","longitude":"-76.85025000","wikiDataId":"Q48215"},{"id":115462,"Name":"Downingtown","state_id":1422,"state_code":"PA","state_name":"Pennsylvania","country_id":233,"country_code":"US","country_name":"United States","latitude":"40.00650000","longitude":"-75.70327000","wikiDataId":"Q1133437"},{"id":115463,"Name":"Doylestown","state_id":1422,"state_code":"PA","state_name":"Pennsylvania","country_id":233,"country_code":"US","country_name":"United States","latitude":"40.31011000","longitude":"-75.12989000","wikiDataId":"Q1010232"},{"id":115470,"Name":"Dravosburg","state_id":1422,"state_code":"PA","state_name":"Pennsylvania","country_id":233,"country_code":"US","country_name":"United States","latitude":"40.35063000","longitude":"-79.88616000","wikiDataId":"Q1130781"},{"id":115472,"Name":"Dresher","state_id":1422,"state_code":"PA","state_name":"Pennsylvania","country_id":233,"country_code":"US","country_name":"United States","latitude":"40.14094000","longitude":"-75.16684000","wikiDataId":"Q5307029"},{"id":115477,"Name":"Drexel Hill","state_id":1422,"state_code":"PA","state_name":"Pennsylvania","country_id":233,"country_code":"US","country_name":"United States","latitude":"39.94706000","longitude":"-75.29213000","wikiDataId":"Q1132763"},{"id":115495,"Name":"Dublin","state_id":1422,"state_code":"PA","state_name":"Pennsylvania","country_id":233,"country_code":"US","country_name":"United States","latitude":"40.37177000","longitude":"-75.20156000","wikiDataId":"Q1130963"},{"id":115487,"Name":"DuBois","state_id":1422,"state_code":"PA","state_name":"Pennsylvania","country_id":233,"country_code":"US","country_name":"United States","latitude":"41.11923000","longitude":"-78.76003000","wikiDataId":"Q1134034"},{"id":115499,"Name":"Duboistown","state_id":1422,"state_code":"PA","state_name":"Pennsylvania","country_id":233,"country_code":"US","country_name":"United States","latitude":"41.22258000","longitude":"-77.03691000","wikiDataId":"Q1131264"},{"id":115519,"Name":"Dunbar","state_id":1422,"state_code":"PA","state_name":"Pennsylvania","country_id":233,"country_code":"US","country_name":"United States","latitude":"39.97785000","longitude":"-79.61448000","wikiDataId":"Q1131824"},{"id":115523,"Name":"Duncannon","state_id":1422,"state_code":"PA","state_name":"Pennsylvania","country_id":233,"country_code":"US","country_name":"United States","latitude":"40.39814000","longitude":"-77.02303000","wikiDataId":"Q1130985"},{"id":115524,"Name":"Duncansville","state_id":1422,"state_code":"PA","state_name":"Pennsylvania","country_id":233,"country_code":"US","country_name":"United States","latitude":"40.42341000","longitude":"-78.43390000","wikiDataId":"Q685473"},{"id":115545,"Name":"Dunmore","state_id":1422,"state_code":"PA","state_name":"Pennsylvania","country_id":233,"country_code":"US","country_name":"United States","latitude":"41.41980000","longitude":"-75.63241000","wikiDataId":"Q954774"},{"id":115552,"Name":"Dunnstown","state_id":1422,"state_code":"PA","state_name":"Pennsylvania","country_id":233,"country_code":"US","country_name":"United States","latitude":"41.14590000","longitude":"-77.42137000","wikiDataId":"Q1131543"},{"id":115558,"Name":"Dupont","state_id":1422,"state_code":"PA","state_name":"Pennsylvania","country_id":233,"country_code":"US","country_name":"United States","latitude":"41.32508000","longitude":"-75.74547000","wikiDataId":"Q1131145"},{"id":115561,"Name":"Duquesne","state_id":1422,"state_code":"PA","state_name":"Pennsylvania","country_id":233,"country_code":"US","country_name":"United States","latitude":"40.38146000","longitude":"-79.85977000","wikiDataId":"Q1130401"},{"id":115576,"Name":"Duryea","state_id":1422,"state_code":"PA","state_name":"Pennsylvania","country_id":233,"country_code":"US","country_name":"United States","latitude":"41.34397000","longitude":"-75.73853000","wikiDataId":"Q1131231"},{"id":115614,"Name":"Eagleview","state_id":1422,"state_code":"PA","state_name":"Pennsylvania","country_id":233,"country_code":"US","country_name":"United States","latitude":"40.05938000","longitude":"-75.68076000","wikiDataId":"Q5325402"},{"id":115615,"Name":"Eagleville","state_id":1422,"state_code":"PA","state_name":"Pennsylvania","country_id":233,"country_code":"US","country_name":"United States","latitude":"40.15955000","longitude":"-75.40824000","wikiDataId":"Q1134259"},{"id":115620,"Name":"Earlston","state_id":1422,"state_code":"PA","state_name":"Pennsylvania","country_id":233,"country_code":"US","country_name":"United States","latitude":"40.00619000","longitude":"-78.37001000","wikiDataId":"Q5326544"},{"id":115629,"Name":"East Bangor","state_id":1422,"state_code":"PA","state_name":"Pennsylvania","country_id":233,"country_code":"US","country_name":"United States","latitude":"40.87954000","longitude":"-75.18379000","wikiDataId":"Q1134221"},{"id":115631,"Name":"East Berlin","state_id":1422,"state_code":"PA","state_name":"Pennsylvania","country_id":233,"country_code":"US","country_name":"United States","latitude":"39.93760000","longitude":"-76.97859000","wikiDataId":"Q1130545"},{"id":115633,"Name":"East Berwick","state_id":1422,"state_code":"PA","state_name":"Pennsylvania","country_id":233,"country_code":"US","country_name":"United States","latitude":"41.06203000","longitude":"-76.22243000","wikiDataId":"Q1131644"},{"id":115648,"Name":"East Conemaugh","state_id":1422,"state_code":"PA","state_name":"Pennsylvania","country_id":233,"country_code":"US","country_name":"United States","latitude":"40.34868000","longitude":"-78.88364000","wikiDataId":"Q1134545"},{"id":115654,"Name":"East Earl","state_id":1422,"state_code":"PA","state_name":"Pennsylvania","country_id":233,"country_code":"US","country_name":"United States","latitude":"40.11010000","longitude":"-76.03272000","wikiDataId":"Q5328265"},{"id":115673,"Name":"East Greenville","state_id":1422,"state_code":"PA","state_name":"Pennsylvania","country_id":233,"country_code":"US","country_name":"United States","latitude":"40.40649000","longitude":"-75.50185000","wikiDataId":"Q1131952"},{"id":115702,"Name":"East Lansdowne","state_id":1422,"state_code":"PA","state_name":"Pennsylvania","country_id":233,"country_code":"US","country_name":"United States","latitude":"39.94567000","longitude":"-75.26129000","wikiDataId":"Q1131428"},{"id":115709,"Name":"East McKeesport","state_id":1422,"state_code":"PA","state_name":"Pennsylvania","country_id":233,"country_code":"US","country_name":"United States","latitude":"40.38312000","longitude":"-79.80644000","wikiDataId":"Q1133015"},{"id":115735,"Name":"East Petersburg","state_id":1422,"state_code":"PA","state_name":"Pennsylvania","country_id":233,"country_code":"US","country_name":"United States","latitude":"40.10010000","longitude":"-76.35413000","wikiDataId":"Q1133960"},{"id":115736,"Name":"East Pittsburgh","state_id":1422,"state_code":"PA","state_name":"Pennsylvania","country_id":233,"country_code":"US","country_name":"United States","latitude":"40.39562000","longitude":"-79.83866000","wikiDataId":"Q1130285"},{"id":115761,"Name":"East Stroudsburg","state_id":1422,"state_code":"PA","state_name":"Pennsylvania","country_id":233,"country_code":"US","country_name":"United States","latitude":"40.99954000","longitude":"-75.18129000","wikiDataId":"Q1132229"},{"id":115767,"Name":"East Uniontown","state_id":1422,"state_code":"PA","state_name":"Pennsylvania","country_id":233,"country_code":"US","country_name":"United States","latitude":"39.89980000","longitude":"-79.69782000","wikiDataId":"Q1132322"},{"id":115770,"Name":"East Washington","state_id":1422,"state_code":"PA","state_name":"Pennsylvania","country_id":233,"country_code":"US","country_name":"United States","latitude":"40.17368000","longitude":"-80.23756000","wikiDataId":"Q1131763"},{"id":115775,"Name":"East York","state_id":1422,"state_code":"PA","state_name":"Pennsylvania","country_id":233,"country_code":"US","country_name":"United States","latitude":"39.97371000","longitude":"-76.68636000","wikiDataId":"Q1134726"},{"id":115782,"Name":"Eastlawn Gardens","state_id":1422,"state_code":"PA","state_name":"Pennsylvania","country_id":233,"country_code":"US","country_name":"United States","latitude":"40.75065000","longitude":"-75.29573000","wikiDataId":"Q1132462"},{"id":115789,"Name":"Easton","state_id":1422,"state_code":"PA","state_name":"Pennsylvania","country_id":233,"country_code":"US","country_name":"United States","latitude":"40.68843000","longitude":"-75.22073000","wikiDataId":"Q1056542"},{"id":115812,"Name":"Ebensburg","state_id":1422,"state_code":"PA","state_name":"Pennsylvania","country_id":233,"country_code":"US","country_name":"United States","latitude":"40.48507000","longitude":"-78.72474000","wikiDataId":"Q1130214"},{"id":115817,"Name":"Economy","state_id":1422,"state_code":"PA","state_name":"Pennsylvania","country_id":233,"country_code":"US","country_name":"United States","latitude":"40.60007000","longitude":"-80.22478000","wikiDataId":"Q521011"},{"id":115822,"Name":"Eddington","state_id":1422,"state_code":"PA","state_name":"Pennsylvania","country_id":233,"country_code":"US","country_name":"United States","latitude":"40.08456000","longitude":"-74.94489000","wikiDataId":"Q5336601"},{"id":115825,"Name":"Eddystone","state_id":1422,"state_code":"PA","state_name":"Pennsylvania","country_id":233,"country_code":"US","country_name":"United States","latitude":"39.86011000","longitude":"-75.34436000","wikiDataId":"Q1132373"},{"id":115862,"Name":"Edgewood","state_id":1422,"state_code":"PA","state_name":"Pennsylvania","country_id":233,"country_code":"US","country_name":"United States","latitude":"40.43201000","longitude":"-79.88144000","wikiDataId":"Q1134644"},{"id":115865,"Name":"Edgeworth","state_id":1422,"state_code":"PA","state_name":"Pennsylvania","country_id":233,"country_code":"US","country_name":"United States","latitude":"40.55118000","longitude":"-80.19284000","wikiDataId":"Q1130822"},{"id":115868,"Name":"Edinboro","state_id":1422,"state_code":"PA","state_name":"Pennsylvania","country_id":233,"country_code":"US","country_name":"United States","latitude":"41.87422000","longitude":"-80.13172000","wikiDataId":"Q1132020"},{"id":115895,"Name":"Edwardsville","state_id":1422,"state_code":"PA","state_name":"Pennsylvania","country_id":233,"country_code":"US","country_name":"United States","latitude":"41.26953000","longitude":"-75.91631000","wikiDataId":"Q1133659"},{"id":115900,"Name":"Effort","state_id":1422,"state_code":"PA","state_name":"Pennsylvania","country_id":233,"country_code":"US","country_name":"United States","latitude":"40.93926000","longitude":"-75.43491000","wikiDataId":"Q5347511"},{"id":115905,"Name":"Egypt","state_id":1422,"state_code":"PA","state_name":"Pennsylvania","country_id":233,"country_code":"US","country_name":"United States","latitude":"40.68010000","longitude":"-75.52991000","wikiDataId":"Q5348306"},{"id":115969,"Name":"Elim","state_id":1422,"state_code":"PA","state_name":"Pennsylvania","country_id":233,"country_code":"US","country_name":"United States","latitude":"40.29785000","longitude":"-78.94253000","wikiDataId":"Q1134194"},{"id":115973,"Name":"Elizabeth","state_id":1422,"state_code":"PA","state_name":"Pennsylvania","country_id":233,"country_code":"US","country_name":"United States","latitude":"40.26924000","longitude":"-79.88977000","wikiDataId":"Q526217"},{"id":115981,"Name":"Elizabethtown","state_id":1422,"state_code":"PA","state_name":"Pennsylvania","country_id":233,"country_code":"US","country_name":"United States","latitude":"40.15287000","longitude":"-76.60275000","wikiDataId":"Q1133974"},{"id":115982,"Name":"Elizabethville","state_id":1422,"state_code":"PA","state_name":"Pennsylvania","country_id":233,"country_code":"US","country_name":"United States","latitude":"40.54897000","longitude":"-76.81192000","wikiDataId":"Q1130720"},{"id":115985,"Name":"Elk County","state_id":1422,"state_code":"PA","state_name":"Pennsylvania","country_id":233,"country_code":"US","country_name":"United States","latitude":"41.42523000","longitude":"-78.64909000","wikiDataId":"Q494254"},{"id":116007,"Name":"Elkland","state_id":1422,"state_code":"PA","state_name":"Pennsylvania","country_id":233,"country_code":"US","country_name":"United States","latitude":"41.98618000","longitude":"-77.31081000","wikiDataId":"Q1133596"},{"id":116036,"Name":"Ellport","state_id":1422,"state_code":"PA","state_name":"Pennsylvania","country_id":233,"country_code":"US","country_name":"United States","latitude":"40.86395000","longitude":"-80.25895000","wikiDataId":"Q1131957"},{"id":116041,"Name":"Ellwood City","state_id":1422,"state_code":"PA","state_name":"Pennsylvania","country_id":233,"country_code":"US","country_name":"United States","latitude":"40.86173000","longitude":"-80.28645000","wikiDataId":"Q1133201"},{"id":116074,"Name":"Elverson","state_id":1422,"state_code":"PA","state_name":"Pennsylvania","country_id":233,"country_code":"US","country_name":"United States","latitude":"40.15676000","longitude":"-75.83271000","wikiDataId":"Q1134239"},{"id":116087,"Name":"Elysburg","state_id":1422,"state_code":"PA","state_name":"Pennsylvania","country_id":233,"country_code":"US","country_name":"United States","latitude":"40.86453000","longitude":"-76.55246000","wikiDataId":"Q1133525"},{"id":116091,"Name":"Emerald Lakes","state_id":1422,"state_code":"PA","state_name":"Pennsylvania","country_id":233,"country_code":"US","country_name":"United States","latitude":"41.08842000","longitude":"-75.41963000","wikiDataId":"Q5370464"},{"id":116098,"Name":"Emigsville","state_id":1422,"state_code":"PA","state_name":"Pennsylvania","country_id":233,"country_code":"US","country_name":"United States","latitude":"40.02176000","longitude":"-76.72802000","wikiDataId":"Q1132543"},{"id":116101,"Name":"Emmaus","state_id":1422,"state_code":"PA","state_name":"Pennsylvania","country_id":233,"country_code":"US","country_name":"United States","latitude":"40.53954000","longitude":"-75.49685000","wikiDataId":"Q680643"},{"id":116113,"Name":"Emporium","state_id":1422,"state_code":"PA","state_name":"Pennsylvania","country_id":233,"country_code":"US","country_name":"United States","latitude":"41.51145000","longitude":"-78.23529000","wikiDataId":"Q302313"},{"id":116114,"Name":"Emsworth","state_id":1422,"state_code":"PA","state_name":"Pennsylvania","country_id":233,"country_code":"US","country_name":"United States","latitude":"40.51007000","longitude":"-80.09450000","wikiDataId":"Q1134530"},{"id":116137,"Name":"Enhaut","state_id":1422,"state_code":"PA","state_name":"Pennsylvania","country_id":233,"country_code":"US","country_name":"United States","latitude":"40.23176000","longitude":"-76.82692000","wikiDataId":"Q5378816"},{"id":116140,"Name":"Enlow","state_id":1422,"state_code":"PA","state_name":"Pennsylvania","country_id":233,"country_code":"US","country_name":"United States","latitude":"40.45423000","longitude":"-80.23311000","wikiDataId":"Q5379097"},{"id":116144,"Name":"Enola","state_id":1422,"state_code":"PA","state_name":"Pennsylvania","country_id":233,"country_code":"US","country_name":"United States","latitude":"40.29009000","longitude":"-76.93386000","wikiDataId":"Q1132153"},{"id":116155,"Name":"Ephrata","state_id":1422,"state_code":"PA","state_name":"Pennsylvania","country_id":233,"country_code":"US","country_name":"United States","latitude":"40.17982000","longitude":"-76.17884000","wikiDataId":"Q1134073"},{"id":116166,"Name":"Erie","state_id":1422,"state_code":"PA","state_name":"Pennsylvania","country_id":233,"country_code":"US","country_name":"United States","latitude":"42.12922000","longitude":"-80.08506000","wikiDataId":"Q234061"},{"id":116169,"Name":"Erie County","state_id":1422,"state_code":"PA","state_name":"Pennsylvania","country_id":233,"country_code":"US","country_name":"United States","latitude":"42.11748000","longitude":"-80.09811000","wikiDataId":"Q488679"},{"id":116190,"Name":"Espy","state_id":1422,"state_code":"PA","state_name":"Pennsylvania","country_id":233,"country_code":"US","country_name":"United States","latitude":"41.00620000","longitude":"-76.40994000","wikiDataId":"Q742331"},{"id":116216,"Name":"Etna","state_id":1422,"state_code":"PA","state_name":"Pennsylvania","country_id":233,"country_code":"US","country_name":"United States","latitude":"40.50424000","longitude":"-79.94894000","wikiDataId":"Q957962"},{"id":116247,"Name":"Evans City","state_id":1422,"state_code":"PA","state_name":"Pennsylvania","country_id":233,"country_code":"US","country_name":"United States","latitude":"40.76923000","longitude":"-80.06284000","wikiDataId":"Q1134130"},{"id":116249,"Name":"Evansburg","state_id":1422,"state_code":"PA","state_name":"Pennsylvania","country_id":233,"country_code":"US","country_name":"United States","latitude":"40.18094000","longitude":"-75.42907000","wikiDataId":"Q1132200"},{"id":116259,"Name":"Everett","state_id":1422,"state_code":"PA","state_name":"Pennsylvania","country_id":233,"country_code":"US","country_name":"United States","latitude":"40.01147000","longitude":"-78.37335000","wikiDataId":"Q1010525"},{"id":116272,"Name":"Exeter","state_id":1422,"state_code":"PA","state_name":"Pennsylvania","country_id":233,"country_code":"US","country_name":"United States","latitude":"41.32064000","longitude":"-75.81908000","wikiDataId":"Q1135480"},{"id":116277,"Name":"Exton","state_id":1422,"state_code":"PA","state_name":"Pennsylvania","country_id":233,"country_code":"US","country_name":"United States","latitude":"40.02900000","longitude":"-75.62077000","wikiDataId":"Q1016263"},{"id":116280,"Name":"Factoryville","state_id":1422,"state_code":"PA","state_name":"Pennsylvania","country_id":233,"country_code":"US","country_name":"United States","latitude":"41.56313000","longitude":"-75.78269000","wikiDataId":"Q1132003"},{"id":116296,"Name":"Fairchance","state_id":1422,"state_code":"PA","state_name":"Pennsylvania","country_id":233,"country_code":"US","country_name":"United States","latitude":"39.82480000","longitude":"-79.75449000","wikiDataId":"Q1134171"},{"id":116300,"Name":"Fairdale","state_id":1422,"state_code":"PA","state_name":"Pennsylvania","country_id":233,"country_code":"US","country_name":"United States","latitude":"39.88702000","longitude":"-79.96811000","wikiDataId":"Q1132524"},{"id":116327,"Name":"Fairhope","state_id":1422,"state_code":"PA","state_name":"Pennsylvania","country_id":233,"country_code":"US","country_name":"United States","latitude":"40.11368000","longitude":"-79.83977000","wikiDataId":"Q79502"},{"id":116332,"Name":"Fairless Hills","state_id":1422,"state_code":"PA","state_name":"Pennsylvania","country_id":233,"country_code":"US","country_name":"United States","latitude":"40.17955000","longitude":"-74.85516000","wikiDataId":"Q1132349"},{"id":116354,"Name":"Fairview","state_id":1422,"state_code":"PA","state_name":"Pennsylvania","country_id":233,"country_code":"US","country_name":"United States","latitude":"42.03145000","longitude":"-80.25534000","wikiDataId":"Q5430744"},{"id":116361,"Name":"Fairview-Ferndale","state_id":1422,"state_code":"PA","state_name":"Pennsylvania","country_id":233,"country_code":"US","country_name":"United States","latitude":"40.78037000","longitude":"-76.57528000","wikiDataId":"Q1133005"},{"id":116383,"Name":"Falls Creek","state_id":1422,"state_code":"PA","state_name":"Pennsylvania","country_id":233,"country_code":"US","country_name":"United States","latitude":"41.14506000","longitude":"-78.80447000","wikiDataId":"Q1134628"},{"id":116430,"Name":"Farrell","state_id":1422,"state_code":"PA","state_name":"Pennsylvania","country_id":233,"country_code":"US","country_name":"United States","latitude":"41.21228000","longitude":"-80.49674000","wikiDataId":"Q1130475"},{"id":116437,"Name":"Faxon","state_id":1422,"state_code":"PA","state_name":"Pennsylvania","country_id":233,"country_code":"US","country_name":"United States","latitude":"41.24841000","longitude":"-76.97719000","wikiDataId":"Q5438867"},{"id":116452,"Name":"Fayette County","state_id":1422,"state_code":"PA","state_name":"Pennsylvania","country_id":233,"country_code":"US","country_name":"United States","latitude":"39.91990000","longitude":"-79.64737000","wikiDataId":"Q488683"},{"id":116458,"Name":"Fayetteville","state_id":1422,"state_code":"PA","state_name":"Pennsylvania","country_id":233,"country_code":"US","country_name":"United States","latitude":"39.91120000","longitude":"-77.54999000","wikiDataId":"Q1133140"},{"id":116462,"Name":"Feasterville","state_id":1422,"state_code":"PA","state_name":"Pennsylvania","country_id":233,"country_code":"US","country_name":"United States","latitude":"40.14400000","longitude":"-75.00517000","wikiDataId":"Q5439565"},{"id":116468,"Name":"Fellsburg","state_id":1422,"state_code":"PA","state_name":"Pennsylvania","country_id":233,"country_code":"US","country_name":"United States","latitude":"40.18313000","longitude":"-79.82421000","wikiDataId":"Q5442554"},{"id":116488,"Name":"Ferndale","state_id":1422,"state_code":"PA","state_name":"Pennsylvania","country_id":233,"country_code":"US","country_name":"United States","latitude":"40.28896000","longitude":"-78.91475000","wikiDataId":"Q1134524"},{"id":116492,"Name":"Fernway","state_id":1422,"state_code":"PA","state_name":"Pennsylvania","country_id":233,"country_code":"US","country_name":"United States","latitude":"40.69479000","longitude":"-80.13089000","wikiDataId":"Q1132037"},{"id":116541,"Name":"Fivepointville","state_id":1422,"state_code":"PA","state_name":"Pennsylvania","country_id":233,"country_code":"US","country_name":"United States","latitude":"40.18287000","longitude":"-76.05106000","wikiDataId":"Q5456291"},{"id":116558,"Name":"Fleetwood","state_id":1422,"state_code":"PA","state_name":"Pennsylvania","country_id":233,"country_code":"US","country_name":"United States","latitude":"40.45398000","longitude":"-75.81798000","wikiDataId":"Q1132758"},{"id":116563,"Name":"Flemington","state_id":1422,"state_code":"PA","state_name":"Pennsylvania","country_id":233,"country_code":"US","country_name":"United States","latitude":"41.12646000","longitude":"-77.47165000","wikiDataId":"Q1131875"},{"id":116599,"Name":"Flourtown","state_id":1422,"state_code":"PA","state_name":"Pennsylvania","country_id":233,"country_code":"US","country_name":"United States","latitude":"40.10344000","longitude":"-75.21240000","wikiDataId":"Q1134594"},{"id":116615,"Name":"Flying Hills","state_id":1422,"state_code":"PA","state_name":"Pennsylvania","country_id":233,"country_code":"US","country_name":"United States","latitude":"40.27676000","longitude":"-75.91410000","wikiDataId":"Q1132387"},{"id":116618,"Name":"Folcroft","state_id":1422,"state_code":"PA","state_name":"Pennsylvania","country_id":233,"country_code":"US","country_name":"United States","latitude":"39.89095000","longitude":"-75.28380000","wikiDataId":"Q1134737"},{"id":116625,"Name":"Folsom","state_id":1422,"state_code":"PA","state_name":"Pennsylvania","country_id":233,"country_code":"US","country_name":"United States","latitude":"39.88983000","longitude":"-75.32519000","wikiDataId":"Q1132331"},{"id":116634,"Name":"Ford City","state_id":1422,"state_code":"PA","state_name":"Pennsylvania","country_id":233,"country_code":"US","country_name":"United States","latitude":"40.77229000","longitude":"-79.52977000","wikiDataId":"Q649236"},{"id":116649,"Name":"Forest City","state_id":1422,"state_code":"PA","state_name":"Pennsylvania","country_id":233,"country_code":"US","country_name":"United States","latitude":"41.65147000","longitude":"-75.46657000","wikiDataId":"Q1133258"},{"id":116650,"Name":"Forest County","state_id":1422,"state_code":"PA","state_name":"Pennsylvania","country_id":233,"country_code":"US","country_name":"United States","latitude":"41.51307000","longitude":"-79.23601000","wikiDataId":"Q494236"},{"id":116659,"Name":"Forest Hills","state_id":1422,"state_code":"PA","state_name":"Pennsylvania","country_id":233,"country_code":"US","country_name":"United States","latitude":"40.41979000","longitude":"-79.85005000","wikiDataId":"Q1130460"},{"id":116762,"Name":"Fort Washington","state_id":1422,"state_code":"PA","state_name":"Pennsylvania","country_id":233,"country_code":"US","country_name":"United States","latitude":"40.14178000","longitude":"-75.20906000","wikiDataId":"Q1133576"},{"id":116770,"Name":"Forty Fort","state_id":1422,"state_code":"PA","state_name":"Pennsylvania","country_id":233,"country_code":"US","country_name":"United States","latitude":"41.27897000","longitude":"-75.87825000","wikiDataId":"Q1131872"},{"id":116775,"Name":"Foster Brook","state_id":1422,"state_code":"PA","state_name":"Pennsylvania","country_id":233,"country_code":"US","country_name":"United States","latitude":"41.97506000","longitude":"-78.61725000","wikiDataId":"Q5473647"},{"id":116781,"Name":"Fountain Hill","state_id":1422,"state_code":"PA","state_name":"Pennsylvania","country_id":233,"country_code":"US","country_name":"United States","latitude":"40.60149000","longitude":"-75.39518000","wikiDataId":"Q1132267"},{"id":116799,"Name":"Fox Chapel","state_id":1422,"state_code":"PA","state_name":"Pennsylvania","country_id":233,"country_code":"US","country_name":"United States","latitude":"40.51340000","longitude":"-79.87977000","wikiDataId":"Q1130573"},{"id":116800,"Name":"Fox Chase","state_id":1422,"state_code":"PA","state_name":"Pennsylvania","country_id":233,"country_code":"US","country_name":"United States","latitude":"40.39557000","longitude":"-75.96216000","wikiDataId":"Q1130573"},{"id":116808,"Name":"Fox Run","state_id":1422,"state_code":"PA","state_name":"Pennsylvania","country_id":233,"country_code":"US","country_name":"United States","latitude":"40.70229000","longitude":"-80.08284000","wikiDataId":"Q1131531"},{"id":116810,"Name":"Frackville","state_id":1422,"state_code":"PA","state_name":"Pennsylvania","country_id":233,"country_code":"US","country_name":"United States","latitude":"40.78398000","longitude":"-76.23022000","wikiDataId":"Q1131378"},{"id":116840,"Name":"Franklin","state_id":1422,"state_code":"PA","state_name":"Pennsylvania","country_id":233,"country_code":"US","country_name":"United States","latitude":"41.39784000","longitude":"-79.83144000","wikiDataId":"Q1133554"},{"id":116862,"Name":"Franklin County","state_id":1422,"state_code":"PA","state_name":"Pennsylvania","country_id":233,"country_code":"US","country_name":"United States","latitude":"39.92742000","longitude":"-77.72127000","wikiDataId":"Q494121"},{"id":116870,"Name":"Franklin Park","state_id":1422,"state_code":"PA","state_name":"Pennsylvania","country_id":233,"country_code":"US","country_name":"United States","latitude":"40.58340000","longitude":"-80.08784000","wikiDataId":"Q1132670"},{"id":116892,"Name":"Fredericksburg","state_id":1422,"state_code":"PA","state_name":"Pennsylvania","country_id":233,"country_code":"US","country_name":"United States","latitude":"40.44370000","longitude":"-76.42829000","wikiDataId":"Q3476244"},{"id":116902,"Name":"Freedom","state_id":1422,"state_code":"PA","state_name":"Pennsylvania","country_id":233,"country_code":"US","country_name":"United States","latitude":"40.68562000","longitude":"-80.25173000","wikiDataId":"Q1130280"},{"id":116906,"Name":"Freeland","state_id":1422,"state_code":"PA","state_name":"Pennsylvania","country_id":233,"country_code":"US","country_name":"United States","latitude":"41.01675000","longitude":"-75.89714000","wikiDataId":"Q1130934"},{"id":116909,"Name":"Freemansburg","state_id":1422,"state_code":"PA","state_name":"Pennsylvania","country_id":233,"country_code":"US","country_name":"United States","latitude":"40.62649000","longitude":"-75.34574000","wikiDataId":"Q1134960"},{"id":116915,"Name":"Freeport","state_id":1422,"state_code":"PA","state_name":"Pennsylvania","country_id":233,"country_code":"US","country_name":"United States","latitude":"40.67395000","longitude":"-79.68477000","wikiDataId":"Q1130451"},{"id":116945,"Name":"Friedens","state_id":1422,"state_code":"PA","state_name":"Pennsylvania","country_id":233,"country_code":"US","country_name":"United States","latitude":"40.05008000","longitude":"-78.99836000","wikiDataId":"Q1131336"},{"id":116982,"Name":"Fullerton","state_id":1422,"state_code":"PA","state_name":"Pennsylvania","country_id":233,"country_code":"US","country_name":"United States","latitude":"40.63176000","longitude":"-75.47324000","wikiDataId":"Q1132364"},{"id":116998,"Name":"Fulton County","state_id":1422,"state_code":"PA","state_name":"Pennsylvania","country_id":233,"country_code":"US","country_name":"United States","latitude":"39.92534000","longitude":"-78.11268000","wikiDataId":"Q494211"},{"id":117030,"Name":"Galeton","state_id":1422,"state_code":"PA","state_name":"Pennsylvania","country_id":233,"country_code":"US","country_name":"United States","latitude":"41.73312000","longitude":"-77.64193000","wikiDataId":"Q1130884"},{"id":117038,"Name":"Gallitzin","state_id":1422,"state_code":"PA","state_name":"Pennsylvania","country_id":233,"country_code":"US","country_name":"United States","latitude":"40.48229000","longitude":"-78.55168000","wikiDataId":"Q1181293"},{"id":117052,"Name":"Gap","state_id":1422,"state_code":"PA","state_name":"Pennsylvania","country_id":233,"country_code":"US","country_name":"United States","latitude":"39.98732000","longitude":"-76.02051000","wikiDataId":"Q692032"},{"id":117068,"Name":"Garden View","state_id":1422,"state_code":"PA","state_name":"Pennsylvania","country_id":233,"country_code":"US","country_name":"United States","latitude":"41.25424000","longitude":"-77.04608000","wikiDataId":"Q1181353"},{"id":117117,"Name":"Gastonville","state_id":1422,"state_code":"PA","state_name":"Pennsylvania","country_id":233,"country_code":"US","country_name":"United States","latitude":"40.25729000","longitude":"-79.99588000","wikiDataId":"Q514482"},{"id":117132,"Name":"Geistown","state_id":1422,"state_code":"PA","state_name":"Pennsylvania","country_id":233,"country_code":"US","country_name":"United States","latitude":"40.29091000","longitude":"-78.86891000","wikiDataId":"Q1182761"},{"id":117158,"Name":"Georgetown","state_id":1422,"state_code":"PA","state_name":"Pennsylvania","country_id":233,"country_code":"US","country_name":"United States","latitude":"39.93760000","longitude":"-76.08329000","wikiDataId":"Q5546946"},{"id":117179,"Name":"Gettysburg","state_id":1422,"state_code":"PA","state_name":"Pennsylvania","country_id":233,"country_code":"US","country_name":"United States","latitude":"39.83093000","longitude":"-77.23110000","wikiDataId":"Q694550"},{"id":117192,"Name":"Gibsonia","state_id":1422,"state_code":"PA","state_name":"Pennsylvania","country_id":233,"country_code":"US","country_name":"United States","latitude":"40.63007000","longitude":"-79.96950000","wikiDataId":"Q5559438"},{"id":117207,"Name":"Gilbertsville","state_id":1422,"state_code":"PA","state_name":"Pennsylvania","country_id":233,"country_code":"US","country_name":"United States","latitude":"40.32010000","longitude":"-75.61018000","wikiDataId":"Q1182530"},{"id":117228,"Name":"Girard","state_id":1422,"state_code":"PA","state_name":"Pennsylvania","country_id":233,"country_code":"US","country_name":"United States","latitude":"42.00033000","longitude":"-80.31812000","wikiDataId":"Q1185903"},{"id":117229,"Name":"Girardville","state_id":1422,"state_code":"PA","state_name":"Pennsylvania","country_id":233,"country_code":"US","country_name":"United States","latitude":"40.79148000","longitude":"-76.28356000","wikiDataId":"Q1187073"},{"id":117254,"Name":"Glassport","state_id":1422,"state_code":"PA","state_name":"Pennsylvania","country_id":233,"country_code":"US","country_name":"United States","latitude":"40.32479000","longitude":"-79.89227000","wikiDataId":"Q596244"},{"id":117268,"Name":"Glen Lyon","state_id":1422,"state_code":"PA","state_name":"Pennsylvania","country_id":233,"country_code":"US","country_name":"United States","latitude":"41.17508000","longitude":"-76.07465000","wikiDataId":"Q1184336"},{"id":117272,"Name":"Glen Rock","state_id":1422,"state_code":"PA","state_name":"Pennsylvania","country_id":233,"country_code":"US","country_name":"United States","latitude":"39.79316000","longitude":"-76.73025000","wikiDataId":"Q1182763"},{"id":117301,"Name":"Glenolden","state_id":1422,"state_code":"PA","state_name":"Pennsylvania","country_id":233,"country_code":"US","country_name":"United States","latitude":"39.90011000","longitude":"-75.28907000","wikiDataId":"Q1185898"},{"id":117306,"Name":"Glenshaw","state_id":1422,"state_code":"PA","state_name":"Pennsylvania","country_id":233,"country_code":"US","country_name":"United States","latitude":"40.53285000","longitude":"-79.96755000","wikiDataId":"Q5569331"},{"id":117307,"Name":"Glenside","state_id":1422,"state_code":"PA","state_name":"Pennsylvania","country_id":233,"country_code":"US","country_name":"United States","latitude":"40.10233000","longitude":"-75.15212000","wikiDataId":"Q745037"},{"id":117344,"Name":"Gold Key Lake","state_id":1422,"state_code":"PA","state_name":"Pennsylvania","country_id":233,"country_code":"US","country_name":"United States","latitude":"41.30593000","longitude":"-74.93850000","wikiDataId":"Q5578766"},{"id":117526,"Name":"Grantley","state_id":1422,"state_code":"PA","state_name":"Pennsylvania","country_id":233,"country_code":"US","country_name":"United States","latitude":"39.94038000","longitude":"-76.72913000","wikiDataId":"Q1185373"},{"id":117608,"Name":"Green Tree","state_id":1422,"state_code":"PA","state_name":"Pennsylvania","country_id":233,"country_code":"US","country_name":"United States","latitude":"40.41174000","longitude":"-80.04561000","wikiDataId":"Q1185761"},{"id":117625,"Name":"Greencastle","state_id":1422,"state_code":"PA","state_name":"Pennsylvania","country_id":233,"country_code":"US","country_name":"United States","latitude":"39.79037000","longitude":"-77.72777000","wikiDataId":"Q1185633"},{"id":117643,"Name":"Greene County","state_id":1422,"state_code":"PA","state_name":"Pennsylvania","country_id":233,"country_code":"US","country_name":"United States","latitude":"39.85380000","longitude":"-80.22287000","wikiDataId":"Q494098"},{"id":117655,"Name":"Greenfields","state_id":1422,"state_code":"PA","state_name":"Pennsylvania","country_id":233,"country_code":"US","country_name":"United States","latitude":"40.35990000","longitude":"-75.95199000","wikiDataId":"Q5604018"},{"id":117660,"Name":"Greenock","state_id":1422,"state_code":"PA","state_name":"Pennsylvania","country_id":233,"country_code":"US","country_name":"United States","latitude":"40.31229000","longitude":"-79.80671000","wikiDataId":"Q5604339"},{"id":117672,"Name":"Greensburg","state_id":1422,"state_code":"PA","state_name":"Pennsylvania","country_id":233,"country_code":"US","country_name":"United States","latitude":"40.30146000","longitude":"-79.53893000","wikiDataId":"Q734974"},{"id":117694,"Name":"Greenville","state_id":1422,"state_code":"PA","state_name":"Pennsylvania","country_id":233,"country_code":"US","country_name":"United States","latitude":"41.40450000","longitude":"-80.39118000","wikiDataId":"Q1181726"},{"id":117707,"Name":"Greenwood","state_id":1422,"state_code":"PA","state_name":"Pennsylvania","country_id":233,"country_code":"US","country_name":"United States","latitude":"40.53590000","longitude":"-78.35751000","wikiDataId":"Q5604952"},{"id":117736,"Name":"Grill","state_id":1422,"state_code":"PA","state_name":"Pennsylvania","country_id":233,"country_code":"US","country_name":"United States","latitude":"40.29870000","longitude":"-75.94049000","wikiDataId":"Q5609159"},{"id":117756,"Name":"Grove City","state_id":1422,"state_code":"PA","state_name":"Pennsylvania","country_id":233,"country_code":"US","country_name":"United States","latitude":"41.15784000","longitude":"-80.08867000","wikiDataId":"Q1183945"},{"id":117785,"Name":"Guilford","state_id":1422,"state_code":"PA","state_name":"Pennsylvania","country_id":233,"country_code":"US","country_name":"United States","latitude":"39.91541000","longitude":"-77.60105000","wikiDataId":"Q753857"},{"id":117788,"Name":"Guilford Siding","state_id":1422,"state_code":"PA","state_name":"Pennsylvania","country_id":233,"country_code":"US","country_name":"United States","latitude":"39.86537000","longitude":"-77.61249000","wikiDataId":"Q502257"},{"id":117858,"Name":"Halfway House","state_id":1422,"state_code":"PA","state_name":"Pennsylvania","country_id":233,"country_code":"US","country_name":"United States","latitude":"40.28204000","longitude":"-75.64324000","wikiDataId":"Q1185406"},{"id":117868,"Name":"Hallam","state_id":1422,"state_code":"PA","state_name":"Pennsylvania","country_id":233,"country_code":"US","country_name":"United States","latitude":"40.00482000","longitude":"-76.60413000","wikiDataId":"Q1180936"},{"id":117874,"Name":"Hallstead","state_id":1422,"state_code":"PA","state_name":"Pennsylvania","country_id":233,"country_code":"US","country_name":"United States","latitude":"41.96119000","longitude":"-75.74324000","wikiDataId":"Q1186364"},{"id":117885,"Name":"Hamburg","state_id":1422,"state_code":"PA","state_name":"Pennsylvania","country_id":233,"country_code":"US","country_name":"United States","latitude":"40.55565000","longitude":"-75.98188000","wikiDataId":"Q1181264"},{"id":117968,"Name":"Hanover","state_id":1422,"state_code":"PA","state_name":"Pennsylvania","country_id":233,"country_code":"US","country_name":"United States","latitude":"39.80066000","longitude":"-76.98304000","wikiDataId":"Q1182166"},{"id":118020,"Name":"Harleigh","state_id":1422,"state_code":"PA","state_name":"Pennsylvania","country_id":233,"country_code":"US","country_name":"United States","latitude":"40.98064000","longitude":"-75.97131000","wikiDataId":"Q5658473"},{"id":118025,"Name":"Harleysville","state_id":1422,"state_code":"PA","state_name":"Pennsylvania","country_id":233,"country_code":"US","country_name":"United States","latitude":"40.27955000","longitude":"-75.38712000","wikiDataId":"Q973684"},{"id":118050,"Name":"Harrisburg","state_id":1422,"state_code":"PA","state_name":"Pennsylvania","country_id":233,"country_code":"US","country_name":"United States","latitude":"40.27370000","longitude":"-76.88442000","wikiDataId":"Q25280"},{"id":118116,"Name":"Harveys Lake","state_id":1422,"state_code":"PA","state_name":"Pennsylvania","country_id":233,"country_code":"US","country_name":"United States","latitude":"41.38341000","longitude":"-76.02465000","wikiDataId":"Q375019"},{"id":118130,"Name":"Hasson Heights","state_id":1422,"state_code":"PA","state_name":"Pennsylvania","country_id":233,"country_code":"US","country_name":"United States","latitude":"41.44895000","longitude":"-79.67700000","wikiDataId":"Q1189276"},{"id":118134,"Name":"Hastings","state_id":1422,"state_code":"PA","state_name":"Pennsylvania","country_id":233,"country_code":"US","country_name":"United States","latitude":"40.66507000","longitude":"-78.71225000","wikiDataId":"Q1182667"},{"id":118136,"Name":"Hatboro","state_id":1422,"state_code":"PA","state_name":"Pennsylvania","country_id":233,"country_code":"US","country_name":"United States","latitude":"40.17428000","longitude":"-75.10684000","wikiDataId":"Q1183413"},{"id":118139,"Name":"Hatfield","state_id":1422,"state_code":"PA","state_name":"Pennsylvania","country_id":233,"country_code":"US","country_name":"United States","latitude":"40.27983000","longitude":"-75.29934000","wikiDataId":"Q1184018"},{"id":118169,"Name":"Hawley","state_id":1422,"state_code":"PA","state_name":"Pennsylvania","country_id":233,"country_code":"US","country_name":"United States","latitude":"41.47592000","longitude":"-75.18212000","wikiDataId":"Q1182057"},{"id":118213,"Name":"Hazleton","state_id":1422,"state_code":"PA","state_name":"Pennsylvania","country_id":233,"country_code":"US","country_name":"United States","latitude":"40.95842000","longitude":"-75.97465000","wikiDataId":"Q1186937"},{"id":118239,"Name":"Hebron","state_id":1422,"state_code":"PA","state_name":"Pennsylvania","country_id":233,"country_code":"US","country_name":"United States","latitude":"40.33898000","longitude":"-76.39940000","wikiDataId":"Q13633582"},{"id":118245,"Name":"Heidelberg","state_id":1422,"state_code":"PA","state_name":"Pennsylvania","country_id":233,"country_code":"US","country_name":"United States","latitude":"40.39229000","longitude":"-80.09089000","wikiDataId":"Q1182438"},{"id":118259,"Name":"Hellertown","state_id":1422,"state_code":"PA","state_name":"Pennsylvania","country_id":233,"country_code":"US","country_name":"United States","latitude":"40.57954000","longitude":"-75.34073000","wikiDataId":"Q1184005"},{"id":118266,"Name":"Hemlock Farms","state_id":1422,"state_code":"PA","state_name":"Pennsylvania","country_id":233,"country_code":"US","country_name":"United States","latitude":"41.32676000","longitude":"-75.03656000","wikiDataId":"Q13633581"},{"id":118329,"Name":"Hermitage","state_id":1422,"state_code":"PA","state_name":"Pennsylvania","country_id":233,"country_code":"US","country_name":"United States","latitude":"41.23339000","longitude":"-80.44868000","wikiDataId":"Q1186376"},{"id":118341,"Name":"Hershey","state_id":1422,"state_code":"PA","state_name":"Pennsylvania","country_id":233,"country_code":"US","country_name":"United States","latitude":"40.28592000","longitude":"-76.65025000","wikiDataId":"Q868666"},{"id":118414,"Name":"Highland Park","state_id":1422,"state_code":"PA","state_name":"Pennsylvania","country_id":233,"country_code":"US","country_name":"United States","latitude":"40.62091000","longitude":"-77.56805000","wikiDataId":"Q1185715"},{"id":118423,"Name":"Highspire","state_id":1422,"state_code":"PA","state_name":"Pennsylvania","country_id":233,"country_code":"US","country_name":"United States","latitude":"40.21092000","longitude":"-76.79108000","wikiDataId":"Q1181488"},{"id":118442,"Name":"Hilldale","state_id":1422,"state_code":"PA","state_name":"Pennsylvania","country_id":233,"country_code":"US","country_name":"United States","latitude":"41.28925000","longitude":"-75.83631000","wikiDataId":"Q753976"},{"id":118443,"Name":"Hiller","state_id":1422,"state_code":"PA","state_name":"Pennsylvania","country_id":233,"country_code":"US","country_name":"United States","latitude":"40.01035000","longitude":"-79.90088000","wikiDataId":"Q1184193"},{"id":118515,"Name":"Hokendauqua","state_id":1422,"state_code":"PA","state_name":"Pennsylvania","country_id":233,"country_code":"US","country_name":"United States","latitude":"40.66204000","longitude":"-75.49102000","wikiDataId":"Q1185350"},{"id":118545,"Name":"Hollidaysburg","state_id":1422,"state_code":"PA","state_name":"Pennsylvania","country_id":233,"country_code":"US","country_name":"United States","latitude":"40.42729000","longitude":"-78.38890000","wikiDataId":"Q1025781"},