[{"id":15653,"Name":"Água Branca","state_id":2005,"state_code":"PB","state_name":"Paraíba","country_id":31,"country_code":"BR","country_name":"Brazil","latitude":"-7.46957000","longitude":"-37.66100000","wikiDataId":"Q1808899"},{"id":10100,"Name":"Aguiar","state_id":2005,"state_code":"PB","state_name":"Paraíba","country_id":31,"country_code":"BR","country_name":"Brazil","latitude":"-7.07620000","longitude":"-38.24255000","wikiDataId":"Q1998462"},{"id":10108,"Name":"Alagoa Grande","state_id":2005,"state_code":"PB","state_name":"Paraíba","country_id":31,"country_code":"BR","country_name":"Brazil","latitude":"-7.07831000","longitude":"-35.59525000","wikiDataId":"Q1998976"},{"id":10109,"Name":"Alagoa Nova","state_id":2005,"state_code":"PB","state_name":"Paraíba","country_id":31,"country_code":"BR","country_name":"Brazil","latitude":"-7.04733000","longitude":"-35.75397000","wikiDataId":"Q1816238"},{"id":10110,"Name":"Alagoinha","state_id":2005,"state_code":"PB","state_name":"Paraíba","country_id":31,"country_code":"BR","country_name":"Brazil","latitude":"-6.96256000","longitude":"-35.51465000","wikiDataId":"Q2065239"},{"id":10116,"Name":"Alcantil","state_id":2005,"state_code":"PB","state_name":"Paraíba","country_id":31,"country_code":"BR","country_name":"Brazil","latitude":"-7.69816000","longitude":"-36.06604000","wikiDataId":"Q986243"},{"id":10135,"Name":"Algodão de Jandaíra","state_id":2005,"state_code":"PB","state_name":"Paraíba","country_id":31,"country_code":"BR","country_name":"Brazil","latitude":"-6.86987000","longitude":"-35.97724000","wikiDataId":"Q1759357"},{"id":10136,"Name":"Alhandra","state_id":2005,"state_code":"PB","state_name":"Paraíba","country_id":31,"country_code":"BR","country_name":"Brazil","latitude":"-7.35043000","longitude":"-34.92835000","wikiDataId":"Q385529"},{"id":10219,"Name":"Amparo","state_id":2005,"state_code":"PB","state_name":"Paraíba","country_id":31,"country_code":"BR","country_name":"Brazil","latitude":"-7.55889000","longitude":"-37.03372000","wikiDataId":"Q2010915"},{"id":10284,"Name":"Aparecida","state_id":2005,"state_code":"PB","state_name":"Paraíba","country_id":31,"country_code":"BR","country_name":"Brazil","latitude":"-6.80925000","longitude":"-38.07182000","wikiDataId":"Q2077855"},{"id":10366,"Name":"Araçagi","state_id":2005,"state_code":"PB","state_name":"Paraíba","country_id":31,"country_code":"BR","country_name":"Brazil","latitude":"-6.85419000","longitude":"-35.36047000","wikiDataId":"Q586057"},{"id":10347,"Name":"Arara","state_id":2005,"state_code":"PB","state_name":"Paraíba","country_id":31,"country_code":"BR","country_name":"Brazil","latitude":"-6.82833000","longitude":"-35.75833000","wikiDataId":"Q37378"},{"id":10357,"Name":"Araruna","state_id":2005,"state_code":"PB","state_name":"Paraíba","country_id":31,"country_code":"BR","country_name":"Brazil","latitude":"-6.55833000","longitude":"-35.74167000","wikiDataId":"Q2065337"},{"id":10383,"Name":"Areia","state_id":2005,"state_code":"PB","state_name":"Paraíba","country_id":31,"country_code":"BR","country_name":"Brazil","latitude":"-6.94723000","longitude":"-35.66927000","wikiDataId":"Q1816283"},{"id":10386,"Name":"Areia de Baraúnas","state_id":2005,"state_code":"PB","state_name":"Paraíba","country_id":31,"country_code":"BR","country_name":"Brazil","latitude":"-7.11328000","longitude":"-36.97177000","wikiDataId":"Q949854"},{"id":10387,"Name":"Areial","state_id":2005,"state_code":"PB","state_name":"Paraíba","country_id":31,"country_code":"BR","country_name":"Brazil","latitude":"-7.04397000","longitude":"-35.92622000","wikiDataId":"Q949854"},{"id":10405,"Name":"Aroeiras","state_id":2005,"state_code":"PB","state_name":"Paraíba","country_id":31,"country_code":"BR","country_name":"Brazil","latitude":"-7.52057000","longitude":"-35.69927000","wikiDataId":"Q1808029"},{"id":10430,"Name":"Assunção","state_id":2005,"state_code":"PB","state_name":"Paraíba","country_id":31,"country_code":"BR","country_name":"Brazil","latitude":"-7.07371000","longitude":"-36.69894000","wikiDataId":"Q742227"},{"id":10589,"Name":"Baía da Traição","state_id":2005,"state_code":"PB","state_name":"Paraíba","country_id":31,"country_code":"BR","country_name":"Brazil","latitude":"-6.66287000","longitude":"-34.97272000","wikiDataId":"Q2065978"},{"id":10496,"Name":"Bananeiras","state_id":2005,"state_code":"PB","state_name":"Paraíba","country_id":31,"country_code":"BR","country_name":"Brazil","latitude":"-6.75000000","longitude":"-35.63333000","wikiDataId":"Q525672"},{"id":10505,"Name":"Baraúna","state_id":2005,"state_code":"PB","state_name":"Paraíba","country_id":31,"country_code":"BR","country_name":"Brazil","latitude":"-6.61853000","longitude":"-36.26964000","wikiDataId":"Q2662559"},{"id":10525,"Name":"Barra de Santa Rosa","state_id":2005,"state_code":"PB","state_name":"Paraíba","country_id":31,"country_code":"BR","country_name":"Brazil","latitude":"-6.79042000","longitude":"-36.00175000","wikiDataId":"Q1795377"},{"id":10526,"Name":"Barra de Santana","state_id":2005,"state_code":"PB","state_name":"Paraíba","country_id":31,"country_code":"BR","country_name":"Brazil","latitude":"-7.59054000","longitude":"-35.98824000","wikiDataId":"Q1795377"},{"id":10530,"Name":"Barra de São Miguel","state_id":2005,"state_code":"PB","state_name":"Paraíba","country_id":31,"country_code":"BR","country_name":"Brazil","latitude":"-7.71640000","longitude":"-36.25481000","wikiDataId":"Q1794183"},{"id":10587,"Name":"Bayeux","state_id":2005,"state_code":"PB","state_name":"Paraíba","country_id":31,"country_code":"BR","country_name":"Brazil","latitude":"-7.12136000","longitude":"-34.91725000","wikiDataId":"Q2065978"},{"id":10614,"Name":"Belém","state_id":2005,"state_code":"PB","state_name":"Paraíba","country_id":31,"country_code":"BR","country_name":"Brazil","latitude":"-6.69167000","longitude":"-35.53333000","wikiDataId":"Q792606"},{"id":10619,"Name":"Belém do Brejo do Cruz","state_id":2005,"state_code":"PB","state_name":"Paraíba","country_id":31,"country_code":"BR","country_name":"Brazil","latitude":"-6.18861000","longitude":"-37.53583000","wikiDataId":"Q285051"},{"id":10634,"Name":"Bernardino Batista","state_id":2005,"state_code":"PB","state_name":"Paraíba","country_id":31,"country_code":"BR","country_name":"Brazil","latitude":"-6.47656000","longitude":"-38.56998000","wikiDataId":"Q2068952"},{"id":10664,"Name":"Boa Ventura","state_id":2005,"state_code":"PB","state_name":"Paraíba","country_id":31,"country_code":"BR","country_name":"Brazil","latitude":"-7.45676000","longitude":"-38.17678000","wikiDataId":"Q268938"},{"id":10667,"Name":"Boa Vista","state_id":2005,"state_code":"PB","state_name":"Paraíba","country_id":31,"country_code":"BR","country_name":"Brazil","latitude":"-7.26995000","longitude":"-36.15741000","wikiDataId":"Q1808337"},{"id":10700,"Name":"Bom Jesus","state_id":2005,"state_code":"PB","state_name":"Paraíba","country_id":31,"country_code":"BR","country_name":"Brazil","latitude":"-6.81845000","longitude":"-38.62549000","wikiDataId":"Q2066065"},{"id":10725,"Name":"Bom Sucesso","state_id":2005,"state_code":"PB","state_name":"Paraíba","country_id":31,"country_code":"BR","country_name":"Brazil","latitude":"-6.47349000","longitude":"-37.95770000","wikiDataId":"Q2087575"},{"id":10741,"Name":"Bonito de Santa Fé","state_id":2005,"state_code":"PB","state_name":"Paraíba","country_id":31,"country_code":"BR","country_name":"Brazil","latitude":"-7.28940000","longitude":"-38.47977000","wikiDataId":"Q776733"},{"id":10743,"Name":"Boqueirão","state_id":2005,"state_code":"PB","state_name":"Paraíba","country_id":31,"country_code":"BR","country_name":"Brazil","latitude":"-7.48237000","longitude":"-36.13422000","wikiDataId":"Q22027642"},{"id":10751,"Name":"Borborema","state_id":2005,"state_code":"PB","state_name":"Paraíba","country_id":31,"country_code":"BR","country_name":"Brazil","latitude":"-6.79913000","longitude":"-35.62094000","wikiDataId":"Q338286"},{"id":10795,"Name":"Brejo do Cruz","state_id":2005,"state_code":"PB","state_name":"Paraíba","country_id":31,"country_code":"BR","country_name":"Brazil","latitude":"-6.32578000","longitude":"-37.49716000","wikiDataId":"Q1808002"},{"id":10797,"Name":"Brejo dos Santos","state_id":2005,"state_code":"PB","state_name":"Paraíba","country_id":31,"country_code":"BR","country_name":"Brazil","latitude":"-6.39546000","longitude":"-37.86070000","wikiDataId":"Q1808002"},{"id":10842,"Name":"Caaporã","state_id":2005,"state_code":"PB","state_name":"Paraíba","country_id":31,"country_code":"BR","country_name":"Brazil","latitude":"-7.51556000","longitude":"-34.90833000","wikiDataId":"Q1816118"},{"id":10845,"Name":"Cabaceiras","state_id":2005,"state_code":"PB","state_name":"Paraíba","country_id":31,"country_code":"BR","country_name":"Brazil","latitude":"-7.50856000","longitude":"-36.33351000","wikiDataId":"Q279492"},{"id":10850,"Name":"Cabedelo","state_id":2005,"state_code":"PB","state_name":"Paraíba","country_id":31,"country_code":"BR","country_name":"Brazil","latitude":"-6.98111000","longitude":"-34.83389000","wikiDataId":"Q986350"},{"id":10874,"Name":"Cachoeira dos Índios","state_id":2005,"state_code":"PB","state_name":"Paraíba","country_id":31,"country_code":"BR","country_name":"Brazil","latitude":"-6.94486000","longitude":"-38.69902000","wikiDataId":"Q1816046"},{"id":10880,"Name":"Cacimba de Areia","state_id":2005,"state_code":"PB","state_name":"Paraíba","country_id":31,"country_code":"BR","country_name":"Brazil","latitude":"-7.13451000","longitude":"-37.15370000","wikiDataId":"Q1439193"},{"id":10881,"Name":"Cacimba de Dentro","state_id":2005,"state_code":"PB","state_name":"Paraíba","country_id":31,"country_code":"BR","country_name":"Brazil","latitude":"-6.64167000","longitude":"-35.79000000","wikiDataId":"Q1816227"},{"id":10882,"Name":"Cacimbas","state_id":2005,"state_code":"PB","state_name":"Paraíba","country_id":31,"country_code":"BR","country_name":"Brazil","latitude":"-7.23180000","longitude":"-37.09984000","wikiDataId":"Q1816227"},{"id":10907,"Name":"Caiçara","state_id":2005,"state_code":"PB","state_name":"Paraíba","country_id":31,"country_code":"BR","country_name":"Brazil","latitude":"-6.59631000","longitude":"-35.39497000","wikiDataId":"Q22046952"},{"id":10915,"Name":"Cajazeiras","state_id":2005,"state_code":"PB","state_name":"Paraíba","country_id":31,"country_code":"BR","country_name":"Brazil","latitude":"-6.89028000","longitude":"-38.55528000","wikiDataId":"Q1808637"},{"id":10917,"Name":"Cajazeirinhas","state_id":2005,"state_code":"PB","state_name":"Paraíba","country_id":31,"country_code":"BR","country_name":"Brazil","latitude":"-6.94633000","longitude":"-37.81454000","wikiDataId":"Q1808637"},{"id":10924,"Name":"Caldas Brandão","state_id":2005,"state_code":"PB","state_name":"Paraíba","country_id":31,"country_code":"BR","country_name":"Brazil","latitude":"-7.15105000","longitude":"-35.34870000","wikiDataId":"Q22062733"},{"id":10936,"Name":"Camalaú","state_id":2005,"state_code":"PB","state_name":"Paraíba","country_id":31,"country_code":"BR","country_name":"Brazil","latitude":"-7.92695000","longitude":"-36.74211000","wikiDataId":"Q1816125"},{"id":10962,"Name":"Campina Grande","state_id":2005,"state_code":"PB","state_name":"Paraíba","country_id":31,"country_code":"BR","country_name":"Brazil","latitude":"-7.23056000","longitude":"-35.88111000","wikiDataId":"Q193016"},{"id":11073,"Name":"Capim","state_id":2005,"state_code":"PB","state_name":"Paraíba","country_id":31,"country_code":"BR","country_name":"Brazil","latitude":"-6.89150000","longitude":"-35.18300000","wikiDataId":"Q1808017"},{"id":11118,"Name":"Caraúbas","state_id":2005,"state_code":"PB","state_name":"Paraíba","country_id":31,"country_code":"BR","country_name":"Brazil","latitude":"-7.79092000","longitude":"-36.50278000","wikiDataId":"Q2078721"},{"id":11164,"Name":"Carrapateira","state_id":2005,"state_code":"PB","state_name":"Paraíba","country_id":31,"country_code":"BR","country_name":"Brazil","latitude":"-7.02919000","longitude":"-38.32951000","wikiDataId":"Q749757"},{"id":11182,"Name":"Casserengue","state_id":2005,"state_code":"PB","state_name":"Paraíba","country_id":31,"country_code":"BR","country_name":"Brazil","latitude":"-6.78130000","longitude":"-35.81676000","wikiDataId":"Q1816259"},{"id":11203,"Name":"Catingueira","state_id":2005,"state_code":"PB","state_name":"Paraíba","country_id":31,"country_code":"BR","country_name":"Brazil","latitude":"-7.13699000","longitude":"-37.59654000","wikiDataId":"Q2011032"},{"id":11205,"Name":"Catolé do Rocha","state_id":2005,"state_code":"PB","state_name":"Paraíba","country_id":31,"country_code":"BR","country_name":"Brazil","latitude":"-6.34389000","longitude":"-37.74667000","wikiDataId":"Q1808697"},{"id":11211,"Name":"Caturité","state_id":2005,"state_code":"PB","state_name":"Paraíba","country_id":31,"country_code":"BR","country_name":"Brazil","latitude":"-7.41991000","longitude":"-36.04194000","wikiDataId":"Q22059575"},{"id":11344,"Name":"Conceição","state_id":2005,"state_code":"PB","state_name":"Paraíba","country_id":31,"country_code":"BR","country_name":"Brazil","latitude":"-7.49917000","longitude":"-38.51375000","wikiDataId":"Q1221976"},{"id":11370,"Name":"Condado","state_id":2005,"state_code":"PB","state_name":"Paraíba","country_id":31,"country_code":"BR","country_name":"Brazil","latitude":"-6.85244000","longitude":"-37.61864000","wikiDataId":"Q507095"},{"id":11371,"Name":"Conde","state_id":2005,"state_code":"PB","state_name":"Paraíba","country_id":31,"country_code":"BR","country_name":"Brazil","latitude":"-7.25972000","longitude":"-34.90750000","wikiDataId":"Q1999780"},{"id":11377,"Name":"Congo","state_id":2005,"state_code":"PB","state_name":"Paraíba","country_id":31,"country_code":"BR","country_name":"Brazil","latitude":"-7.79578000","longitude":"-36.63487000","wikiDataId":"Q2009615"},{"id":11406,"Name":"Coremas","state_id":2005,"state_code":"PB","state_name":"Paraíba","country_id":31,"country_code":"BR","country_name":"Brazil","latitude":"-7.01444000","longitude":"-37.94583000","wikiDataId":"Q1843416"},{"id":11459,"Name":"Coxixola","state_id":2005,"state_code":"PB","state_name":"Paraíba","country_id":31,"country_code":"BR","country_name":"Brazil","latitude":"-7.66749000","longitude":"-36.61824000","wikiDataId":"Q1793013"},{"id":11492,"Name":"Cruz do Espírito Santo","state_id":2005,"state_code":"PB","state_name":"Paraíba","country_id":31,"country_code":"BR","country_name":"Brazil","latitude":"-7.14000000","longitude":"-35.08639000","wikiDataId":"Q512810"},{"id":11505,"Name":"Cubati","state_id":2005,"state_code":"PB","state_name":"Paraíba","country_id":31,"country_code":"BR","country_name":"Brazil","latitude":"-6.86116000","longitude":"-36.33415000","wikiDataId":"Q1756446"},{"id":11509,"Name":"Cuité","state_id":2005,"state_code":"PB","state_name":"Paraíba","country_id":31,"country_code":"BR","country_name":"Brazil","latitude":"-6.48361000","longitude":"-36.15361000","wikiDataId":"Q2064364"},{"id":11510,"Name":"Cuité de Mamanguape","state_id":2005,"state_code":"PB","state_name":"Paraíba","country_id":31,"country_code":"BR","country_name":"Brazil","latitude":"-6.89788000","longitude":"-35.26042000","wikiDataId":"Q2064364"},{"id":11508,"Name":"Cuitegi","state_id":2005,"state_code":"PB","state_name":"Paraíba","country_id":31,"country_code":"BR","country_name":"Brazil","latitude":"-6.90639000","longitude":"-35.53423000","wikiDataId":"Q170762"},{"id":11531,"Name":"Curral de Cima","state_id":2005,"state_code":"PB","state_name":"Paraíba","country_id":31,"country_code":"BR","country_name":"Brazil","latitude":"-6.72359000","longitude":"-35.28596000","wikiDataId":"Q2010383"},{"id":11530,"Name":"Curral Velho","state_id":2005,"state_code":"PB","state_name":"Paraíba","country_id":31,"country_code":"BR","country_name":"Brazil","latitude":"-7.55796000","longitude":"-38.19847000","wikiDataId":"Q2010383"},{"id":11560,"Name":"Damião","state_id":2005,"state_code":"PB","state_name":"Paraíba","country_id":31,"country_code":"BR","country_name":"Brazil","latitude":"-6.67843000","longitude":"-35.92205000","wikiDataId":"Q663661"},{"id":11579,"Name":"Desterro","state_id":2005,"state_code":"PB","state_name":"Paraíba","country_id":31,"country_code":"BR","country_name":"Brazil","latitude":"-7.29056000","longitude":"-37.09389000","wikiDataId":"Q2009945"},{"id":11584,"Name":"Diamante","state_id":2005,"state_code":"PB","state_name":"Paraíba","country_id":31,"country_code":"BR","country_name":"Brazil","latitude":"-7.41004000","longitude":"-38.30873000","wikiDataId":"Q651891"},{"id":11642,"Name":"Dona Inês","state_id":2005,"state_code":"PB","state_name":"Paraíba","country_id":31,"country_code":"BR","country_name":"Brazil","latitude":"-6.61354000","longitude":"-35.62654000","wikiDataId":"Q1814531"},{"id":11665,"Name":"Duas Estradas","state_id":2005,"state_code":"PB","state_name":"Paraíba","country_id":31,"country_code":"BR","country_name":"Brazil","latitude":"-6.71946000","longitude":"-35.39737000","wikiDataId":"Q303413"},{"id":11687,"Name":"Emas","state_id":2005,"state_code":"PB","state_name":"Paraíba","country_id":31,"country_code":"BR","country_name":"Brazil","latitude":"-7.12680000","longitude":"-37.73881000","wikiDataId":"Q939717"},{"id":11731,"Name":"Esperança","state_id":2005,"state_code":"PB","state_name":"Paraíba","country_id":31,"country_code":"BR","country_name":"Brazil","latitude":"-6.99864000","longitude":"-35.90777000","wikiDataId":"Q1816186"},{"id":11770,"Name":"Fagundes","state_id":2005,"state_code":"PB","state_name":"Paraíba","country_id":31,"country_code":"BR","country_name":"Brazil","latitude":"-7.35500000","longitude":"-35.77500000","wikiDataId":"Q2011192"},{"id":11894,"Name":"Frei Martinho","state_id":2005,"state_code":"PB","state_name":"Paraíba","country_id":31,"country_code":"BR","country_name":"Brazil","latitude":"-6.44605000","longitude":"-36.48061000","wikiDataId":"Q1790769"},{"id":11911,"Name":"Gado Bravo","state_id":2005,"state_code":"PB","state_name":"Paraíba","country_id":31,"country_code":"BR","country_name":"Brazil","latitude":"-7.59984000","longitude":"-35.81967000","wikiDataId":"Q593133"},{"id":12034,"Name":"Guarabira","state_id":2005,"state_code":"PB","state_name":"Paraíba","country_id":31,"country_code":"BR","country_name":"Brazil","latitude":"-6.85472000","longitude":"-35.49000000","wikiDataId":"Q1827121"},{"id":12086,"Name":"Gurinhém","state_id":2005,"state_code":"PB","state_name":"Paraíba","country_id":31,"country_code":"BR","country_name":"Brazil","latitude":"-7.12389000","longitude":"-35.42444000","wikiDataId":"Q1991293"},{"id":12087,"Name":"Gurjão","state_id":2005,"state_code":"PB","state_name":"Paraíba","country_id":31,"country_code":"BR","country_name":"Brazil","latitude":"-7.26100000","longitude":"-36.50008000","wikiDataId":"Q1991293"},{"id":12130,"Name":"Ibiara","state_id":2005,"state_code":"PB","state_name":"Paraíba","country_id":31,"country_code":"BR","country_name":"Brazil","latitude":"-7.48251000","longitude":"-38.38051000","wikiDataId":"Q2028027"},{"id":12179,"Name":"Igaracy","state_id":2005,"state_code":"PB","state_name":"Paraíba","country_id":31,"country_code":"BR","country_name":"Brazil","latitude":"-7.13856000","longitude":"-38.13526000","wikiDataId":"Q1808097"},{"id":12217,"Name":"Imaculada","state_id":2005,"state_code":"PB","state_name":"Paraíba","country_id":31,"country_code":"BR","country_name":"Brazil","latitude":"-7.38972000","longitude":"-37.50917000","wikiDataId":"Q2009933"},{"id":12245,"Name":"Ingá","state_id":2005,"state_code":"PB","state_name":"Paraíba","country_id":31,"country_code":"BR","country_name":"Brazil","latitude":"-7.25441000","longitude":"-35.62897000","wikiDataId":"Q929040"},{"id":12325,"Name":"Itabaiana","state_id":2005,"state_code":"PB","state_name":"Paraíba","country_id":31,"country_code":"BR","country_name":"Brazil","latitude":"-7.32861000","longitude":"-35.33250000","wikiDataId":"Q2103719"},{"id":12430,"Name":"Itaporanga","state_id":2005,"state_code":"PB","state_name":"Paraíba","country_id":31,"country_code":"BR","country_name":"Brazil","latitude":"-7.30035000","longitude":"-38.25159000","wikiDataId":"Q2079014"},{"id":12432,"Name":"Itapororoca","state_id":2005,"state_code":"PB","state_name":"Paraíba","country_id":31,"country_code":"BR","country_name":"Brazil","latitude":"-6.81152000","longitude":"-35.24478000","wikiDataId":"Q2079014"},{"id":12461,"Name":"Itatuba","state_id":2005,"state_code":"PB","state_name":"Paraíba","country_id":31,"country_code":"BR","country_name":"Brazil","latitude":"-7.37500000","longitude":"-35.62833000","wikiDataId":"Q2008704"},{"id":12518,"Name":"Jacaraú","state_id":2005,"state_code":"PB","state_name":"Paraíba","country_id":31,"country_code":"BR","country_name":"Brazil","latitude":"-6.61222000","longitude":"-35.29278000","wikiDataId":"Q2010372"},{"id":12621,"Name":"Jericó","state_id":2005,"state_code":"PB","state_name":"Paraíba","country_id":31,"country_code":"BR","country_name":"Brazil","latitude":"-6.50746000","longitude":"-37.80665000","wikiDataId":"Q1761820"},{"id":12665,"Name":"João Pessoa","state_id":2005,"state_code":"PB","state_name":"Paraíba","country_id":31,"country_code":"BR","country_name":"Brazil","latitude":"-7.11500000","longitude":"-34.86306000","wikiDataId":"Q167436"},{"id":12643,"Name":"Joca Claudino","state_id":2005,"state_code":"PB","state_name":"Paraíba","country_id":31,"country_code":"BR","country_name":"Brazil","latitude":"-6.48432000","longitude":"-38.46407000","wikiDataId":"Q2098422"},{"id":12669,"Name":"Juarez Távora","state_id":2005,"state_code":"PB","state_name":"Paraíba","country_id":31,"country_code":"BR","country_name":"Brazil","latitude":"-7.15975000","longitude":"-35.57160000","wikiDataId":"Q675677"},{"id":12672,"Name":"Juazeirinho","state_id":2005,"state_code":"PB","state_name":"Paraíba","country_id":31,"country_code":"BR","country_name":"Brazil","latitude":"-6.99463000","longitude":"-36.60213000","wikiDataId":"Q1790670"},{"id":12683,"Name":"Junco do Seridó","state_id":2005,"state_code":"PB","state_name":"Paraíba","country_id":31,"country_code":"BR","country_name":"Brazil","latitude":"-6.97843000","longitude":"-36.72769000","wikiDataId":"Q193019"},{"id":12698,"Name":"Juripiranga","state_id":2005,"state_code":"PB","state_name":"Paraíba","country_id":31,"country_code":"BR","country_name":"Brazil","latitude":"-7.35000000","longitude":"-35.22087000","wikiDataId":"Q2008351"},{"id":12699,"Name":"Juru","state_id":2005,"state_code":"PB","state_name":"Paraíba","country_id":31,"country_code":"BR","country_name":"Brazil","latitude":"-7.49131000","longitude":"-37.78854000","wikiDataId":"Q1808550"},{"id":12733,"Name":"Lagoa","state_id":2005,"state_code":"PB","state_name":"Paraíba","country_id":31,"country_code":"BR","country_name":"Brazil","latitude":"-6.59521000","longitude":"-37.84991000","wikiDataId":"Q305180"},{"id":12752,"Name":"Lagoa de Dentro","state_id":2005,"state_code":"PB","state_name":"Paraíba","country_id":31,"country_code":"BR","country_name":"Brazil","latitude":"-6.68308000","longitude":"-35.35907000","wikiDataId":"Q2011329"},{"id":12746,"Name":"Lagoa Seca","state_id":2005,"state_code":"PB","state_name":"Paraíba","country_id":31,"country_code":"BR","country_name":"Brazil","latitude":"-7.17083000","longitude":"-35.85361000","wikiDataId":"Q2010981"},{"id":12802,"Name":"Lastro","state_id":2005,"state_code":"PB","state_name":"Paraíba","country_id":31,"country_code":"BR","country_name":"Brazil","latitude":"-6.53740000","longitude":"-38.18946000","wikiDataId":"Q1803900"},{"id":12842,"Name":"Livramento","state_id":2005,"state_code":"PB","state_name":"Paraíba","country_id":31,"country_code":"BR","country_name":"Brazil","latitude":"-7.34008000","longitude":"-36.93209000","wikiDataId":"Q2065825"},{"id":12848,"Name":"Logradouro","state_id":2005,"state_code":"PB","state_name":"Paraíba","country_id":31,"country_code":"BR","country_name":"Brazil","latitude":"-6.55268000","longitude":"-35.42864000","wikiDataId":"Q2012226"},{"id":12858,"Name":"Lucena","state_id":2005,"state_code":"PB","state_name":"Paraíba","country_id":31,"country_code":"BR","country_name":"Brazil","latitude":"-6.92461000","longitude":"-34.90267000","wikiDataId":"Q22040474"},{"id":13292,"Name":"Mãe d'Água","state_id":2005,"state_code":"PB","state_name":"Paraíba","country_id":31,"country_code":"BR","country_name":"Brazil","latitude":"-7.21990000","longitude":"-37.45284000","wikiDataId":"Q1772621"},{"id":12930,"Name":"Malta","state_id":2005,"state_code":"PB","state_name":"Paraíba","country_id":31,"country_code":"BR","country_name":"Brazil","latitude":"-6.90400000","longitude":"-37.51251000","wikiDataId":"Q741333"},{"id":12931,"Name":"Mamanguape","state_id":2005,"state_code":"PB","state_name":"Paraíba","country_id":31,"country_code":"BR","country_name":"Brazil","latitude":"-6.83861000","longitude":"-35.12611000","wikiDataId":"Q1008338"},{"id":12940,"Name":"Manaíra","state_id":2005,"state_code":"PB","state_name":"Paraíba","country_id":31,"country_code":"BR","country_name":"Brazil","latitude":"-7.70611000","longitude":"-38.15444000","wikiDataId":"Q2009309"},{"id":12990,"Name":"Marcação","state_id":2005,"state_code":"PB","state_name":"Paraíba","country_id":31,"country_code":"BR","country_name":"Brazil","latitude":"-6.74717000","longitude":"-34.99103000","wikiDataId":"Q2028783"},{"id":13003,"Name":"Mari","state_id":2005,"state_code":"PB","state_name":"Paraíba","country_id":31,"country_code":"BR","country_name":"Brazil","latitude":"-7.07138000","longitude":"-35.30258000","wikiDataId":"Q965785"},{"id":13023,"Name":"Marizópolis","state_id":2005,"state_code":"PB","state_name":"Paraíba","country_id":31,"country_code":"BR","country_name":"Brazil","latitude":"-6.82133000","longitude":"-38.33496000","wikiDataId":"Q208669"},{"id":13043,"Name":"Massaranduba","state_id":2005,"state_code":"PB","state_name":"Paraíba","country_id":31,"country_code":"BR","country_name":"Brazil","latitude":"-7.20476000","longitude":"-35.78379000","wikiDataId":"Q2079004"},{"id":13050,"Name":"Mataraca","state_id":2005,"state_code":"PB","state_name":"Paraíba","country_id":31,"country_code":"BR","country_name":"Brazil","latitude":"-6.55476000","longitude":"-35.03690000","wikiDataId":"Q648152"},{"id":13061,"Name":"Matinhas","state_id":2005,"state_code":"PB","state_name":"Paraíba","country_id":31,"country_code":"BR","country_name":"Brazil","latitude":"-7.12428000","longitude":"-35.76070000","wikiDataId":"Q1116758"},{"id":13065,"Name":"Mato Grosso","state_id":2005,"state_code":"PB","state_name":"Paraíba","country_id":31,"country_code":"BR","country_name":"Brazil","latitude":"-6.54728000","longitude":"-37.75067000","wikiDataId":"Q1790074"},{"id":13075,"Name":"Maturéia","state_id":2005,"state_code":"PB","state_name":"Paraíba","country_id":31,"country_code":"BR","country_name":"Brazil","latitude":"-7.27175000","longitude":"-37.33940000","wikiDataId":"Q2009368"},{"id":13164,"Name":"Mogeiro","state_id":2005,"state_code":"PB","state_name":"Paraíba","country_id":31,"country_code":"BR","country_name":"Brazil","latitude":"-7.29944000","longitude":"-35.47944000","wikiDataId":"Q764440"},{"id":13181,"Name":"Montadas","state_id":2005,"state_code":"PB","state_name":"Paraíba","country_id":31,"country_code":"BR","country_name":"Brazil","latitude":"-7.08947000","longitude":"-35.90300000","wikiDataId":"Q526892"},{"id":13205,"Name":"Monte Horebe","state_id":2005,"state_code":"PB","state_name":"Paraíba","country_id":31,"country_code":"BR","country_name":"Brazil","latitude":"-7.20792000","longitude":"-38.52503000","wikiDataId":"Q22062362"},{"id":13215,"Name":"Monteiro","state_id":2005,"state_code":"PB","state_name":"Paraíba","country_id":31,"country_code":"BR","country_name":"Brazil","latitude":"-7.91637000","longitude":"-37.17496000","wikiDataId":"Q1808426"},{"id":13266,"Name":"Mulungu","state_id":2005,"state_code":"PB","state_name":"Paraíba","country_id":31,"country_code":"BR","country_name":"Brazil","latitude":"-7.02444000","longitude":"-35.46194000","wikiDataId":"Q2341988"},{"id":13304,"Name":"Natuba","state_id":2005,"state_code":"PB","state_name":"Paraíba","country_id":31,"country_code":"BR","country_name":"Brazil","latitude":"-7.64139000","longitude":"-35.55000000","wikiDataId":"Q2008665"},{"id":13309,"Name":"Nazarezinho","state_id":2005,"state_code":"PB","state_name":"Paraíba","country_id":31,"country_code":"BR","country_name":"Brazil","latitude":"-6.91991000","longitude":"-38.32592000","wikiDataId":"Q2007785"},{"id":13379,"Name":"Nova Floresta","state_id":2005,"state_code":"PB","state_name":"Paraíba","country_id":31,"country_code":"BR","country_name":"Brazil","latitude":"-6.48792000","longitude":"-36.20101000","wikiDataId":"Q521125"},{"id":13410,"Name":"Nova Olinda","state_id":2005,"state_code":"PB","state_name":"Paraíba","country_id":31,"country_code":"BR","country_name":"Brazil","latitude":"-7.45231000","longitude":"-38.01122000","wikiDataId":"Q1648345"},{"id":13417,"Name":"Nova Palmeira","state_id":2005,"state_code":"PB","state_name":"Paraíba","country_id":31,"country_code":"BR","country_name":"Brazil","latitude":"-6.67346000","longitude":"-36.44186000","wikiDataId":"Q2103607"},{"id":13494,"Name":"Olho d'Água","state_id":2005,"state_code":"PB","state_name":"Paraíba","country_id":31,"country_code":"BR","country_name":"Brazil","latitude":"-7.26106000","longitude":"-37.73242000","wikiDataId":"Q2077934"},{"id":13505,"Name":"Olivedos","state_id":2005,"state_code":"PB","state_name":"Paraíba","country_id":31,"country_code":"BR","country_name":"Brazil","latitude":"-6.99403000","longitude":"-36.23822000","wikiDataId":"Q1648508"},{"id":13544,"Name":"Ouro Velho","state_id":2005,"state_code":"PB","state_name":"Paraíba","country_id":31,"country_code":"BR","country_name":"Brazil","latitude":"-7.60554000","longitude":"-37.13565000","wikiDataId":"Q1803223"},{"id":13652,"Name":"Parari","state_id":2005,"state_code":"PB","state_name":"Paraíba","country_id":31,"country_code":"BR","country_name":"Brazil","latitude":"-7.31136000","longitude":"-36.67699000","wikiDataId":"Q2103106"},{"id":13692,"Name":"Passagem","state_id":2005,"state_code":"PB","state_name":"Paraíba","country_id":31,"country_code":"BR","country_name":"Brazil","latitude":"-7.11889000","longitude":"-37.03671000","wikiDataId":"Q2104849"},{"id":13706,"Name":"Patos","state_id":2005,"state_code":"PB","state_name":"Paraíba","country_id":31,"country_code":"BR","country_name":"Brazil","latitude":"-7.02444000","longitude":"-37.28000000","wikiDataId":"Q1966384"},{"id":13726,"Name":"Paulista","state_id":2005,"state_code":"PB","state_name":"Paraíba","country_id":31,"country_code":"BR","country_name":"Brazil","latitude":"-6.59504000","longitude":"-37.60966000","wikiDataId":"Q2081885"},{"id":13750,"Name":"Pedra Branca","state_id":2005,"state_code":"PB","state_name":"Paraíba","country_id":31,"country_code":"BR","country_name":"Brazil","latitude":"-7.46068000","longitude":"-38.07996000","wikiDataId":"Q2342000"},{"id":13754,"Name":"Pedra Lavrada","state_id":2005,"state_code":"PB","state_name":"Paraíba","country_id":31,"country_code":"BR","country_name":"Brazil","latitude":"-6.78024000","longitude":"-36.44200000","wikiDataId":"Q2342000"},{"id":13764,"Name":"Pedras de Fogo","state_id":2005,"state_code":"PB","state_name":"Paraíba","country_id":31,"country_code":"BR","country_name":"Brazil","latitude":"-7.40194000","longitude":"-35.11639000","wikiDataId":"Q2009248"},{"id":13781,"Name":"Pedro Régis","state_id":2005,"state_code":"PB","state_name":"Paraíba","country_id":31,"country_code":"BR","country_name":"Brazil","latitude":"-6.67047000","longitude":"-35.31031000","wikiDataId":"Q2064424"},{"id":13824,"Name":"Piancó","state_id":2005,"state_code":"PB","state_name":"Paraíba","country_id":31,"country_code":"BR","country_name":"Brazil","latitude":"-7.19806000","longitude":"-37.92917000","wikiDataId":"Q2009920"},{"id":13830,"Name":"Picuí","state_id":2005,"state_code":"PB","state_name":"Paraíba","country_id":31,"country_code":"BR","country_name":"Brazil","latitude":"-6.51056000","longitude":"-36.34694000","wikiDataId":"Q2008685"},{"id":13836,"Name":"Pilar","state_id":2005,"state_code":"PB","state_name":"Paraíba","country_id":31,"country_code":"BR","country_name":"Brazil","latitude":"-7.25739000","longitude":"-35.26971000","wikiDataId":"Q731296"},{"id":13841,"Name":"Pilões","state_id":2005,"state_code":"PB","state_name":"Paraíba","country_id":31,"country_code":"BR","country_name":"Brazil","latitude":"-6.89446000","longitude":"-35.59432000","wikiDataId":"Q2067408"},{"id":13843,"Name":"Pilõezinhos","state_id":2005,"state_code":"PB","state_name":"Paraíba","country_id":31,"country_code":"BR","country_name":"Brazil","latitude":"-6.85269000","longitude":"-35.54455000","wikiDataId":"Q2011307"},{"id":13920,"Name":"Pirpirituba","state_id":2005,"state_code":"PB","state_name":"Paraíba","country_id":31,"country_code":"BR","country_name":"Brazil","latitude":"-6.78000000","longitude":"-35.49861000","wikiDataId":"Q1870026"},{"id":13925,"Name":"Pitimbu","state_id":2005,"state_code":"PB","state_name":"Paraíba","country_id":31,"country_code":"BR","country_name":"Brazil","latitude":"-7.41381000","longitude":"-34.83686000","wikiDataId":"Q2008741"},{"id":13946,"Name":"Pocinhos","state_id":2005,"state_code":"PB","state_name":"Paraíba","country_id":31,"country_code":"BR","country_name":"Brazil","latitude":"-7.07667000","longitude":"-36.06111000","wikiDataId":"Q1816070"},{"id":14046,"Name":"Poço Dantas","state_id":2005,"state_code":"PB","state_name":"Paraíba","country_id":31,"country_code":"BR","country_name":"Brazil","latitude":"-6.38792000","longitude":"-38.53359000","wikiDataId":"Q1802657"},{"id":14052,"Name":"Poço de José de Moura","state_id":2005,"state_code":"PB","state_name":"Paraíba","country_id":31,"country_code":"BR","country_name":"Brazil","latitude":"-6.59957000","longitude":"-38.50574000","wikiDataId":"Q1795960"},{"id":13951,"Name":"Pombal","state_id":2005,"state_code":"PB","state_name":"Paraíba","country_id":31,"country_code":"BR","country_name":"Brazil","latitude":"-6.77028000","longitude":"-37.80167000","wikiDataId":"Q2078751"},{"id":14068,"Name":"Prata","state_id":2005,"state_code":"PB","state_name":"Paraíba","country_id":31,"country_code":"BR","country_name":"Brazil","latitude":"-7.71250000","longitude":"-37.09411000","wikiDataId":"Q2329634"},{"id":14107,"Name":"Princesa Isabel","state_id":2005,"state_code":"PB","state_name":"Paraíba","country_id":31,"country_code":"BR","country_name":"Brazil","latitude":"-7.73667000","longitude":"-37.99333000","wikiDataId":"Q2095104"},{"id":14118,"Name":"Puxinanã","state_id":2005,"state_code":"PB","state_name":"Paraíba","country_id":31,"country_code":"BR","country_name":"Brazil","latitude":"-7.16111000","longitude":"-35.96056000","wikiDataId":"Q2011046"},{"id":14140,"Name":"Queimadas","state_id":2005,"state_code":"PB","state_name":"Paraíba","country_id":31,"country_code":"BR","country_name":"Brazil","latitude":"-7.42696000","longitude":"-35.89774000","wikiDataId":"Q782948"},{"id":14158,"Name":"Quixaba","state_id":2005,"state_code":"PB","state_name":"Paraíba","country_id":31,"country_code":"BR","country_name":"Brazil","latitude":"-7.05081000","longitude":"-37.11783000","wikiDataId":"Q2077775"},{"id":14194,"Name":"Remígio","state_id":2005,"state_code":"PB","state_name":"Paraíba","country_id":31,"country_code":"BR","country_name":"Brazil","latitude":"-6.94646000","longitude":"-35.78039000","wikiDataId":"Q289067"},{"id":14221,"Name":"Riachão","state_id":2005,"state_code":"PB","state_name":"Paraíba","country_id":31,"country_code":"BR","country_name":"Brazil","latitude":"-6.55515000","longitude":"-35.62324000","wikiDataId":"Q2329696"},{"id":14223,"Name":"Riachão do Bacamarte","state_id":2005,"state_code":"PB","state_name":"Paraíba","country_id":31,"country_code":"BR","country_name":"Brazil","latitude":"-7.26337000","longitude":"-35.67518000","wikiDataId":"Q1762348"},{"id":14226,"Name":"Riachão do Poço","state_id":2005,"state_code":"PB","state_name":"Paraíba","country_id":31,"country_code":"BR","country_name":"Brazil","latitude":"-7.17041000","longitude":"-35.30300000","wikiDataId":"Q969630"},{"id":14215,"Name":"Riacho de Santo Antônio","state_id":2005,"state_code":"PB","state_name":"Paraíba","country_id":31,"country_code":"BR","country_name":"Brazil","latitude":"-7.66143000","longitude":"-36.13551000","wikiDataId":"Q2013792"},{"id":14216,"Name":"Riacho dos Cavalos","state_id":2005,"state_code":"PB","state_name":"Paraíba","country_id":31,"country_code":"BR","country_name":"Brazil","latitude":"-6.47140000","longitude":"-37.64024000","wikiDataId":"Q2013792"},{"id":14299,"Name":"Rio Tinto","state_id":2005,"state_code":"PB","state_name":"Paraíba","country_id":31,"country_code":"BR","country_name":"Brazil","latitude":"-6.79673000","longitude":"-35.03715000","wikiDataId":"Q2085541"},{"id":14382,"Name":"Salgadinho","state_id":2005,"state_code":"PB","state_name":"Paraíba","country_id":31,"country_code":"BR","country_name":"Brazil","latitude":"-7.08934000","longitude":"-36.86318000","wikiDataId":"Q2278378"},{"id":14385,"Name":"Salgado de São Félix","state_id":2005,"state_code":"PB","state_name":"Paraíba","country_id":31,"country_code":"BR","country_name":"Brazil","latitude":"-7.35694000","longitude":"-35.44056000","wikiDataId":"Q2009391"},{"id":14433,"Name":"Santa Cecília","state_id":2005,"state_code":"PB","state_name":"Paraíba","country_id":31,"country_code":"BR","country_name":"Brazil","latitude":"-7.72027000","longitude":"-35.93681000","wikiDataId":"Q2102814"},{"id":14440,"Name":"Santa Cruz","state_id":2005,"state_code":"PB","state_name":"Paraíba","country_id":31,"country_code":"BR","country_name":"Brazil","latitude":"-6.54542000","longitude":"-38.04968000","wikiDataId":"Q2329762"},{"id":14471,"Name":"Santa Helena","state_id":2005,"state_code":"PB","state_name":"Paraíba","country_id":31,"country_code":"BR","country_name":"Brazil","latitude":"-6.72745000","longitude":"-38.59506000","wikiDataId":"Q2103762"},{"id":14478,"Name":"Santa Inês","state_id":2005,"state_code":"PB","state_name":"Paraíba","country_id":31,"country_code":"BR","country_name":"Brazil","latitude":"-7.68334000","longitude":"-38.59346000","wikiDataId":"Q2469099"},{"id":14489,"Name":"Santa Luzia","state_id":2005,"state_code":"PB","state_name":"Paraíba","country_id":31,"country_code":"BR","country_name":"Brazil","latitude":"-6.87222000","longitude":"-36.91861000","wikiDataId":"Q2329720"},{"id":14525,"Name":"Santa Rita","state_id":2005,"state_code":"PB","state_name":"Paraíba","country_id":31,"country_code":"BR","country_name":"Brazil","latitude":"-7.10437000","longitude":"-34.97387000","wikiDataId":"Q1937304"},{"id":14552,"Name":"Santa Teresinha","state_id":2005,"state_code":"PB","state_name":"Paraíba","country_id":31,"country_code":"BR","country_name":"Brazil","latitude":"-7.12089000","longitude":"-37.49654000","wikiDataId":"Q680275"},{"id":14574,"Name":"Santana de Mangueira","state_id":2005,"state_code":"PB","state_name":"Paraíba","country_id":31,"country_code":"BR","country_name":"Brazil","latitude":"-7.66593000","longitude":"-38.35848000","wikiDataId":"Q1789181"},{"id":14595,"Name":"Santana dos Garrotes","state_id":2005,"state_code":"PB","state_name":"Paraíba","country_id":31,"country_code":"BR","country_name":"Brazil","latitude":"-7.38163000","longitude":"-37.95386000","wikiDataId":"Q929590"},{"id":14608,"Name":"Santo André","state_id":2005,"state_code":"PB","state_name":"Paraíba","country_id":31,"country_code":"BR","country_name":"Brazil","latitude":"-7.24178000","longitude":"-36.61460000","wikiDataId":"Q2078761"},{"id":14834,"Name":"São Bentinho","state_id":2005,"state_code":"PB","state_name":"Paraíba","country_id":31,"country_code":"BR","country_name":"Brazil","latitude":"-6.88452000","longitude":"-37.75898000","wikiDataId":"Q2009398"},{"id":14836,"Name":"São Bento","state_id":2005,"state_code":"PB","state_name":"Paraíba","country_id":31,"country_code":"BR","country_name":"Brazil","latitude":"-6.47344000","longitude":"-37.47144000","wikiDataId":"Q767395"},{"id":14862,"Name":"São Domingos","state_id":2005,"state_code":"PB","state_name":"Paraíba","country_id":31,"country_code":"BR","country_name":"Brazil","latitude":"-6.80733000","longitude":"-37.91657000","wikiDataId":"Q1025764"},{"id":14870,"Name":"São Domingos do Cariri","state_id":2005,"state_code":"PB","state_name":"Paraíba","country_id":31,"country_code":"BR","country_name":"Brazil","latitude":"-7.56749000","longitude":"-36.36393000","wikiDataId":"Q1754673"},{"id":14879,"Name":"São Francisco","state_id":2005,"state_code":"PB","state_name":"Paraíba","country_id":31,"country_code":"BR","country_name":"Brazil","latitude":"-6.63302000","longitude":"-38.03780000","wikiDataId":"Q1787793"},{"id":15027,"Name":"São João do Cariri","state_id":2005,"state_code":"PB","state_name":"Paraíba","country_id":31,"country_code":"BR","country_name":"Brazil","latitude":"-7.48465000","longitude":"-36.48602000","wikiDataId":"Q740965"},{"id":15042,"Name":"São João do Rio do Peixe","state_id":2005,"state_code":"PB","state_name":"Paraíba","country_id":31,"country_code":"BR","country_name":"Brazil","latitude":"-6.71851000","longitude":"-38.42942000","wikiDataId":"Q1937319"},{"id":15046,"Name":"São João do Tigre","state_id":2005,"state_code":"PB","state_name":"Paraíba","country_id":31,"country_code":"BR","country_name":"Brazil","latitude":"-8.10906000","longitude":"-36.79766000","wikiDataId":"Q1937319"},{"id":14943,"Name":"São José da Lagoa Tapada","state_id":2005,"state_code":"PB","state_name":"Paraíba","country_id":31,"country_code":"BR","country_name":"Brazil","latitude":"-6.94245000","longitude":"-38.09393000","wikiDataId":"Q573729"},{"id":14952,"Name":"São José de Caiana","state_id":2005,"state_code":"PB","state_name":"Paraíba","country_id":31,"country_code":"BR","country_name":"Brazil","latitude":"-7.25916000","longitude":"-38.34483000","wikiDataId":"Q1808190"},{"id":14953,"Name":"São José de Espinharas","state_id":2005,"state_code":"PB","state_name":"Paraíba","country_id":31,"country_code":"BR","country_name":"Brazil","latitude":"-6.80244000","longitude":"-37.38224000","wikiDataId":"Q1808190"},{"id":14955,"Name":"São José de Piranhas","state_id":2005,"state_code":"PB","state_name":"Paraíba","country_id":31,"country_code":"BR","country_name":"Brazil","latitude":"-7.12056000","longitude":"-38.50194000","wikiDataId":"Q2010773"},{"id":14956,"Name":"São José de Princesa","state_id":2005,"state_code":"PB","state_name":"Paraíba","country_id":31,"country_code":"BR","country_name":"Brazil","latitude":"-7.70649000","longitude":"-38.08465000","wikiDataId":"Q2010773"},{"id":14962,"Name":"São José do Bonfim","state_id":2005,"state_code":"PB","state_name":"Paraíba","country_id":31,"country_code":"BR","country_name":"Brazil","latitude":"-7.13715000","longitude":"-37.31607000","wikiDataId":"Q2011317"},{"id":14963,"Name":"São José do Brejo do Cruz","state_id":2005,"state_code":"PB","state_name":"Paraíba","country_id":31,"country_code":"BR","country_name":"Brazil","latitude":"-6.23731000","longitude":"-37.37932000","wikiDataId":"Q2011317"},{"id":14986,"Name":"São José do Sabugi","state_id":2005,"state_code":"PB","state_name":"Paraíba","country_id":31,"country_code":"BR","country_name":"Brazil","latitude":"-6.82784000","longitude":"-36.80335000","wikiDataId":"Q192181"},{"id":14994,"Name":"São José dos Cordeiros","state_id":2005,"state_code":"PB","state_name":"Paraíba","country_id":31,"country_code":"BR","country_name":"Brazil","latitude":"-7.41638000","longitude":"-36.84773000","wikiDataId":"Q191642"},{"id":14997,"Name":"São José dos Ramos","state_id":2005,"state_code":"PB","state_name":"Paraíba","country_id":31,"country_code":"BR","country_name":"Brazil","latitude":"-7.25103000","longitude":"-35.37410000","wikiDataId":"Q478818"},{"id":15068,"Name":"São Mamede","state_id":2005,"state_code":"PB","state_name":"Paraíba","country_id":31,"country_code":"BR","country_name":"Brazil","latitude":"-6.92111000","longitude":"-37.09131000","wikiDataId":"Q1999321"},{"id":15084,"Name":"São Miguel de Taipu","state_id":2005,"state_code":"PB","state_name":"Paraíba","country_id":31,"country_code":"BR","country_name":"Brazil","latitude":"-7.21706000","longitude":"-35.20175000","wikiDataId":"Q2107884"},{"id":15142,"Name":"São Sebastião de Lagoa de Roça","state_id":2005,"state_code":"PB","state_name":"Paraíba","country_id":31,"country_code":"BR","country_name":"Brazil","latitude":"-7.08497000","longitude":"-35.84445000","wikiDataId":"Q1787237"},{"id":15154,"Name":"São Sebastião do Umbuzeiro","state_id":2005,"state_code":"PB","state_name":"Paraíba","country_id":31,"country_code":"BR","country_name":"Brazil","latitude":"-8.15690000","longitude":"-37.02220000","wikiDataId":"Q1787301"},{"id":15173,"Name":"São Vicente do Seridó","state_id":2005,"state_code":"PB","state_name":"Paraíba","country_id":31,"country_code":"BR","country_name":"Brazil","latitude":"-6.88683000","longitude":"-36.42652000","wikiDataId":"Q272254"},{"id":14665,"Name":"Sapé","state_id":2005,"state_code":"PB","state_name":"Paraíba","country_id":31,"country_code":"BR","country_name":"Brazil","latitude":"-7.07937000","longitude":"-35.21734000","wikiDataId":"Q2008707"},{"id":14725,"Name":"Serra Branca","state_id":2005,"state_code":"PB","state_name":"Paraíba","country_id":31,"country_code":"BR","country_name":"Brazil","latitude":"-6.53333000","longitude":"-38.26667000","wikiDataId":"Q22014132"},{"id":14735,"Name":"Serra da Raiz","state_id":2005,"state_code":"PB","state_name":"Paraíba","country_id":31,"country_code":"BR","country_name":"Brazil","latitude":"-6.69703000","longitude":"-35.43579000","wikiDataId":"Q2000133"},{"id":14728,"Name":"Serra Grande","state_id":2005,"state_code":"PB","state_name":"Paraíba","country_id":31,"country_code":"BR","country_name":"Brazil","latitude":"-7.25090000","longitude":"-38.39588000","wikiDataId":"Q2298053"},{"id":14733,"Name":"Serra Redonda","state_id":2005,"state_code":"PB","state_name":"Paraíba","country_id":31,"country_code":"BR","country_name":"Brazil","latitude":"-7.15665000","longitude":"-35.67628000","wikiDataId":"Q2065364"},{"id":14750,"Name":"Serraria","state_id":2005,"state_code":"PB","state_name":"Paraíba","country_id":31,"country_code":"BR","country_name":"Brazil","latitude":"-6.86365000","longitude":"-35.66926000","wikiDataId":"Q2064614"},{"id":14763,"Name":"Sertãozinho","state_id":2005,"state_code":"PB","state_name":"Paraíba","country_id":31,"country_code":"BR","country_name":"Brazil","latitude":"-6.73939000","longitude":"-35.41628000","wikiDataId":"Q1973538"},{"id":14797,"Name":"Sobrado","state_id":2005,"state_code":"PB","state_name":"Paraíba","country_id":31,"country_code":"BR","country_name":"Brazil","latitude":"-7.16887000","longitude":"-35.23251000","wikiDataId":"Q2078739"},{"id":14807,"Name":"Solânea","state_id":2005,"state_code":"PB","state_name":"Paraíba","country_id":31,"country_code":"BR","country_name":"Brazil","latitude":"-6.73321000","longitude":"-35.69495000","wikiDataId":"Q2010744"},{"id":14802,"Name":"Soledade","state_id":2005,"state_code":"PB","state_name":"Paraíba","country_id":31,"country_code":"BR","country_name":"Brazil","latitude":"-7.05722000","longitude":"-36.36278000","wikiDataId":"Q2066120"},{"id":14813,"Name":"Sossêgo","state_id":2005,"state_code":"PB","state_name":"Paraíba","country_id":31,"country_code":"BR","country_name":"Brazil","latitude":"-6.67592000","longitude":"-36.17875000","wikiDataId":"Q188901"},{"id":14815,"Name":"Sousa","state_id":2005,"state_code":"PB","state_name":"Paraíba","country_id":31,"country_code":"BR","country_name":"Brazil","latitude":"-6.73098000","longitude":"-38.18614000","wikiDataId":"Q2011653"},{"id":14825,"Name":"Sumé","state_id":2005,"state_code":"PB","state_name":"Paraíba","country_id":31,"country_code":"BR","country_name":"Brazil","latitude":"-7.67167000","longitude":"-36.88000000","wikiDataId":"Q2008324"},{"id":15196,"Name":"Tacima","state_id":2005,"state_code":"PB","state_name":"Paraíba","country_id":31,"country_code":"BR","country_name":"Brazil","latitude":"-6.53805000","longitude":"-35.52277000","wikiDataId":"Q22064418"},{"id":15230,"Name":"Taperoá","state_id":2005,"state_code":"PB","state_name":"Paraíba","country_id":31,"country_code":"BR","country_name":"Brazil","latitude":"-7.16870000","longitude":"-36.79197000","wikiDataId":"Q2329707"},{"id":15262,"Name":"Tavares","state_id":2005,"state_code":"PB","state_name":"Paraíba","country_id":31,"country_code":"BR","country_name":"Brazil","latitude":"-7.61418000","longitude":"-37.87959000","wikiDataId":"Q2099625"},{"id":15265,"Name":"Teixeira","state_id":2005,"state_code":"PB","state_name":"Paraíba","country_id":31,"country_code":"BR","country_name":"Brazil","latitude":"-7.24821000","longitude":"-37.27523000","wikiDataId":"Q1004229"},{"id":15277,"Name":"Tenório","state_id":2005,"state_code":"PB","state_name":"Paraíba","country_id":31,"country_code":"BR","country_name":"Brazil","latitude":"-6.97568000","longitude":"-36.62216000","wikiDataId":"Q1875004"},{"id":15362,"Name":"Triunfo","state_id":2005,"state_code":"PB","state_name":"Paraíba","country_id":31,"country_code":"BR","country_name":"Brazil","latitude":"-6.58475000","longitude":"-38.57827000","wikiDataId":"Q2097715"},{"id":15442,"Name":"Uiraúna","state_id":2005,"state_code":"PB","state_name":"Paraíba","country_id":31,"country_code":"BR","country_name":"Brazil","latitude":"-6.49650000","longitude":"-38.38015000","wikiDataId":"Q2010393"},{"id":15449,"Name":"Umbuzeiro","state_id":2005,"state_code":"PB","state_name":"Paraíba","country_id":31,"country_code":"BR","country_name":"Brazil","latitude":"-7.67111000","longitude":"-35.73927000","wikiDataId":"Q1754681"},{"id":15613,"Name":"Várzea","state_id":2005,"state_code":"PB","state_name":"Paraíba","country_id":31,"country_code":"BR","country_name":"Brazil","latitude":"-6.80276000","longitude":"-37.03707000","wikiDataId":"Q2065255"},{"id":15563,"Name":"Vieirópolis","state_id":2005,"state_code":"PB","state_name":"Paraíba","country_id":31,"country_code":"BR","country_name":"Brazil","latitude":"-6.55838000","longitude":"-38.27091000","wikiDataId":"Q1788420"},{"id":15593,"Name":"Vista Serrana","state_id":2005,"state_code":"PB","state_name":"Paraíba","country_id":31,"country_code":"BR","country_name":"Brazil","latitude":"-6.74167000","longitude":"-37.57597000","wikiDataId":"Q1774460"},{"id":15644,"Name":"Zabelê","state_id":2005,"state_code":"PB","state_name":"Paraíba","country_id":31,"country_code":"BR","country_name":"Brazil","latitude":"-8.07634000","longitude":"-37.05635000","wikiDataId":"Q1762114"}]