[{"id":31942,"Name":"Aduna","state_id":1191,"state_code":"PV","state_name":"Basque Country","country_id":207,"country_code":"ES","country_name":"Spain","latitude":"43.20375000","longitude":"-2.05033000","wikiDataId":"Q576753"},{"id":31970,"Name":"Agurain / Salvatierra","state_id":1191,"state_code":"PV","state_name":"Basque Country","country_id":207,"country_code":"ES","country_name":"Spain","latitude":"42.85162000","longitude":"-2.39123000","wikiDataId":"Q24016521"},{"id":31978,"Name":"Aia","state_id":1191,"state_code":"PV","state_name":"Basque Country","country_id":207,"country_code":"ES","country_name":"Spain","latitude":"43.23721000","longitude":"-2.14833000","wikiDataId":"Q1631163"},{"id":31984,"Name":"Aizarnazabal","state_id":1191,"state_code":"PV","state_name":"Basque Country","country_id":207,"country_code":"ES","country_name":"Spain","latitude":"43.25591000","longitude":"-2.23607000","wikiDataId":"Q1646588"},{"id":32046,"Name":"Albiztur","state_id":1191,"state_code":"PV","state_name":"Basque Country","country_id":207,"country_code":"ES","country_name":"Spain","latitude":"43.12933000","longitude":"-2.13649000","wikiDataId":"Q1639421"},{"id":32227,"Name":"Algorta","state_id":1191,"state_code":"PV","state_name":"Basque Country","country_id":207,"country_code":"ES","country_name":"Spain","latitude":"43.34927000","longitude":"-3.00940000","wikiDataId":"Q29353"},{"id":32253,"Name":"Alkiza","state_id":1191,"state_code":"PV","state_name":"Basque Country","country_id":207,"country_code":"ES","country_name":"Spain","latitude":"43.17263000","longitude":"-2.10923000","wikiDataId":"Q650223"},{"id":32319,"Name":"Alonsotegi","state_id":1191,"state_code":"PV","state_name":"Basque Country","country_id":207,"country_code":"ES","country_name":"Spain","latitude":"43.24483000","longitude":"-2.98759000","wikiDataId":"Q927978"},{"id":32354,"Name":"Amezketa","state_id":1191,"state_code":"PV","state_name":"Basque Country","country_id":207,"country_code":"ES","country_name":"Spain","latitude":"43.04813000","longitude":"-2.08541000","wikiDataId":"Q942106"},{"id":32356,"Name":"Amorebieta","state_id":1191,"state_code":"PV","state_name":"Basque Country","country_id":207,"country_code":"ES","country_name":"Spain","latitude":"43.21667000","longitude":"-2.73333000","wikiDataId":"Q474080"},{"id":32357,"Name":"Amoroto","state_id":1191,"state_code":"PV","state_name":"Basque Country","country_id":207,"country_code":"ES","country_name":"Spain","latitude":"43.32634000","longitude":"-2.51349000","wikiDataId":"Q427240"},{"id":32361,"Name":"Amurrio","state_id":1191,"state_code":"PV","state_name":"Basque Country","country_id":207,"country_code":"ES","country_name":"Spain","latitude":"43.05000000","longitude":"-3.00000000","wikiDataId":"Q481760"},{"id":32372,"Name":"Andoain","state_id":1191,"state_code":"PV","state_name":"Basque Country","country_id":207,"country_code":"ES","country_name":"Spain","latitude":"43.21658000","longitude":"-2.02530000","wikiDataId":"Q1598976"},{"id":32386,"Name":"Anoeta","state_id":1191,"state_code":"PV","state_name":"Basque Country","country_id":207,"country_code":"ES","country_name":"Spain","latitude":"43.16241000","longitude":"-2.07107000","wikiDataId":"Q1640537"},{"id":32396,"Name":"Antzuola","state_id":1191,"state_code":"PV","state_name":"Basque Country","country_id":207,"country_code":"ES","country_name":"Spain","latitude":"43.09725000","longitude":"-2.37998000","wikiDataId":"Q1625886"},{"id":32398,"Name":"Araba / Álava","state_id":1191,"state_code":"PV","state_name":"Basque Country","country_id":207,"country_code":"ES","country_name":"Spain","latitude":"42.83333000","longitude":"-2.75000000","wikiDataId":"Q81801"},{"id":32403,"Name":"Araia","state_id":1191,"state_code":"PV","state_name":"Basque Country","country_id":207,"country_code":"ES","country_name":"Spain","latitude":"42.89345000","longitude":"-2.31314000","wikiDataId":"Q592024"},{"id":32404,"Name":"Arama","state_id":1191,"state_code":"PV","state_name":"Basque Country","country_id":207,"country_code":"ES","country_name":"Spain","latitude":"43.06335000","longitude":"-2.16540000","wikiDataId":"Q1625902"},{"id":32458,"Name":"Aretxabaleta","state_id":1191,"state_code":"PV","state_name":"Basque Country","country_id":207,"country_code":"ES","country_name":"Spain","latitude":"43.03414000","longitude":"-2.50456000","wikiDataId":"Q1645791"},{"id":32489,"Name":"Armiñón","state_id":1191,"state_code":"PV","state_name":"Basque Country","country_id":207,"country_code":"ES","country_name":"Spain","latitude":"42.72313000","longitude":"-2.87172000","wikiDataId":"Q1113519"},{"id":32502,"Name":"Arrasate / Mondragón","state_id":1191,"state_code":"PV","state_name":"Basque Country","country_id":207,"country_code":"ES","country_name":"Spain","latitude":"43.06441000","longitude":"-2.48977000","wikiDataId":"Q491922"},{"id":32507,"Name":"Arrigorriaga","state_id":1191,"state_code":"PV","state_name":"Basque Country","country_id":207,"country_code":"ES","country_name":"Spain","latitude":"43.21006000","longitude":"-2.88562000","wikiDataId":"Q283607"},{"id":32538,"Name":"Asteasu","state_id":1191,"state_code":"PV","state_name":"Basque Country","country_id":207,"country_code":"ES","country_name":"Spain","latitude":"43.19436000","longitude":"-2.09818000","wikiDataId":"Q1619436"},{"id":32539,"Name":"Astigarraga","state_id":1191,"state_code":"PV","state_name":"Basque Country","country_id":207,"country_code":"ES","country_name":"Spain","latitude":"43.28174000","longitude":"-1.94634000","wikiDataId":"Q1639355"},{"id":32552,"Name":"Ataun","state_id":1191,"state_code":"PV","state_name":"Basque Country","country_id":207,"country_code":"ES","country_name":"Spain","latitude":"43.00612000","longitude":"-2.17663000","wikiDataId":"Q1619442"},{"id":32557,"Name":"Aulesti","state_id":1191,"state_code":"PV","state_name":"Basque Country","country_id":207,"country_code":"ES","country_name":"Spain","latitude":"43.30000000","longitude":"-2.56667000","wikiDataId":"Q4472"},{"id":32566,"Name":"Avellaneda","state_id":1191,"state_code":"PV","state_name":"Basque Country","country_id":207,"country_code":"ES","country_name":"Spain","latitude":"43.22942000","longitude":"-3.16172000","wikiDataId":"Q1445425"},{"id":32570,"Name":"Axpe de Busturia","state_id":1191,"state_code":"PV","state_name":"Basque Country","country_id":207,"country_code":"ES","country_name":"Spain","latitude":"43.38355000","longitude":"-2.69772000","wikiDataId":"Q791209"},{"id":32582,"Name":"Azkoitia","state_id":1191,"state_code":"PV","state_name":"Basque Country","country_id":207,"country_code":"ES","country_name":"Spain","latitude":"43.17744000","longitude":"-2.31129000","wikiDataId":"Q1991028"},{"id":32587,"Name":"Azpeitia","state_id":1191,"state_code":"PV","state_name":"Basque Country","country_id":207,"country_code":"ES","country_name":"Spain","latitude":"43.18246000","longitude":"-2.26693000","wikiDataId":"Q180611"},{"id":32618,"Name":"Bakio","state_id":1191,"state_code":"PV","state_name":"Basque Country","country_id":207,"country_code":"ES","country_name":"Spain","latitude":"43.42917000","longitude":"-2.80881000","wikiDataId":"Q804466"},{"id":32623,"Name":"Baliarrain","state_id":1191,"state_code":"PV","state_name":"Basque Country","country_id":207,"country_code":"ES","country_name":"Spain","latitude":"43.06928000","longitude":"-2.12781000","wikiDataId":"Q385872"},{"id":32638,"Name":"Barakaldo","state_id":1191,"state_code":"PV","state_name":"Basque Country","country_id":207,"country_code":"ES","country_name":"Spain","latitude":"43.29639000","longitude":"-2.98813000","wikiDataId":"Q1904541"},{"id":32688,"Name":"Basauri","state_id":1191,"state_code":"PV","state_name":"Basque Country","country_id":207,"country_code":"ES","country_name":"Spain","latitude":"43.23970000","longitude":"-2.88580000","wikiDataId":"Q765496"},{"id":32692,"Name":"Bastida / Labastida","state_id":1191,"state_code":"PV","state_name":"Basque Country","country_id":207,"country_code":"ES","country_name":"Spain","latitude":"42.58974000","longitude":"-2.79568000","wikiDataId":"Q1155351"},{"id":32720,"Name":"Beasain","state_id":1191,"state_code":"PV","state_name":"Basque Country","country_id":207,"country_code":"ES","country_name":"Spain","latitude":"43.05017000","longitude":"-2.20087000","wikiDataId":"Q847130"},{"id":32733,"Name":"Beizama","state_id":1191,"state_code":"PV","state_name":"Basque Country","country_id":207,"country_code":"ES","country_name":"Spain","latitude":"43.13385000","longitude":"-2.20001000","wikiDataId":"Q1625906"},{"id":32831,"Name":"Berango","state_id":1191,"state_code":"PV","state_name":"Basque Country","country_id":207,"country_code":"ES","country_name":"Spain","latitude":"43.36500000","longitude":"-2.99601000","wikiDataId":"Q1242343"},{"id":32832,"Name":"Berantevilla","state_id":1191,"state_code":"PV","state_name":"Basque Country","country_id":207,"country_code":"ES","country_name":"Spain","latitude":"42.68254000","longitude":"-2.85832000","wikiDataId":"Q1368868"},{"id":32847,"Name":"Bergara","state_id":1191,"state_code":"PV","state_name":"Basque Country","country_id":207,"country_code":"ES","country_name":"Spain","latitude":"43.11510000","longitude":"-2.41750000","wikiDataId":"Q1382252"},{"id":32859,"Name":"Bermeo","state_id":1191,"state_code":"PV","state_name":"Basque Country","country_id":207,"country_code":"ES","country_name":"Spain","latitude":"43.42088000","longitude":"-2.72152000","wikiDataId":"Q695444"},{"id":32863,"Name":"Berriatua","state_id":1191,"state_code":"PV","state_name":"Basque Country","country_id":207,"country_code":"ES","country_name":"Spain","latitude":"43.31667000","longitude":"-2.46667000","wikiDataId":"Q1228064"},{"id":32866,"Name":"Berriz","state_id":1191,"state_code":"PV","state_name":"Basque Country","country_id":207,"country_code":"ES","country_name":"Spain","latitude":"43.16667000","longitude":"-2.56667000","wikiDataId":"Q1645776"},{"id":32867,"Name":"Berrobi","state_id":1191,"state_code":"PV","state_name":"Basque Country","country_id":207,"country_code":"ES","country_name":"Spain","latitude":"43.14518000","longitude":"-2.02623000","wikiDataId":"Q1625846"},{"id":32895,"Name":"Bilbao","state_id":1191,"state_code":"PV","state_name":"Basque Country","country_id":207,"country_code":"ES","country_name":"Spain","latitude":"43.26271000","longitude":"-2.92528000","wikiDataId":"Q8692"},{"id":32903,"Name":"Bizkaia","state_id":1191,"state_code":"PV","state_name":"Basque Country","country_id":207,"country_code":"ES","country_name":"Spain","latitude":"43.25000000","longitude":"-2.91667000","wikiDataId":"Q93366"},{"id":33917,"Name":"Deba","state_id":1191,"state_code":"PV","state_name":"Basque Country","country_id":207,"country_code":"ES","country_name":"Spain","latitude":"43.29571000","longitude":"-2.35213000","wikiDataId":"Q1768811"},{"id":33927,"Name":"Derio","state_id":1191,"state_code":"PV","state_name":"Basque Country","country_id":207,"country_code":"ES","country_name":"Spain","latitude":"43.30544000","longitude":"-2.88116000","wikiDataId":"Q574712"},{"id":33946,"Name":"Donostia / San Sebastián","state_id":1191,"state_code":"PV","state_name":"Basque Country","country_id":207,"country_code":"ES","country_name":"Spain","latitude":"43.31283000","longitude":"-1.97499000","wikiDataId":"Q10313"},{"id":33961,"Name":"Durango","state_id":1191,"state_code":"PV","state_name":"Basque Country","country_id":207,"country_code":"ES","country_name":"Spain","latitude":"43.17124000","longitude":"-2.63380000","wikiDataId":"Q549319"},{"id":33968,"Name":"Ea","state_id":1191,"state_code":"PV","state_name":"Basque Country","country_id":207,"country_code":"ES","country_name":"Spain","latitude":"43.37985000","longitude":"-2.58556000","wikiDataId":"Q559839"},{"id":33972,"Name":"Eibar","state_id":1191,"state_code":"PV","state_name":"Basque Country","country_id":207,"country_code":"ES","country_name":"Spain","latitude":"43.18493000","longitude":"-2.47158000","wikiDataId":"Q33244378"},{"id":34032,"Name":"Elciego","state_id":1191,"state_code":"PV","state_name":"Basque Country","country_id":207,"country_code":"ES","country_name":"Spain","latitude":"42.51569000","longitude":"-2.61897000","wikiDataId":"Q1368834"},{"id":34034,"Name":"Elexalde","state_id":1191,"state_code":"PV","state_name":"Basque Country","country_id":207,"country_code":"ES","country_name":"Spain","latitude":"43.15000000","longitude":"-2.93333000","wikiDataId":"Q971263"},{"id":34035,"Name":"Elgoibar","state_id":1191,"state_code":"PV","state_name":"Basque Country","country_id":207,"country_code":"ES","country_name":"Spain","latitude":"43.21601000","longitude":"-2.41334000","wikiDataId":"Q971263"},{"id":34038,"Name":"Elorrio","state_id":1191,"state_code":"PV","state_name":"Basque Country","country_id":207,"country_code":"ES","country_name":"Spain","latitude":"43.12924000","longitude":"-2.54056000","wikiDataId":"Q1242382"},{"id":34066,"Name":"Erandio","state_id":1191,"state_code":"PV","state_name":"Basque Country","country_id":207,"country_code":"ES","country_name":"Spain","latitude":"43.30438000","longitude":"-2.97352000","wikiDataId":"Q24012463"},{"id":34069,"Name":"Ermua","state_id":1191,"state_code":"PV","state_name":"Basque Country","country_id":207,"country_code":"ES","country_name":"Spain","latitude":"43.18725000","longitude":"-2.50261000","wikiDataId":"Q1242400"},{"id":34070,"Name":"Errenteria","state_id":1191,"state_code":"PV","state_name":"Basque Country","country_id":207,"country_code":"ES","country_name":"Spain","latitude":"43.31195000","longitude":"-1.90234000","wikiDataId":"Q1242400"},{"id":34071,"Name":"Errigoiti","state_id":1191,"state_code":"PV","state_name":"Basque Country","country_id":207,"country_code":"ES","country_name":"Spain","latitude":"43.31667000","longitude":"-2.71667000","wikiDataId":"Q1228030"},{"id":34097,"Name":"Eskoriatza","state_id":1191,"state_code":"PV","state_name":"Basque Country","country_id":207,"country_code":"ES","country_name":"Spain","latitude":"43.01829000","longitude":"-2.52598000","wikiDataId":"Q1633894"},{"id":34098,"Name":"Eskuernaga / Villabuena de Álava","state_id":1191,"state_code":"PV","state_name":"Basque Country","country_id":207,"country_code":"ES","country_name":"Spain","latitude":"42.54787000","longitude":"-2.66552000","wikiDataId":"Q1633894"},{"id":34232,"Name":"Forua","state_id":1191,"state_code":"PV","state_name":"Basque Country","country_id":207,"country_code":"ES","country_name":"Spain","latitude":"43.33343000","longitude":"-2.67504000","wikiDataId":"Q679513"},{"id":34378,"Name":"Galdakao","state_id":1191,"state_code":"PV","state_name":"Basque Country","country_id":207,"country_code":"ES","country_name":"Spain","latitude":"43.23073000","longitude":"-2.84290000","wikiDataId":"Q928037"},{"id":34433,"Name":"Gasteiz / Vitoria","state_id":1191,"state_code":"PV","state_name":"Basque Country","country_id":207,"country_code":"ES","country_name":"Spain","latitude":"42.84998000","longitude":"-2.67268000","wikiDataId":"Q14318"},{"id":34436,"Name":"Gatika","state_id":1191,"state_code":"PV","state_name":"Basque Country","country_id":207,"country_code":"ES","country_name":"Spain","latitude":"43.36313000","longitude":"-2.87294000","wikiDataId":"Q376236"},{"id":34442,"Name":"Gaztelu","state_id":1191,"state_code":"PV","state_name":"Basque Country","country_id":207,"country_code":"ES","country_name":"Spain","latitude":"43.11622000","longitude":"-2.02439000","wikiDataId":"Q1641862"},{"id":34457,"Name":"Gernika-Lumo","state_id":1191,"state_code":"PV","state_name":"Basque Country","country_id":207,"country_code":"ES","country_name":"Spain","latitude":"43.31667000","longitude":"-2.68333000","wikiDataId":"Q189848"},{"id":34460,"Name":"Getaria","state_id":1191,"state_code":"PV","state_name":"Basque Country","country_id":207,"country_code":"ES","country_name":"Spain","latitude":"43.30326000","longitude":"-2.20444000","wikiDataId":"Q849330"},{"id":34461,"Name":"Getxo","state_id":1191,"state_code":"PV","state_name":"Basque Country","country_id":207,"country_code":"ES","country_name":"Spain","latitude":"43.35689000","longitude":"-3.01146000","wikiDataId":"Q849330"},{"id":34469,"Name":"Gipuzkoa","state_id":1191,"state_code":"PV","state_name":"Basque Country","country_id":207,"country_code":"ES","country_name":"Spain","latitude":"43.16667000","longitude":"-2.16667000","wikiDataId":"Q95010"},{"id":34568,"Name":"Güeñes","state_id":1191,"state_code":"PV","state_name":"Basque Country","country_id":207,"country_code":"ES","country_name":"Spain","latitude":"43.21252000","longitude":"-3.09497000","wikiDataId":"Q596305"},{"id":34588,"Name":"Hernani","state_id":1191,"state_code":"PV","state_name":"Basque Country","country_id":207,"country_code":"ES","country_name":"Spain","latitude":"43.26615000","longitude":"-1.97615000","wikiDataId":"Q1646367"},{"id":34590,"Name":"Hernialde","state_id":1191,"state_code":"PV","state_name":"Basque Country","country_id":207,"country_code":"ES","country_name":"Spain","latitude":"43.15446000","longitude":"-2.08521000","wikiDataId":"Q1639392"},{"id":34633,"Name":"Hondarribia","state_id":1191,"state_code":"PV","state_name":"Basque Country","country_id":207,"country_code":"ES","country_name":"Spain","latitude":"43.36859000","longitude":"-1.79622000","wikiDataId":"Q534562"},{"id":34724,"Name":"Ibarrangelu","state_id":1191,"state_code":"PV","state_name":"Basque Country","country_id":207,"country_code":"ES","country_name":"Spain","latitude":"43.39027000","longitude":"-2.63423000","wikiDataId":"Q1643623"},{"id":34733,"Name":"Idiazabal","state_id":1191,"state_code":"PV","state_name":"Basque Country","country_id":207,"country_code":"ES","country_name":"Spain","latitude":"43.01189000","longitude":"-2.23356000","wikiDataId":"Q1619118"},{"id":34762,"Name":"Irun","state_id":1191,"state_code":"PV","state_name":"Basque Country","country_id":207,"country_code":"ES","country_name":"Spain","latitude":"43.33904000","longitude":"-1.78938000","wikiDataId":"Q1653829"},{"id":34763,"Name":"Irura","state_id":1191,"state_code":"PV","state_name":"Basque Country","country_id":207,"country_code":"ES","country_name":"Spain","latitude":"43.16651000","longitude":"-2.06746000","wikiDataId":"Q537215"},{"id":34783,"Name":"Izurtza","state_id":1191,"state_code":"PV","state_name":"Basque Country","country_id":207,"country_code":"ES","country_name":"Spain","latitude":"43.15000000","longitude":"-2.63333000","wikiDataId":"Q23999439"},{"id":34942,"Name":"Lagrán","state_id":1191,"state_code":"PV","state_name":"Basque Country","country_id":207,"country_code":"ES","country_name":"Spain","latitude":"42.62625000","longitude":"-2.58385000","wikiDataId":"Q1382223"},{"id":34943,"Name":"Laguardia","state_id":1191,"state_code":"PV","state_name":"Basque Country","country_id":207,"country_code":"ES","country_name":"Spain","latitude":"42.55461000","longitude":"-2.58528000","wikiDataId":"Q24008400"},{"id":34959,"Name":"Landa","state_id":1191,"state_code":"PV","state_name":"Basque Country","country_id":207,"country_code":"ES","country_name":"Spain","latitude":"43.38333000","longitude":"-2.95000000","wikiDataId":"Q734099"},{"id":34961,"Name":"Lanestosa","state_id":1191,"state_code":"PV","state_name":"Basque Country","country_id":207,"country_code":"ES","country_name":"Spain","latitude":"43.21986000","longitude":"-3.43920000","wikiDataId":"Q1227956"},{"id":34973,"Name":"Lapuebla de Labarca","state_id":1191,"state_code":"PV","state_name":"Basque Country","country_id":207,"country_code":"ES","country_name":"Spain","latitude":"42.49455000","longitude":"-2.57341000","wikiDataId":"Q1445242"},{"id":34980,"Name":"Larraul","state_id":1191,"state_code":"PV","state_name":"Basque Country","country_id":207,"country_code":"ES","country_name":"Spain","latitude":"43.18773000","longitude":"-2.10202000","wikiDataId":"Q1639443"},{"id":34996,"Name":"Lasarte","state_id":1191,"state_code":"PV","state_name":"Basque Country","country_id":207,"country_code":"ES","country_name":"Spain","latitude":"43.26774000","longitude":"-2.02169000","wikiDataId":"Q1644829"},{"id":35003,"Name":"Laudio / Llodio","state_id":1191,"state_code":"PV","state_name":"Basque Country","country_id":207,"country_code":"ES","country_name":"Spain","latitude":"43.14322000","longitude":"-2.96204000","wikiDataId":"Q794954"},{"id":35009,"Name":"Leaburu","state_id":1191,"state_code":"PV","state_name":"Basque Country","country_id":207,"country_code":"ES","country_name":"Spain","latitude":"43.12188000","longitude":"-2.05430000","wikiDataId":"Q1639387"},{"id":35024,"Name":"Legorreta","state_id":1191,"state_code":"PV","state_name":"Basque Country","country_id":207,"country_code":"ES","country_name":"Spain","latitude":"43.08464000","longitude":"-2.15017000","wikiDataId":"Q1639412"},{"id":35025,"Name":"Leintz-Gatzaga","state_id":1191,"state_code":"PV","state_name":"Basque Country","country_id":207,"country_code":"ES","country_name":"Spain","latitude":"42.98684000","longitude":"-2.56851000","wikiDataId":"Q1649621"},{"id":35026,"Name":"Leioa","state_id":1191,"state_code":"PV","state_name":"Basque Country","country_id":207,"country_code":"ES","country_name":"Spain","latitude":"43.32686000","longitude":"-2.98884000","wikiDataId":"Q530302"},{"id":35028,"Name":"Lekeitio","state_id":1191,"state_code":"PV","state_name":"Basque Country","country_id":207,"country_code":"ES","country_name":"Spain","latitude":"43.36417000","longitude":"-2.50492000","wikiDataId":"Q530302"},{"id":35039,"Name":"Leza","state_id":1191,"state_code":"PV","state_name":"Basque Country","country_id":207,"country_code":"ES","country_name":"Spain","latitude":"42.56552000","longitude":"-2.63324000","wikiDataId":"Q1382266"},{"id":35041,"Name":"Lezama","state_id":1191,"state_code":"PV","state_name":"Basque Country","country_id":207,"country_code":"ES","country_name":"Spain","latitude":"43.02799000","longitude":"-2.97257000","wikiDataId":"Q1636954"},{"id":35042,"Name":"Lezo","state_id":1191,"state_code":"PV","state_name":"Basque Country","country_id":207,"country_code":"ES","country_name":"Spain","latitude":"43.32142000","longitude":"-1.89739000","wikiDataId":"Q1636954"},{"id":35059,"Name":"Lizartza","state_id":1191,"state_code":"PV","state_name":"Basque Country","country_id":207,"country_code":"ES","country_name":"Spain","latitude":"43.10236000","longitude":"-2.03489000","wikiDataId":"Q1633857"},{"id":35361,"Name":"Mañaria","state_id":1191,"state_code":"PV","state_name":"Basque Country","country_id":207,"country_code":"ES","country_name":"Spain","latitude":"43.13819000","longitude":"-2.66104000","wikiDataId":"Q913283"},{"id":35294,"Name":"Markina-Xemein","state_id":1191,"state_code":"PV","state_name":"Basque Country","country_id":207,"country_code":"ES","country_name":"Spain","latitude":"43.26667000","longitude":"-2.50000000","wikiDataId":"Q604810"},{"id":35398,"Name":"Mendaro","state_id":1191,"state_code":"PV","state_name":"Basque Country","country_id":207,"country_code":"ES","country_name":"Spain","latitude":"43.25326000","longitude":"-2.38568000","wikiDataId":"Q629193"},{"id":35400,"Name":"Mendexa","state_id":1191,"state_code":"PV","state_name":"Basque Country","country_id":207,"country_code":"ES","country_name":"Spain","latitude":"43.34590000","longitude":"-2.48420000","wikiDataId":"Q1227761"},{"id":35623,"Name":"Moreda Araba / Moreda de Álava","state_id":1191,"state_code":"PV","state_name":"Basque Country","country_id":207,"country_code":"ES","country_name":"Spain","latitude":"42.52571000","longitude":"-2.40828000","wikiDataId":"Q1442886"},{"id":35662,"Name":"Mundaka","state_id":1191,"state_code":"PV","state_name":"Basque Country","country_id":207,"country_code":"ES","country_name":"Spain","latitude":"43.40804000","longitude":"-2.69852000","wikiDataId":"Q512940"},{"id":35664,"Name":"Mungia","state_id":1191,"state_code":"PV","state_name":"Basque Country","country_id":207,"country_code":"ES","country_name":"Spain","latitude":"43.35461000","longitude":"-2.84524000","wikiDataId":"Q1228780"},{"id":35673,"Name":"Murgia","state_id":1191,"state_code":"PV","state_name":"Basque Country","country_id":207,"country_code":"ES","country_name":"Spain","latitude":"42.95686000","longitude":"-2.81945000","wikiDataId":"Q1650345"},{"id":35689,"Name":"Mutiloa","state_id":1191,"state_code":"PV","state_name":"Basque Country","country_id":207,"country_code":"ES","country_name":"Spain","latitude":"43.02288000","longitude":"-2.27257000","wikiDataId":"Q1618352"},{"id":35690,"Name":"Mutriku","state_id":1191,"state_code":"PV","state_name":"Basque Country","country_id":207,"country_code":"ES","country_name":"Spain","latitude":"43.30643000","longitude":"-2.38517000","wikiDataId":"Q1618352"},{"id":35770,"Name":"Navaridas","state_id":1191,"state_code":"PV","state_name":"Basque Country","country_id":207,"country_code":"ES","country_name":"Spain","latitude":"42.54566000","longitude":"-2.62650000","wikiDataId":"Q1442870"},{"id":35866,"Name":"Oion / Oyón","state_id":1191,"state_code":"PV","state_name":"Basque Country","country_id":207,"country_code":"ES","country_name":"Spain","latitude":"42.50571000","longitude":"-2.43638000","wikiDataId":"Q581589"},{"id":35872,"Name":"Olaberria","state_id":1191,"state_code":"PV","state_name":"Basque Country","country_id":207,"country_code":"ES","country_name":"Spain","latitude":"43.02726000","longitude":"-2.20349000","wikiDataId":"Q1618340"},{"id":35989,"Name":"Oñati","state_id":1191,"state_code":"PV","state_name":"Basque Country","country_id":207,"country_code":"ES","country_name":"Spain","latitude":"43.03262000","longitude":"-2.40997000","wikiDataId":"Q1609760"},{"id":35924,"Name":"Ondarroa","state_id":1191,"state_code":"PV","state_name":"Basque Country","country_id":207,"country_code":"ES","country_name":"Spain","latitude":"43.31667000","longitude":"-2.41667000","wikiDataId":"Q290824"},{"id":35941,"Name":"Ordizia","state_id":1191,"state_code":"PV","state_name":"Basque Country","country_id":207,"country_code":"ES","country_name":"Spain","latitude":"43.05410000","longitude":"-2.17632000","wikiDataId":"Q672483"},{"id":35944,"Name":"Orendain","state_id":1191,"state_code":"PV","state_name":"Basque Country","country_id":207,"country_code":"ES","country_name":"Spain","latitude":"43.07896000","longitude":"-2.11201000","wikiDataId":"Q1633885"},{"id":35946,"Name":"Orexa","state_id":1191,"state_code":"PV","state_name":"Basque Country","country_id":207,"country_code":"ES","country_name":"Spain","latitude":"43.09382000","longitude":"-2.01119000","wikiDataId":"Q598020"},{"id":35949,"Name":"Oria","state_id":1191,"state_code":"PV","state_name":"Basque Country","country_id":207,"country_code":"ES","country_name":"Spain","latitude":"43.25541000","longitude":"-2.01873000","wikiDataId":"Q1118107"},{"id":35952,"Name":"Orio","state_id":1191,"state_code":"PV","state_name":"Basque Country","country_id":207,"country_code":"ES","country_name":"Spain","latitude":"43.27870000","longitude":"-2.12537000","wikiDataId":"Q1649616"},{"id":35955,"Name":"Ormaiztegi","state_id":1191,"state_code":"PV","state_name":"Basque Country","country_id":207,"country_code":"ES","country_name":"Spain","latitude":"43.04339000","longitude":"-2.25673000","wikiDataId":"Q932808"},{"id":35964,"Name":"Ortuella","state_id":1191,"state_code":"PV","state_name":"Basque Country","country_id":207,"country_code":"ES","country_name":"Spain","latitude":"43.31113000","longitude":"-3.05617000","wikiDataId":"Q4474"},{"id":36073,"Name":"Pasaia","state_id":1191,"state_code":"PV","state_name":"Basque Country","country_id":207,"country_code":"ES","country_name":"Spain","latitude":"43.32530000","longitude":"-1.92707000","wikiDataId":"Q847127"},{"id":36244,"Name":"Plentzia","state_id":1191,"state_code":"PV","state_name":"Basque Country","country_id":207,"country_code":"ES","country_name":"Spain","latitude":"43.40530000","longitude":"-2.94794000","wikiDataId":"Q1228773"},{"id":36300,"Name":"Portugalete","state_id":1191,"state_code":"PV","state_name":"Basque Country","country_id":207,"country_code":"ES","country_name":"Spain","latitude":"43.32099000","longitude":"-3.02064000","wikiDataId":"Q548441"},{"id":36789,"Name":"Samaniego","state_id":1191,"state_code":"PV","state_name":"Basque Country","country_id":207,"country_code":"ES","country_name":"Spain","latitude":"42.56854000","longitude":"-2.67974000","wikiDataId":"Q943857"},{"id":37155,"Name":"Santurtzi","state_id":1191,"state_code":"PV","state_name":"Basque Country","country_id":207,"country_code":"ES","country_name":"Spain","latitude":"43.32842000","longitude":"-3.03248000","wikiDataId":"Q1645895"},{"id":37156,"Name":"Santutxu","state_id":1191,"state_code":"PV","state_name":"Basque Country","country_id":207,"country_code":"ES","country_name":"Spain","latitude":"43.25347000","longitude":"-2.91610000","wikiDataId":"Q1645895"},{"id":37194,"Name":"Segura","state_id":1191,"state_code":"PV","state_name":"Basque Country","country_id":207,"country_code":"ES","country_name":"Spain","latitude":"43.00753000","longitude":"-2.25400000","wikiDataId":"Q23992605"},{"id":37233,"Name":"Sestao","state_id":1191,"state_code":"PV","state_name":"Basque Country","country_id":207,"country_code":"ES","country_name":"Spain","latitude":"43.30975000","longitude":"-3.00716000","wikiDataId":"Q909707"},{"id":37292,"Name":"Sondika","state_id":1191,"state_code":"PV","state_name":"Basque Country","country_id":207,"country_code":"ES","country_name":"Spain","latitude":"43.30020000","longitude":"-2.92442000","wikiDataId":"Q942025"},{"id":37295,"Name":"Sopela","state_id":1191,"state_code":"PV","state_name":"Basque Country","country_id":207,"country_code":"ES","country_name":"Spain","latitude":"43.37891000","longitude":"-2.98313000","wikiDataId":"Q657407"},{"id":37297,"Name":"Sopuerta","state_id":1191,"state_code":"PV","state_name":"Basque Country","country_id":207,"country_code":"ES","country_name":"Spain","latitude":"43.26239000","longitude":"-3.15505000","wikiDataId":"Q1228749"},{"id":37447,"Name":"Tolosa","state_id":1191,"state_code":"PV","state_name":"Basque Country","country_id":207,"country_code":"ES","country_name":"Spain","latitude":"43.13484000","longitude":"-2.07801000","wikiDataId":"Q4892347"},{"id":37692,"Name":"Urduña / Orduña","state_id":1191,"state_code":"PV","state_name":"Basque Country","country_id":207,"country_code":"ES","country_name":"Spain","latitude":"42.99435000","longitude":"-3.00974000","wikiDataId":"Q24016794"},{"id":37693,"Name":"Urnieta","state_id":1191,"state_code":"PV","state_name":"Basque Country","country_id":207,"country_code":"ES","country_name":"Spain","latitude":"43.24727000","longitude":"-1.99084000","wikiDataId":"Q1633844"},{"id":37706,"Name":"Usurbil","state_id":1191,"state_code":"PV","state_name":"Basque Country","country_id":207,"country_code":"ES","country_name":"Spain","latitude":"43.27164000","longitude":"-2.04912000","wikiDataId":"Q953368"},{"id":38018,"Name":"Villabona","state_id":1191,"state_code":"PV","state_name":"Basque Country","country_id":207,"country_code":"ES","country_name":"Spain","latitude":"43.18540000","longitude":"-2.05304000","wikiDataId":"Q1605938"},{"id":38194,"Name":"Villanueva de Valdegovía","state_id":1191,"state_code":"PV","state_name":"Basque Country","country_id":207,"country_code":"ES","country_name":"Spain","latitude":"42.84777000","longitude":"-3.09883000","wikiDataId":"Q943842"},{"id":38460,"Name":"Zaldibar","state_id":1191,"state_code":"PV","state_name":"Basque Country","country_id":207,"country_code":"ES","country_name":"Spain","latitude":"43.16667000","longitude":"-2.53333000","wikiDataId":"Q1228013"},{"id":38461,"Name":"Zalla","state_id":1191,"state_code":"PV","state_name":"Basque Country","country_id":207,"country_code":"ES","country_name":"Spain","latitude":"43.23333000","longitude":"-3.13333000","wikiDataId":"Q4476"},{"id":38464,"Name":"Zambrana","state_id":1191,"state_code":"PV","state_name":"Basque Country","country_id":207,"country_code":"ES","country_name":"Spain","latitude":"42.66102000","longitude":"-2.87909000","wikiDataId":"Q1113094"},{"id":38466,"Name":"Zamudio","state_id":1191,"state_code":"PV","state_name":"Basque Country","country_id":207,"country_code":"ES","country_name":"Spain","latitude":"43.28600000","longitude":"-2.87000000","wikiDataId":"Q146016"},{"id":38472,"Name":"Zaratamo","state_id":1191,"state_code":"PV","state_name":"Basque Country","country_id":207,"country_code":"ES","country_name":"Spain","latitude":"43.21667000","longitude":"-2.86667000","wikiDataId":"Q1227189"},{"id":38474,"Name":"Zarautz","state_id":1191,"state_code":"PV","state_name":"Basque Country","country_id":207,"country_code":"ES","country_name":"Spain","latitude":"43.28444000","longitude":"-2.16992000","wikiDataId":"Q927038"},{"id":38490,"Name":"Zeanuri","state_id":1191,"state_code":"PV","state_name":"Basque Country","country_id":207,"country_code":"ES","country_name":"Spain","latitude":"43.10000000","longitude":"-2.75000000","wikiDataId":"Q169332"},{"id":38491,"Name":"Zegama","state_id":1191,"state_code":"PV","state_name":"Basque Country","country_id":207,"country_code":"ES","country_name":"Spain","latitude":"42.97556000","longitude":"-2.29091000","wikiDataId":"Q1442954"},{"id":38492,"Name":"Zestoa","state_id":1191,"state_code":"PV","state_name":"Basque Country","country_id":207,"country_code":"ES","country_name":"Spain","latitude":"43.23973000","longitude":"-2.25790000","wikiDataId":"Q1618393"},{"id":38493,"Name":"Zierbena","state_id":1191,"state_code":"PV","state_name":"Basque Country","country_id":207,"country_code":"ES","country_name":"Spain","latitude":"43.35000000","longitude":"-3.08333000","wikiDataId":"Q1542223"},{"id":38494,"Name":"Zizurkil","state_id":1191,"state_code":"PV","state_name":"Basque Country","country_id":207,"country_code":"ES","country_name":"Spain","latitude":"43.19917000","longitude":"-2.07420000","wikiDataId":"Q1618316"},{"id":38508,"Name":"Zumaia","state_id":1191,"state_code":"PV","state_name":"Basque Country","country_id":207,"country_code":"ES","country_name":"Spain","latitude":"43.29469000","longitude":"-2.25341000","wikiDataId":"Q229659"},{"id":38509,"Name":"Zumarraga","state_id":1191,"state_code":"PV","state_name":"Basque Country","country_id":207,"country_code":"ES","country_name":"Spain","latitude":"43.08858000","longitude":"-2.31408000","wikiDataId":"Q24013526"}]