[{"id":67832,"Name":"Beau Bassin-Rose Hill","state_id":3263,"state_code":"PW","state_name":"Plaines Wilhems District","country_id":140,"country_code":"MU","country_name":"Mauritius","latitude":"-20.23325000","longitude":"57.46609000","wikiDataId":"Q813337"},{"id":67854,"Name":"Curepipe","state_id":3263,"state_code":"PW","state_name":"Plaines Wilhems District","country_id":140,"country_code":"MU","country_name":"Mauritius","latitude":"-20.31628000","longitude":"57.52594000","wikiDataId":"Q1002525"},{"id":67857,"Name":"Ebene","state_id":3263,"state_code":"PW","state_name":"Plaines Wilhems District","country_id":140,"country_code":"MU","country_name":"Mauritius","latitude":"-20.24494000","longitude":"57.49163000","wikiDataId":"Q213275"},{"id":67878,"Name":"Midlands","state_id":3263,"state_code":"PW","state_name":"Plaines Wilhems District","country_id":140,"country_code":"MU","country_name":"Mauritius","latitude":"-20.31907000","longitude":"57.57016000","wikiDataId":"Q1105427"},{"id":67900,"Name":"Quatre Bornes","state_id":3263,"state_code":"PW","state_name":"Plaines Wilhems District","country_id":140,"country_code":"MU","country_name":"Mauritius","latitude":"-20.26381000","longitude":"57.47910000","wikiDataId":"Q1341194"},{"id":67920,"Name":"Vacoas","state_id":3263,"state_code":"PW","state_name":"Plaines Wilhems District","country_id":140,"country_code":"MU","country_name":"Mauritius","latitude":"-20.29806000","longitude":"57.47833000","wikiDataId":"Q641130"}]