[{"id":68103,"Name":"Agua Azul","state_id":3455,"state_code":"QUE","state_name":"Querétaro","country_id":142,"country_code":"MX","country_name":"Mexico","latitude":"20.60271000","longitude":"-100.20472000","wikiDataId":"Q20250741"},{"id":68112,"Name":"Agua Fría","state_id":3455,"state_code":"QUE","state_name":"Querétaro","country_id":142,"country_code":"MX","country_name":"Mexico","latitude":"21.15304000","longitude":"-99.80638000","wikiDataId":"Q20131591"},{"id":68118,"Name":"Agua Zarca","state_id":3455,"state_code":"QUE","state_name":"Querétaro","country_id":142,"country_code":"MX","country_name":"Mexico","latitude":"21.22003000","longitude":"-99.09075000","wikiDataId":"Q20251068"},{"id":68138,"Name":"Ahuacatlán de Guadalupe","state_id":3455,"state_code":"QUE","state_name":"Querétaro","country_id":142,"country_code":"MX","country_name":"Mexico","latitude":"21.21472000","longitude":"-99.54056000","wikiDataId":"Q20133302"},{"id":68167,"Name":"Ajuchitlán","state_id":3455,"state_code":"QUE","state_name":"Querétaro","country_id":142,"country_code":"MX","country_name":"Mexico","latitude":"20.70713000","longitude":"-100.02008000","wikiDataId":"Q20133726"},{"id":68166,"Name":"Ajuchitlancito","state_id":3455,"state_code":"QUE","state_name":"Querétaro","country_id":142,"country_code":"MX","country_name":"Mexico","latitude":"20.47601000","longitude":"-100.21583000","wikiDataId":"Q2651855"},{"id":68189,"Name":"Alfajayucan","state_id":3455,"state_code":"QUE","state_name":"Querétaro","country_id":142,"country_code":"MX","country_name":"Mexico","latitude":"20.75370000","longitude":"-100.21773000","wikiDataId":"Q20134196"},{"id":68250,"Name":"Amazcala","state_id":3455,"state_code":"QUE","state_name":"Querétaro","country_id":142,"country_code":"MX","country_name":"Mexico","latitude":"20.70339000","longitude":"-100.26511000","wikiDataId":"Q20135436"},{"id":68251,"Name":"Amealco","state_id":3455,"state_code":"QUE","state_name":"Querétaro","country_id":142,"country_code":"MX","country_name":"Mexico","latitude":"20.18758000","longitude":"-100.14485000","wikiDataId":"Q20239053"},{"id":68294,"Name":"Apapátaro","state_id":3455,"state_code":"QUE","state_name":"Querétaro","country_id":142,"country_code":"MX","country_name":"Mexico","latitude":"20.46806000","longitude":"-100.36861000","wikiDataId":"Q4779113"},{"id":68340,"Name":"Arcila","state_id":3455,"state_code":"QUE","state_name":"Querétaro","country_id":142,"country_code":"MX","country_name":"Mexico","latitude":"20.41037000","longitude":"-100.10993000","wikiDataId":"Q1998019"},{"id":68365,"Name":"Arroyo Seco","state_id":3455,"state_code":"QUE","state_name":"Querétaro","country_id":142,"country_code":"MX","country_name":"Mexico","latitude":"21.54777000","longitude":"-99.68832000","wikiDataId":"Q3848908"},{"id":68428,"Name":"Atongo","state_id":3455,"state_code":"QUE","state_name":"Querétaro","country_id":142,"country_code":"MX","country_name":"Mexico","latitude":"20.77288000","longitude":"-100.23953000","wikiDataId":"Q19819771"},{"id":68577,"Name":"Bella Vista del Río","state_id":3455,"state_code":"QUE","state_name":"Querétaro","country_id":142,"country_code":"MX","country_name":"Mexico","latitude":"20.69000000","longitude":"-99.57139000","wikiDataId":"Q20246126"},{"id":68610,"Name":"Bernal","state_id":3455,"state_code":"QUE","state_name":"Querétaro","country_id":142,"country_code":"MX","country_name":"Mexico","latitude":"20.74030000","longitude":"-99.94125000","wikiDataId":"Q5726411"},{"id":68641,"Name":"Bordo Blanco","state_id":3455,"state_code":"QUE","state_name":"Querétaro","country_id":142,"country_code":"MX","country_name":"Mexico","latitude":"20.49631000","longitude":"-99.92855000","wikiDataId":"Q8250809"},{"id":68646,"Name":"Boxasní","state_id":3455,"state_code":"QUE","state_name":"Querétaro","country_id":142,"country_code":"MX","country_name":"Mexico","latitude":"20.67083000","longitude":"-99.84861000","wikiDataId":"Q20246128"},{"id":68647,"Name":"Boyé","state_id":3455,"state_code":"QUE","state_name":"Querétaro","country_id":142,"country_code":"MX","country_name":"Mexico","latitude":"20.68091000","longitude":"-99.73933000","wikiDataId":"Q20246128"},{"id":68648,"Name":"Bravo","state_id":3455,"state_code":"QUE","state_name":"Querétaro","country_id":142,"country_code":"MX","country_name":"Mexico","latitude":"20.39977000","longitude":"-100.42423000","wikiDataId":"Q20246128"},{"id":68672,"Name":"Buenavista","state_id":3455,"state_code":"QUE","state_name":"Querétaro","country_id":142,"country_code":"MX","country_name":"Mexico","latitude":"20.82372000","longitude":"-100.47009000","wikiDataId":"Q1801492"},{"id":68716,"Name":"Cadereyta","state_id":3455,"state_code":"QUE","state_name":"Querétaro","country_id":142,"country_code":"MX","country_name":"Mexico","latitude":"20.69701000","longitude":"-99.81624000","wikiDataId":"Q2878559"},{"id":68727,"Name":"Calamanda","state_id":3455,"state_code":"QUE","state_name":"Querétaro","country_id":142,"country_code":"MX","country_name":"Mexico","latitude":"20.54672000","longitude":"-100.18616000","wikiDataId":"Q2605348"},{"id":68817,"Name":"Carbonera","state_id":3455,"state_code":"QUE","state_name":"Querétaro","country_id":142,"country_code":"MX","country_name":"Mexico","latitude":"20.80518000","longitude":"-100.17117000","wikiDataId":"Q20275220"},{"id":68848,"Name":"Casa Blanca","state_id":3455,"state_code":"QUE","state_name":"Querétaro","country_id":142,"country_code":"MX","country_name":"Mexico","latitude":"20.38658000","longitude":"-100.02009000","wikiDataId":"Q20229170"},{"id":68890,"Name":"Ceja de Bravo","state_id":3455,"state_code":"QUE","state_name":"Querétaro","country_id":142,"country_code":"MX","country_name":"Mexico","latitude":"20.37856000","longitude":"-100.39423000","wikiDataId":"Q20264364"},{"id":68937,"Name":"Cerro de la Cruz","state_id":3455,"state_code":"QUE","state_name":"Querétaro","country_id":142,"country_code":"MX","country_name":"Mexico","latitude":"20.81474000","longitude":"-100.50109000","wikiDataId":"Q3311798"},{"id":68926,"Name":"Cerro Gordo","state_id":3455,"state_code":"QUE","state_name":"Querétaro","country_id":142,"country_code":"MX","country_name":"Mexico","latitude":"20.37329000","longitude":"-99.91385000","wikiDataId":"Q20257875"},{"id":68995,"Name":"Charco Blanco","state_id":3455,"state_code":"QUE","state_name":"Querétaro","country_id":142,"country_code":"MX","country_name":"Mexico","latitude":"20.43404000","longitude":"-100.47244000","wikiDataId":"Q20275538"},{"id":69028,"Name":"Chichimequillas","state_id":3455,"state_code":"QUE","state_name":"Querétaro","country_id":142,"country_code":"MX","country_name":"Mexico","latitude":"20.76512000","longitude":"-100.33588000","wikiDataId":"Q2889052"},{"id":69258,"Name":"Colinas de Santa Cruz Segunda Sección","state_id":3455,"state_code":"QUE","state_name":"Querétaro","country_id":142,"country_code":"MX","country_name":"Mexico","latitude":"20.62361000","longitude":"-100.46667000","wikiDataId":"Q20239187"},{"id":69414,"Name":"Colón","state_id":3455,"state_code":"QUE","state_name":"Querétaro","country_id":142,"country_code":"MX","country_name":"Mexico","latitude":"20.78323000","longitude":"-100.05149000","wikiDataId":"Q56604891"},{"id":69403,"Name":"Colonia los Ángeles","state_id":3455,"state_code":"QUE","state_name":"Querétaro","country_id":142,"country_code":"MX","country_name":"Mexico","latitude":"20.53523000","longitude":"-100.48828000","wikiDataId":"Q20246181"},{"id":69446,"Name":"Concá","state_id":3455,"state_code":"QUE","state_name":"Querétaro","country_id":142,"country_code":"MX","country_name":"Mexico","latitude":"21.44477000","longitude":"-99.63582000","wikiDataId":"Q20276535"},{"id":69524,"Name":"Coyotillos","state_id":3455,"state_code":"QUE","state_name":"Querétaro","country_id":142,"country_code":"MX","country_name":"Mexico","latitude":"20.59938000","longitude":"-100.20898000","wikiDataId":"Q5180099"},{"id":69703,"Name":"Dolores Cuadrilla de Enmedio","state_id":3455,"state_code":"QUE","state_name":"Querétaro","country_id":142,"country_code":"MX","country_name":"Mexico","latitude":"20.35257000","longitude":"-100.07967000","wikiDataId":"Q20139347"},{"id":69847,"Name":"El Blanco","state_id":3455,"state_code":"QUE","state_name":"Querétaro","country_id":142,"country_code":"MX","country_name":"Mexico","latitude":"20.61119000","longitude":"-100.10159000","wikiDataId":"Q56650617"},{"id":69873,"Name":"El Carmen","state_id":3455,"state_code":"QUE","state_name":"Querétaro","country_id":142,"country_code":"MX","country_name":"Mexico","latitude":"20.57445000","longitude":"-100.28804000","wikiDataId":"Q20262807"},{"id":69889,"Name":"El Cazadero","state_id":3455,"state_code":"QUE","state_name":"Querétaro","country_id":142,"country_code":"MX","country_name":"Mexico","latitude":"20.30011000","longitude":"-99.87186000","wikiDataId":"Q20246220"},{"id":69905,"Name":"El Ciervo","state_id":3455,"state_code":"QUE","state_name":"Querétaro","country_id":142,"country_code":"MX","country_name":"Mexico","latitude":"20.61834000","longitude":"-99.87242000","wikiDataId":"Q20241854"},{"id":69912,"Name":"El Colorado","state_id":3455,"state_code":"QUE","state_name":"Querétaro","country_id":142,"country_code":"MX","country_name":"Mexico","latitude":"20.56185000","longitude":"-100.24520000","wikiDataId":"Q20246234"},{"id":69931,"Name":"El Coto","state_id":3455,"state_code":"QUE","state_name":"Querétaro","country_id":142,"country_code":"MX","country_name":"Mexico","latitude":"20.39491000","longitude":"-100.13465000","wikiDataId":"Q20206514"},{"id":69976,"Name":"El Gallo","state_id":3455,"state_code":"QUE","state_name":"Querétaro","country_id":142,"country_code":"MX","country_name":"Mexico","latitude":"20.66973000","longitude":"-100.04677000","wikiDataId":"Q1324181"},{"id":69999,"Name":"El Jaral","state_id":3455,"state_code":"QUE","state_name":"Querétaro","country_id":142,"country_code":"MX","country_name":"Mexico","latitude":"20.40647000","longitude":"-100.45524000","wikiDataId":"Q20238098"},{"id":70002,"Name":"El Jazmín","state_id":3455,"state_code":"QUE","state_name":"Querétaro","country_id":142,"country_code":"MX","country_name":"Mexico","latitude":"20.34444000","longitude":"-100.04667000","wikiDataId":"Q20239362"},{"id":70026,"Name":"El Lobo","state_id":3455,"state_code":"QUE","state_name":"Querétaro","country_id":142,"country_code":"MX","country_name":"Mexico","latitude":"20.72904000","longitude":"-100.20226000","wikiDataId":"Q20238120"},{"id":70037,"Name":"El Milagro","state_id":3455,"state_code":"QUE","state_name":"Querétaro","country_id":142,"country_code":"MX","country_name":"Mexico","latitude":"20.47429000","longitude":"-100.34918000","wikiDataId":"Q20206792"},{"id":70052,"Name":"El Nabo","state_id":3455,"state_code":"QUE","state_name":"Querétaro","country_id":142,"country_code":"MX","country_name":"Mexico","latitude":"20.69389000","longitude":"-100.48028000","wikiDataId":"Q20246282"},{"id":70073,"Name":"El Organal","state_id":3455,"state_code":"QUE","state_name":"Querétaro","country_id":142,"country_code":"MX","country_name":"Mexico","latitude":"20.47751000","longitude":"-100.05457000","wikiDataId":"Q20252081"},{"id":70078,"Name":"El Palmar","state_id":3455,"state_code":"QUE","state_name":"Querétaro","country_id":142,"country_code":"MX","country_name":"Mexico","latitude":"20.69347000","longitude":"-99.70645000","wikiDataId":"Q20238188"},{"id":70089,"Name":"El Paraíso","state_id":3455,"state_code":"QUE","state_name":"Querétaro","country_id":142,"country_code":"MX","country_name":"Mexico","latitude":"20.56402000","longitude":"-100.21617000","wikiDataId":"Q20223959"},{"id":70105,"Name":"El Pinto","state_id":3455,"state_code":"QUE","state_name":"Querétaro","country_id":142,"country_code":"MX","country_name":"Mexico","latitude":"20.80270000","longitude":"-100.41096000","wikiDataId":"Q20238228"},{"id":70129,"Name":"El Pozo","state_id":3455,"state_code":"QUE","state_name":"Querétaro","country_id":142,"country_code":"MX","country_name":"Mexico","latitude":"20.63750000","longitude":"-100.33306000","wikiDataId":"Q20246299"},{"id":70136,"Name":"El Pueblito","state_id":3455,"state_code":"QUE","state_name":"Querétaro","country_id":142,"country_code":"MX","country_name":"Mexico","latitude":"20.53996000","longitude":"-100.43817000","wikiDataId":"Q1962054"},{"id":70159,"Name":"El Rincón","state_id":3455,"state_code":"QUE","state_name":"Querétaro","country_id":142,"country_code":"MX","country_name":"Mexico","latitude":"20.74111000","longitude":"-99.78472000","wikiDataId":"Q20280732"},{"id":70177,"Name":"El Rosario","state_id":3455,"state_code":"QUE","state_name":"Querétaro","country_id":142,"country_code":"MX","country_name":"Mexico","latitude":"20.39180000","longitude":"-100.06583000","wikiDataId":"Q1858643"},{"id":70187,"Name":"El Salitre","state_id":3455,"state_code":"QUE","state_name":"Querétaro","country_id":142,"country_code":"MX","country_name":"Mexico","latitude":"20.66596000","longitude":"-100.42288000","wikiDataId":"Q20239487"},{"id":70204,"Name":"El Saúz","state_id":3455,"state_code":"QUE","state_name":"Querétaro","country_id":142,"country_code":"MX","country_name":"Mexico","latitude":"20.47774000","longitude":"-100.11540000","wikiDataId":"Q20246330"},{"id":70215,"Name":"El Tejocote","state_id":3455,"state_code":"QUE","state_name":"Querétaro","country_id":142,"country_code":"MX","country_name":"Mexico","latitude":"20.61976000","longitude":"-100.03447000","wikiDataId":"Q20265947"},{"id":70250,"Name":"El Vegil","state_id":3455,"state_code":"QUE","state_name":"Querétaro","country_id":142,"country_code":"MX","country_name":"Mexico","latitude":"20.43111000","longitude":"-100.35024000","wikiDataId":"Q20281331"},{"id":70311,"Name":"Epigmenio González","state_id":3455,"state_code":"QUE","state_name":"Querétaro","country_id":142,"country_code":"MX","country_name":"Mexico","latitude":"20.55090000","longitude":"-100.16505000","wikiDataId":"Q3845429"},{"id":70319,"Name":"Escolasticas","state_id":3455,"state_code":"QUE","state_name":"Querétaro","country_id":142,"country_code":"MX","country_name":"Mexico","latitude":"20.42809000","longitude":"-100.21186000","wikiDataId":"Q20281581"},{"id":70328,"Name":"Esperanza","state_id":3455,"state_code":"QUE","state_name":"Querétaro","country_id":142,"country_code":"MX","country_name":"Mexico","latitude":"20.64610000","longitude":"-100.11128000","wikiDataId":"Q20142521"},{"id":70391,"Name":"Ezequiel Montes","state_id":3455,"state_code":"QUE","state_name":"Querétaro","country_id":142,"country_code":"MX","country_name":"Mexico","latitude":"20.66481000","longitude":"-99.89960000","wikiDataId":"Q2448212"},{"id":70497,"Name":"Fuentezuelas","state_id":3455,"state_code":"QUE","state_name":"Querétaro","country_id":142,"country_code":"MX","country_name":"Mexico","latitude":"20.55586000","longitude":"-99.98209000","wikiDataId":"Q2445418"},{"id":70514,"Name":"Galeras","state_id":3455,"state_code":"QUE","state_name":"Querétaro","country_id":142,"country_code":"MX","country_name":"Mexico","latitude":"20.61759000","longitude":"-100.15731000","wikiDataId":"Q2990972"},{"id":70515,"Name":"Galindo","state_id":3455,"state_code":"QUE","state_name":"Querétaro","country_id":142,"country_code":"MX","country_name":"Mexico","latitude":"20.39725000","longitude":"-100.09840000","wikiDataId":"Q2990972"},{"id":70541,"Name":"General Lázaro Cárdenas (El Colorado)","state_id":3455,"state_code":"QUE","state_name":"Querétaro","country_id":142,"country_code":"MX","country_name":"Mexico","latitude":"20.56389000","longitude":"-100.24389000","wikiDataId":"Q20239615"},{"id":70591,"Name":"Guadalupe Septién","state_id":3455,"state_code":"QUE","state_name":"Querétaro","country_id":142,"country_code":"MX","country_name":"Mexico","latitude":"20.52746000","longitude":"-100.11352000","wikiDataId":"Q20230188"},{"id":70660,"Name":"Hacienda la Cruz [Fraccionamiento]","state_id":3455,"state_code":"QUE","state_name":"Querétaro","country_id":142,"country_code":"MX","country_name":"Mexico","latitude":"20.63333000","longitude":"-100.26278000","wikiDataId":"Q20144265"},{"id":70697,"Name":"Higuerillas","state_id":3455,"state_code":"QUE","state_name":"Querétaro","country_id":142,"country_code":"MX","country_name":"Mexico","latitude":"20.91625000","longitude":"-99.76556000","wikiDataId":"Q20144999"},{"id":70796,"Name":"Huimilpan","state_id":3455,"state_code":"QUE","state_name":"Querétaro","country_id":142,"country_code":"MX","country_name":"Mexico","latitude":"20.37199000","longitude":"-100.27737000","wikiDataId":"Q3846886"},{"id":70844,"Name":"Ignacio Pérez","state_id":3455,"state_code":"QUE","state_name":"Querétaro","country_id":142,"country_code":"MX","country_name":"Mexico","latitude":"20.52225000","longitude":"-100.11129000","wikiDataId":"Q20230258"},{"id":70979,"Name":"Jalpan","state_id":3455,"state_code":"QUE","state_name":"Querétaro","country_id":142,"country_code":"MX","country_name":"Mexico","latitude":"21.21802000","longitude":"-99.47152000","wikiDataId":"Q20148531"},{"id":71031,"Name":"Jesús María","state_id":3455,"state_code":"QUE","state_name":"Querétaro","country_id":142,"country_code":"MX","country_name":"Mexico","latitude":"20.62274000","longitude":"-100.25631000","wikiDataId":"Q20284223"},{"id":71063,"Name":"Joaquín Herrera","state_id":3455,"state_code":"QUE","state_name":"Querétaro","country_id":142,"country_code":"MX","country_name":"Mexico","latitude":"20.48300000","longitude":"-100.43854000","wikiDataId":"Q984646"},{"id":71068,"Name":"Jofrito","state_id":3455,"state_code":"QUE","state_name":"Querétaro","country_id":142,"country_code":"MX","country_name":"Mexico","latitude":"20.86154000","longitude":"-100.41884000","wikiDataId":"Q3241862"},{"id":71142,"Name":"Juriquilla","state_id":3455,"state_code":"QUE","state_name":"Querétaro","country_id":142,"country_code":"MX","country_name":"Mexico","latitude":"20.71277000","longitude":"-100.45568000","wikiDataId":"Q50414282"},{"id":71182,"Name":"La Barreta","state_id":3455,"state_code":"QUE","state_name":"Querétaro","country_id":142,"country_code":"MX","country_name":"Mexico","latitude":"20.82806000","longitude":"-100.50647000","wikiDataId":"Q20286020"},{"id":71206,"Name":"La Cañada","state_id":3455,"state_code":"QUE","state_name":"Querétaro","country_id":142,"country_code":"MX","country_name":"Mexico","latitude":"20.60805000","longitude":"-100.33275000","wikiDataId":"Q20246402"},{"id":71211,"Name":"La Ceja","state_id":3455,"state_code":"QUE","state_name":"Querétaro","country_id":142,"country_code":"MX","country_name":"Mexico","latitude":"20.38026000","longitude":"-100.26505000","wikiDataId":"Q20264429"},{"id":71257,"Name":"La D","state_id":3455,"state_code":"QUE","state_name":"Querétaro","country_id":142,"country_code":"MX","country_name":"Mexico","latitude":"20.44046000","longitude":"-100.15296000","wikiDataId":"Q20269663"},{"id":71279,"Name":"La Estacada","state_id":3455,"state_code":"QUE","state_name":"Querétaro","country_id":142,"country_code":"MX","country_name":"Mexico","latitude":"20.82151000","longitude":"-100.40763000","wikiDataId":"Q20289591"},{"id":71281,"Name":"La Estancia","state_id":3455,"state_code":"QUE","state_name":"Querétaro","country_id":142,"country_code":"MX","country_name":"Mexico","latitude":"20.42123000","longitude":"-100.06616000","wikiDataId":"Q20246444"},{"id":71296,"Name":"La Fuente","state_id":3455,"state_code":"QUE","state_name":"Querétaro","country_id":142,"country_code":"MX","country_name":"Mexico","latitude":"20.55255000","longitude":"-100.03591000","wikiDataId":"Q20239735"},{"id":71306,"Name":"La Gotera","state_id":3455,"state_code":"QUE","state_name":"Querétaro","country_id":142,"country_code":"MX","country_name":"Mexico","latitude":"20.86319000","longitude":"-100.37575000","wikiDataId":"Q20248348"},{"id":71308,"Name":"La Griega","state_id":3455,"state_code":"QUE","state_name":"Querétaro","country_id":142,"country_code":"MX","country_name":"Mexico","latitude":"20.66642000","longitude":"-100.24012000","wikiDataId":"Q48535418"},{"id":71349,"Name":"La Laja","state_id":3455,"state_code":"QUE","state_name":"Querétaro","country_id":142,"country_code":"MX","country_name":"Mexico","latitude":"20.57468000","longitude":"-99.98070000","wikiDataId":"Q20226680"},{"id":71360,"Name":"La Lira","state_id":3455,"state_code":"QUE","state_name":"Querétaro","country_id":142,"country_code":"MX","country_name":"Mexico","latitude":"20.47554000","longitude":"-100.16145000","wikiDataId":"Q20239766"},{"id":71361,"Name":"La Llave","state_id":3455,"state_code":"QUE","state_name":"Querétaro","country_id":142,"country_code":"MX","country_name":"Mexico","latitude":"20.46628000","longitude":"-99.99373000","wikiDataId":"Q20246456"},{"id":71366,"Name":"La Loma","state_id":3455,"state_code":"QUE","state_name":"Querétaro","country_id":142,"country_code":"MX","country_name":"Mexico","latitude":"20.60000000","longitude":"-100.23889000","wikiDataId":"Q20239772"},{"id":71377,"Name":"La Luz","state_id":3455,"state_code":"QUE","state_name":"Querétaro","country_id":142,"country_code":"MX","country_name":"Mexico","latitude":"20.86857000","longitude":"-100.43839000","wikiDataId":"Q20246465"},{"id":71403,"Name":"La Monja","state_id":3455,"state_code":"QUE","state_name":"Querétaro","country_id":142,"country_code":"MX","country_name":"Mexico","latitude":"20.84275000","longitude":"-100.49754000","wikiDataId":"Q4251713"},{"id":71404,"Name":"La Negreta","state_id":3455,"state_code":"QUE","state_name":"Querétaro","country_id":142,"country_code":"MX","country_name":"Mexico","latitude":"20.52647000","longitude":"-100.45053000","wikiDataId":"Q4251713"},{"id":71406,"Name":"La Noria","state_id":3455,"state_code":"QUE","state_name":"Querétaro","country_id":142,"country_code":"MX","country_name":"Mexico","latitude":"20.51261000","longitude":"-100.34610000","wikiDataId":"Q4251713"},{"id":71420,"Name":"La Palma","state_id":3455,"state_code":"QUE","state_name":"Querétaro","country_id":142,"country_code":"MX","country_name":"Mexico","latitude":"20.52219000","longitude":"-100.17392000","wikiDataId":"Q20246488"},{"id":71446,"Name":"La Piedad","state_id":3455,"state_code":"QUE","state_name":"Querétaro","country_id":142,"country_code":"MX","country_name":"Mexico","latitude":"20.57890000","longitude":"-100.25573000","wikiDataId":"Q20240187"},{"id":71456,"Name":"La Pradera","state_id":3455,"state_code":"QUE","state_name":"Querétaro","country_id":142,"country_code":"MX","country_name":"Mexico","latitude":"20.65889000","longitude":"-100.34222000","wikiDataId":"Q5964910"},{"id":71489,"Name":"La Solana","state_id":3455,"state_code":"QUE","state_name":"Querétaro","country_id":142,"country_code":"MX","country_name":"Mexico","latitude":"20.73835000","longitude":"-100.39469000","wikiDataId":"Q20135979"},{"id":71495,"Name":"La Soledad","state_id":3455,"state_code":"QUE","state_name":"Querétaro","country_id":142,"country_code":"MX","country_name":"Mexico","latitude":"20.16944000","longitude":"-100.19111000","wikiDataId":"Q20136324"},{"id":71506,"Name":"La Tortuga","state_id":3455,"state_code":"QUE","state_name":"Querétaro","country_id":142,"country_code":"MX","country_name":"Mexico","latitude":"20.56703000","longitude":"-99.92317000","wikiDataId":"Q20137470"},{"id":71508,"Name":"La Trinidad","state_id":3455,"state_code":"QUE","state_name":"Querétaro","country_id":142,"country_code":"MX","country_name":"Mexico","latitude":"20.51560000","longitude":"-99.96283000","wikiDataId":"Q20137470"},{"id":71526,"Name":"La Valla","state_id":3455,"state_code":"QUE","state_name":"Querétaro","country_id":142,"country_code":"MX","country_name":"Mexico","latitude":"20.49966000","longitude":"-100.02689000","wikiDataId":"Q20138180"},{"id":71530,"Name":"La Versolilla","state_id":3455,"state_code":"QUE","state_name":"Querétaro","country_id":142,"country_code":"MX","country_name":"Mexico","latitude":"20.87306000","longitude":"-100.37889000","wikiDataId":"Q20239873"},{"id":71556,"Name":"Laguna de Vaquerías","state_id":3455,"state_code":"QUE","state_name":"Querétaro","country_id":142,"country_code":"MX","country_name":"Mexico","latitude":"20.35392000","longitude":"-100.13515000","wikiDataId":"Q20140169"},{"id":71564,"Name":"Lagunillas","state_id":3455,"state_code":"QUE","state_name":"Querétaro","country_id":142,"country_code":"MX","country_name":"Mexico","latitude":"20.45876000","longitude":"-100.29500000","wikiDataId":"Q20224606"},{"id":71568,"Name":"Landa de Matamoros","state_id":3455,"state_code":"QUE","state_name":"Querétaro","country_id":142,"country_code":"MX","country_name":"Mexico","latitude":"21.18484000","longitude":"-99.31985000","wikiDataId":"Q2652446"},{"id":71608,"Name":"Las Lajitas","state_id":3455,"state_code":"QUE","state_name":"Querétaro","country_id":142,"country_code":"MX","country_name":"Mexico","latitude":"20.80360000","longitude":"-100.40107000","wikiDataId":"Q20145746"},{"id":71641,"Name":"Las Taponas","state_id":3455,"state_code":"QUE","state_name":"Querétaro","country_id":142,"country_code":"MX","country_name":"Mexico","latitude":"20.41747000","longitude":"-100.38421000","wikiDataId":"Q20227482"},{"id":71722,"Name":"Loma Linda","state_id":3455,"state_code":"QUE","state_name":"Querétaro","country_id":142,"country_code":"MX","country_name":"Mexico","latitude":"20.40079000","longitude":"-100.03132000","wikiDataId":"Q20239229"},{"id":71778,"Name":"Los Baños","state_id":3455,"state_code":"QUE","state_name":"Querétaro","country_id":142,"country_code":"MX","country_name":"Mexico","latitude":"20.79050000","longitude":"-100.31310000","wikiDataId":"Q20131211"},{"id":71779,"Name":"Los Benitos","state_id":3455,"state_code":"QUE","state_name":"Querétaro","country_id":142,"country_code":"MX","country_name":"Mexico","latitude":"20.68500000","longitude":"-99.95611000","wikiDataId":"Q20131520"},{"id":71788,"Name":"Los Cerritos","state_id":3455,"state_code":"QUE","state_name":"Querétaro","country_id":142,"country_code":"MX","country_name":"Mexico","latitude":"20.56204000","longitude":"-100.06338000","wikiDataId":"Q20132801"},{"id":71795,"Name":"Los Cues","state_id":3455,"state_code":"QUE","state_name":"Querétaro","country_id":142,"country_code":"MX","country_name":"Mexico","latitude":"20.50194000","longitude":"-100.26417000","wikiDataId":"Q20246588"},{"id":71825,"Name":"Los Olvera","state_id":3455,"state_code":"QUE","state_name":"Querétaro","country_id":142,"country_code":"MX","country_name":"Mexico","latitude":"20.53434000","longitude":"-100.40795000","wikiDataId":"Q20285372"},{"id":71835,"Name":"Los Pocitos","state_id":3455,"state_code":"QUE","state_name":"Querétaro","country_id":142,"country_code":"MX","country_name":"Mexico","latitude":"20.80000000","longitude":"-100.31408000","wikiDataId":"Q20270469"},{"id":71875,"Name":"Lourdes","state_id":3455,"state_code":"QUE","state_name":"Querétaro","country_id":142,"country_code":"MX","country_name":"Mexico","latitude":"20.51271000","longitude":"-100.47643000","wikiDataId":"Q20208663"},{"id":72084,"Name":"Mesillas","state_id":3455,"state_code":"QUE","state_name":"Querétaro","country_id":142,"country_code":"MX","country_name":"Mexico","latitude":"20.13653000","longitude":"-100.00157000","wikiDataId":"Q20147958"},{"id":72190,"Name":"Mompaní","state_id":3455,"state_code":"QUE","state_name":"Querétaro","country_id":142,"country_code":"MX","country_name":"Mexico","latitude":"20.69214000","longitude":"-100.50679000","wikiDataId":"Q20149801"},{"id":72216,"Name":"Montenegro","state_id":3455,"state_code":"QUE","state_name":"Querétaro","country_id":142,"country_code":"MX","country_name":"Mexico","latitude":"20.76333000","longitude":"-100.42861000","wikiDataId":"Q20287766"},{"id":72333,"Name":"Ninguno [CERESO]","state_id":3455,"state_code":"QUE","state_name":"Querétaro","country_id":142,"country_code":"MX","country_name":"Mexico","latitude":"20.67361000","longitude":"-100.36028000","wikiDataId":"Q20288213"},{"id":72351,"Name":"Noria Nueva","state_id":3455,"state_code":"QUE","state_name":"Querétaro","country_id":142,"country_code":"MX","country_name":"Mexico","latitude":"20.55671000","longitude":"-100.12502000","wikiDataId":"Q20231076"},{"id":72488,"Name":"Ojo de Agua","state_id":3455,"state_code":"QUE","state_name":"Querétaro","country_id":142,"country_code":"MX","country_name":"Mexico","latitude":"20.34746000","longitude":"-100.03528000","wikiDataId":"Q1030019"},{"id":72595,"Name":"Palmillas","state_id":3455,"state_code":"QUE","state_name":"Querétaro","country_id":142,"country_code":"MX","country_name":"Mexico","latitude":"20.33631000","longitude":"-99.94035000","wikiDataId":"Q20231194"},{"id":72605,"Name":"Palo Alto","state_id":3455,"state_code":"QUE","state_name":"Querétaro","country_id":142,"country_code":"MX","country_name":"Mexico","latitude":"20.54065000","longitude":"-100.22130000","wikiDataId":"Q4274514"},{"id":72673,"Name":"Paseos del Marqués","state_id":3455,"state_code":"QUE","state_name":"Querétaro","country_id":142,"country_code":"MX","country_name":"Mexico","latitude":"20.60389000","longitude":"-100.24028000","wikiDataId":"Q20240125"},{"id":72674,"Name":"Paseos del Pedregal","state_id":3455,"state_code":"QUE","state_name":"Querétaro","country_id":142,"country_code":"MX","country_name":"Mexico","latitude":"20.66417000","longitude":"-100.39806000","wikiDataId":"Q20240126"},{"id":72688,"Name":"Paso de Mata","state_id":3455,"state_code":"QUE","state_name":"Querétaro","country_id":142,"country_code":"MX","country_name":"Mexico","latitude":"20.34230000","longitude":"-99.92712000","wikiDataId":"Q20240128"},{"id":72711,"Name":"Patria Nueva","state_id":3455,"state_code":"QUE","state_name":"Querétaro","country_id":142,"country_code":"MX","country_name":"Mexico","latitude":"20.63222000","longitude":"-100.47694000","wikiDataId":"Q20293678"},{"id":72725,"Name":"Pedro Escobedo","state_id":3455,"state_code":"QUE","state_name":"Querétaro","country_id":142,"country_code":"MX","country_name":"Mexico","latitude":"20.49963000","longitude":"-100.14278000","wikiDataId":"Q3847005"},{"id":72752,"Name":"Peñamiller","state_id":3455,"state_code":"QUE","state_name":"Querétaro","country_id":142,"country_code":"MX","country_name":"Mexico","latitude":"21.05408000","longitude":"-99.81573000","wikiDataId":"Q3845591"},{"id":72763,"Name":"Pie de Gallo","state_id":3455,"state_code":"QUE","state_name":"Querétaro","country_id":142,"country_code":"MX","country_name":"Mexico","latitude":"20.78351000","longitude":"-100.49243000","wikiDataId":"Q20289295"},{"id":72778,"Name":"Pinal de Amoles","state_id":3455,"state_code":"QUE","state_name":"Querétaro","country_id":142,"country_code":"MX","country_name":"Mexico","latitude":"21.13448000","longitude":"-99.62590000","wikiDataId":"Q20163791"},{"id":72783,"Name":"Pintillo","state_id":3455,"state_code":"QUE","state_name":"Querétaro","country_id":142,"country_code":"MX","country_name":"Mexico","latitude":"20.79667000","longitude":"-100.41694000","wikiDataId":"Q20240151"},{"id":72888,"Name":"Presa de Rayas","state_id":3455,"state_code":"QUE","state_name":"Querétaro","country_id":142,"country_code":"MX","country_name":"Mexico","latitude":"20.80712000","longitude":"-100.22252000","wikiDataId":"Q20266054"},{"id":72962,"Name":"Puerta de Palmillas","state_id":3455,"state_code":"QUE","state_name":"Querétaro","country_id":142,"country_code":"MX","country_name":"Mexico","latitude":"20.31204000","longitude":"-99.91629000","wikiDataId":"Q20234619"},{"id":72975,"Name":"Puerto de Aguirre","state_id":3455,"state_code":"QUE","state_name":"Querétaro","country_id":142,"country_code":"MX","country_name":"Mexico","latitude":"20.80652000","longitude":"-100.43213000","wikiDataId":"Q7413502"},{"id":72977,"Name":"Puerto de Carroza","state_id":3455,"state_code":"QUE","state_name":"Querétaro","country_id":142,"country_code":"MX","country_name":"Mexico","latitude":"20.89862000","longitude":"-100.41164000","wikiDataId":"Q20297654"},{"id":72978,"Name":"Puerto de Chiquihuite","state_id":3455,"state_code":"QUE","state_name":"Querétaro","country_id":142,"country_code":"MX","country_name":"Mexico","latitude":"20.70083000","longitude":"-99.83528000","wikiDataId":"Q20246681"},{"id":72979,"Name":"Puerto de Nieto","state_id":3455,"state_code":"QUE","state_name":"Querétaro","country_id":142,"country_code":"MX","country_name":"Mexico","latitude":"20.88975000","longitude":"-100.53814000","wikiDataId":"Q20246681"},{"id":72995,"Name":"Purísima de Arista","state_id":3455,"state_code":"QUE","state_name":"Querétaro","country_id":142,"country_code":"MX","country_name":"Mexico","latitude":"21.31090000","longitude":"-99.51215000","wikiDataId":"Q9064894"},{"id":72998,"Name":"Purísima de Cubos (La Purísima)","state_id":3455,"state_code":"QUE","state_name":"Querétaro","country_id":142,"country_code":"MX","country_name":"Mexico","latitude":"20.60028000","longitude":"-100.11833000","wikiDataId":"Q20240243"},{"id":73025,"Name":"Querétaro","state_id":3455,"state_code":"QUE","state_name":"Querétaro","country_id":142,"country_code":"MX","country_name":"Mexico","latitude":"20.72105000","longitude":"-100.44738000","wikiDataId":"Q2917451"},{"id":73058,"Name":"Rancho Bellavista [Fraccionamiento]","state_id":3455,"state_code":"QUE","state_name":"Querétaro","country_id":142,"country_code":"MX","country_name":"Mexico","latitude":"20.60667000","longitude":"-100.44972000","wikiDataId":"Q20246709"},{"id":73211,"Name":"Saldarriaga","state_id":3455,"state_code":"QUE","state_name":"Querétaro","country_id":142,"country_code":"MX","country_name":"Mexico","latitude":"20.62781000","longitude":"-100.29307000","wikiDataId":"Q1801321"},{"id":73367,"Name":"San Antonio de la Cal","state_id":3455,"state_code":"QUE","state_name":"Querétaro","country_id":142,"country_code":"MX","country_name":"Mexico","latitude":"20.76693000","longitude":"-99.93771000","wikiDataId":"Q20134058"},{"id":73468,"Name":"San Clemente","state_id":3455,"state_code":"QUE","state_name":"Querétaro","country_id":142,"country_code":"MX","country_name":"Mexico","latitude":"20.51509000","longitude":"-100.08459000","wikiDataId":"Q3846966"},{"id":73615,"Name":"San Francisco de la Palma","state_id":3455,"state_code":"QUE","state_name":"Querétaro","country_id":142,"country_code":"MX","country_name":"Mexico","latitude":"20.66028000","longitude":"-100.51528000","wikiDataId":"Q20138017"},{"id":73659,"Name":"San Ildefonso","state_id":3455,"state_code":"QUE","state_name":"Querétaro","country_id":142,"country_code":"MX","country_name":"Mexico","latitude":"20.56750000","longitude":"-100.17262000","wikiDataId":"Q20289890"},{"id":73661,"Name":"San Ildefonso Tultepec","state_id":3455,"state_code":"QUE","state_name":"Querétaro","country_id":142,"country_code":"MX","country_name":"Mexico","latitude":"20.14381000","longitude":"-99.95946000","wikiDataId":"Q3889136"},{"id":73677,"Name":"San Isidro Buenavista","state_id":3455,"state_code":"QUE","state_name":"Querétaro","country_id":142,"country_code":"MX","country_name":"Mexico","latitude":"20.78874000","longitude":"-100.44908000","wikiDataId":"Q20739905"},{"id":73680,"Name":"San Isidro Miranda","state_id":3455,"state_code":"QUE","state_name":"Querétaro","country_id":142,"country_code":"MX","country_name":"Mexico","latitude":"20.57018000","longitude":"-100.32425000","wikiDataId":"Q20139687"},{"id":73696,"Name":"San Javier","state_id":3455,"state_code":"QUE","state_name":"Querétaro","country_id":142,"country_code":"MX","country_name":"Mexico","latitude":"20.75265000","longitude":"-99.71683000","wikiDataId":"Q1193686"},{"id":73751,"Name":"San José Buenavista","state_id":3455,"state_code":"QUE","state_name":"Querétaro","country_id":142,"country_code":"MX","country_name":"Mexico","latitude":"20.73482000","longitude":"-100.40997000","wikiDataId":"Q20141260"},{"id":73830,"Name":"San José de la Laja","state_id":3455,"state_code":"QUE","state_name":"Querétaro","country_id":142,"country_code":"MX","country_name":"Mexico","latitude":"20.61844000","longitude":"-99.97550000","wikiDataId":"Q20265047"},{"id":73736,"Name":"San Jose de los Olvera","state_id":3455,"state_code":"QUE","state_name":"Querétaro","country_id":142,"country_code":"MX","country_name":"Mexico","latitude":"20.55307000","longitude":"-100.41518000","wikiDataId":"Q20141028"},{"id":73836,"Name":"San José del Jagüey","state_id":3455,"state_code":"QUE","state_name":"Querétaro","country_id":142,"country_code":"MX","country_name":"Mexico","latitude":"20.73722000","longitude":"-99.92444000","wikiDataId":"Q20142142"},{"id":73847,"Name":"San José el Alto","state_id":3455,"state_code":"QUE","state_name":"Querétaro","country_id":142,"country_code":"MX","country_name":"Mexico","latitude":"20.65339000","longitude":"-100.38218000","wikiDataId":"Q20142387"},{"id":73768,"Name":"San José Itho","state_id":3455,"state_code":"QUE","state_name":"Querétaro","country_id":142,"country_code":"MX","country_name":"Mexico","latitude":"20.16544000","longitude":"-100.12704000","wikiDataId":"Q20272452"},{"id":73791,"Name":"San José Tepuzas","state_id":3455,"state_code":"QUE","state_name":"Querétaro","country_id":142,"country_code":"MX","country_name":"Mexico","latitude":"20.35417000","longitude":"-100.37528000","wikiDataId":"Q20246820"},{"id":73976,"Name":"San Juan del Río","state_id":3455,"state_code":"QUE","state_name":"Querétaro","country_id":142,"country_code":"MX","country_name":"Mexico","latitude":"20.38886000","longitude":"-99.99577000","wikiDataId":"Q1815099"},{"id":74084,"Name":"San Martín","state_id":3455,"state_code":"QUE","state_name":"Querétaro","country_id":142,"country_code":"MX","country_name":"Mexico","latitude":"20.72282000","longitude":"-99.97522000","wikiDataId":"Q1962265"},{"id":74097,"Name":"San Martín Florida","state_id":3455,"state_code":"QUE","state_name":"Querétaro","country_id":142,"country_code":"MX","country_name":"Mexico","latitude":"20.75662000","longitude":"-99.82508000","wikiDataId":"Q20146062"},{"id":74161,"Name":"San Miguel Amazcala","state_id":3455,"state_code":"QUE","state_name":"Querétaro","country_id":142,"country_code":"MX","country_name":"Mexico","latitude":"20.75056000","longitude":"-100.23556000","wikiDataId":"Q20246827"},{"id":74243,"Name":"San Miguelito","state_id":3455,"state_code":"QUE","state_name":"Querétaro","country_id":142,"country_code":"MX","country_name":"Mexico","latitude":"20.73709000","longitude":"-100.50276000","wikiDataId":"Q20147114"},{"id":74248,"Name":"San Nicolás","state_id":3455,"state_code":"QUE","state_name":"Querétaro","country_id":142,"country_code":"MX","country_name":"Mexico","latitude":"20.47689000","longitude":"-99.93749000","wikiDataId":"Q20147957"},{"id":74271,"Name":"San Nicolás de la Torre","state_id":3455,"state_code":"QUE","state_name":"Querétaro","country_id":142,"country_code":"MX","country_name":"Mexico","latitude":"20.07806000","longitude":"-100.10139000","wikiDataId":"Q20147758"},{"id":74302,"Name":"San Pablo Tolimán","state_id":3455,"state_code":"QUE","state_name":"Querétaro","country_id":142,"country_code":"MX","country_name":"Mexico","latitude":"20.85703000","longitude":"-99.89985000","wikiDataId":"Q20240470"},{"id":74309,"Name":"San Pedro","state_id":3455,"state_code":"QUE","state_name":"Querétaro","country_id":142,"country_code":"MX","country_name":"Mexico","latitude":"20.32055000","longitude":"-100.28466000","wikiDataId":"Q20294384"},{"id":74357,"Name":"San Pedro Mártir","state_id":3455,"state_code":"QUE","state_name":"Querétaro","country_id":142,"country_code":"MX","country_name":"Mexico","latitude":"20.61795000","longitude":"-100.47024000","wikiDataId":"Q27767934"},{"id":74426,"Name":"San Rafael","state_id":3455,"state_code":"QUE","state_name":"Querétaro","country_id":142,"country_code":"MX","country_name":"Mexico","latitude":"20.75246000","longitude":"-100.28583000","wikiDataId":"Q510556"},{"id":74477,"Name":"San Sebastián de Las Barrancas Sur","state_id":3455,"state_code":"QUE","state_name":"Querétaro","country_id":142,"country_code":"MX","country_name":"Mexico","latitude":"20.26565000","longitude":"-99.93622000","wikiDataId":"Q20231890"},{"id":74509,"Name":"San Vicente el Alto","state_id":3455,"state_code":"QUE","state_name":"Querétaro","country_id":142,"country_code":"MX","country_name":"Mexico","latitude":"20.56857000","longitude":"-100.16495000","wikiDataId":"Q20295627"},{"id":74500,"Name":"San Vicente Ferrer","state_id":3455,"state_code":"QUE","state_name":"Querétaro","country_id":142,"country_code":"MX","country_name":"Mexico","latitude":"20.72703000","longitude":"-100.34584000","wikiDataId":"Q20295611"},{"id":74568,"Name":"Santa Bárbara de La Cueva","state_id":3455,"state_code":"QUE","state_name":"Querétaro","country_id":142,"country_code":"MX","country_name":"Mexico","latitude":"20.29632000","longitude":"-99.96296000","wikiDataId":"Q49997885"},{"id":74578,"Name":"Santa Catarina","state_id":3455,"state_code":"QUE","state_name":"Querétaro","country_id":142,"country_code":"MX","country_name":"Mexico","latitude":"20.77678000","longitude":"-100.45233000","wikiDataId":"Q20240488"},{"id":74610,"Name":"Santa Cruz","state_id":3455,"state_code":"QUE","state_name":"Querétaro","country_id":142,"country_code":"MX","country_name":"Mexico","latitude":"20.71179000","longitude":"-100.30414000","wikiDataId":"Q50028020"},{"id":74623,"Name":"Santa Cruz Escandón","state_id":3455,"state_code":"QUE","state_name":"Querétaro","country_id":142,"country_code":"MX","country_name":"Mexico","latitude":"20.41603000","longitude":"-99.95563000","wikiDataId":"Q20240491"},{"id":74721,"Name":"Santa María Begoña","state_id":3455,"state_code":"QUE","state_name":"Querétaro","country_id":142,"country_code":"MX","country_name":"Mexico","latitude":"20.74662000","longitude":"-100.31765000","wikiDataId":"Q3846612"},{"id":74755,"Name":"Santa María Magdalena","state_id":3455,"state_code":"QUE","state_name":"Querétaro","country_id":142,"country_code":"MX","country_name":"Mexico","latitude":"20.59690000","longitude":"-100.44749000","wikiDataId":"Q7419757"},{"id":74824,"Name":"Santa Matilde","state_id":3455,"state_code":"QUE","state_name":"Querétaro","country_id":142,"country_code":"MX","country_name":"Mexico","latitude":"20.43268000","longitude":"-100.02611000","wikiDataId":"Q20240390"},{"id":74848,"Name":"Santa Rosa de Lima","state_id":3455,"state_code":"QUE","state_name":"Querétaro","country_id":142,"country_code":"MX","country_name":"Mexico","latitude":"20.66565000","longitude":"-99.97851000","wikiDataId":"Q20238884"},{"id":74843,"Name":"Santa Rosa Jauregui","state_id":3455,"state_code":"QUE","state_name":"Querétaro","country_id":142,"country_code":"MX","country_name":"Mexico","latitude":"20.74122000","longitude":"-100.44843000","wikiDataId":"Q7419898"},{"id":74847,"Name":"Santa Rosa Xajay","state_id":3455,"state_code":"QUE","state_name":"Querétaro","country_id":142,"country_code":"MX","country_name":"Mexico","latitude":"20.43667000","longitude":"-99.89923000","wikiDataId":"Q20238884"},{"id":74985,"Name":"Santiago de Querétaro","state_id":3455,"state_code":"QUE","state_name":"Querétaro","country_id":142,"country_code":"MX","country_name":"Mexico","latitude":"20.58806000","longitude":"-100.38806000","wikiDataId":"Q173121"},{"id":74923,"Name":"Santiago Mexquititlán Barrio 4to.","state_id":3455,"state_code":"QUE","state_name":"Querétaro","country_id":142,"country_code":"MX","country_name":"Mexico","latitude":"20.06306000","longitude":"-100.06833000","wikiDataId":"Q20240512"},{"id":74992,"Name":"Santillán","state_id":3455,"state_code":"QUE","state_name":"Querétaro","country_id":142,"country_code":"MX","country_name":"Mexico","latitude":"20.60073000","longitude":"-99.93951000","wikiDataId":"Q3287586"},{"id":75062,"Name":"Sergio Villaseñor","state_id":3455,"state_code":"QUE","state_name":"Querétaro","country_id":142,"country_code":"MX","country_name":"Mexico","latitude":"20.64500000","longitude":"-100.42083000","wikiDataId":"Q20284879"},{"id":75463,"Name":"Tequisquiapan","state_id":3455,"state_code":"QUE","state_name":"Querétaro","country_id":142,"country_code":"MX","country_name":"Mexico","latitude":"20.52250000","longitude":"-99.89167000","wikiDataId":"Q1636457"},{"id":75543,"Name":"Tierra Blanca","state_id":3455,"state_code":"QUE","state_name":"Querétaro","country_id":142,"country_code":"MX","country_name":"Mexico","latitude":"20.78026000","longitude":"-100.38000000","wikiDataId":"Q1997462"},{"id":75614,"Name":"Tlacote el Bajo","state_id":3455,"state_code":"QUE","state_name":"Querétaro","country_id":142,"country_code":"MX","country_name":"Mexico","latitude":"20.66139000","longitude":"-100.50769000","wikiDataId":"Q9087917"},{"id":75721,"Name":"Tolimán","state_id":3455,"state_code":"QUE","state_name":"Querétaro","country_id":142,"country_code":"MX","country_name":"Mexico","latitude":"20.90845000","longitude":"-99.93040000","wikiDataId":"Q7814270"},{"id":75889,"Name":"Urecho","state_id":3455,"state_code":"QUE","state_name":"Querétaro","country_id":142,"country_code":"MX","country_name":"Mexico","latitude":"20.65388000","longitude":"-100.07402000","wikiDataId":"Q20273813"},{"id":75951,"Name":"Venceremos","state_id":3455,"state_code":"QUE","state_name":"Querétaro","country_id":142,"country_code":"MX","country_name":"Mexico","latitude":"20.55083000","longitude":"-100.39806000","wikiDataId":"Q20246893"},{"id":75968,"Name":"Viborillas","state_id":3455,"state_code":"QUE","state_name":"Querétaro","country_id":142,"country_code":"MX","country_name":"Mexico","latitude":"20.60882000","longitude":"-100.18558000","wikiDataId":"Q20292113"},{"id":76006,"Name":"Villa Guerrero","state_id":3455,"state_code":"QUE","state_name":"Querétaro","country_id":142,"country_code":"MX","country_name":"Mexico","latitude":"20.69704000","longitude":"-99.76093000","wikiDataId":"Q10391458"},{"id":76041,"Name":"Villa Progreso","state_id":3455,"state_code":"QUE","state_name":"Querétaro","country_id":142,"country_code":"MX","country_name":"Mexico","latitude":"20.64234000","longitude":"-99.83501000","wikiDataId":"Q7930450"},{"id":76086,"Name":"Villas Fundadores [Fraccionamiento]","state_id":3455,"state_code":"QUE","state_name":"Querétaro","country_id":142,"country_code":"MX","country_name":"Mexico","latitude":"20.37778000","longitude":"-99.90944000","wikiDataId":"Q20240632"},{"id":76096,"Name":"Vista Hermosa (Cuasinada)","state_id":3455,"state_code":"QUE","state_name":"Querétaro","country_id":142,"country_code":"MX","country_name":"Mexico","latitude":"20.36861000","longitude":"-100.01250000","wikiDataId":"Q20246907"},{"id":76098,"Name":"Visthá","state_id":3455,"state_code":"QUE","state_name":"Querétaro","country_id":142,"country_code":"MX","country_name":"Mexico","latitude":"20.44670000","longitude":"-99.97673000","wikiDataId":"Q20293346"},{"id":76102,"Name":"Vizarrón","state_id":3455,"state_code":"QUE","state_name":"Querétaro","country_id":142,"country_code":"MX","country_name":"Mexico","latitude":"20.83218000","longitude":"-99.72011000","wikiDataId":"Q56605776"},{"id":76245,"Name":"Yosphí","state_id":3455,"state_code":"QUE","state_name":"Querétaro","country_id":142,"country_code":"MX","country_name":"Mexico","latitude":"20.17083000","longitude":"-99.95222000","wikiDataId":"Q20240657"},{"id":76296,"Name":"Zamorano","state_id":3455,"state_code":"QUE","state_name":"Querétaro","country_id":142,"country_code":"MX","country_name":"Mexico","latitude":"20.80819000","longitude":"-100.11797000","wikiDataId":"Q2917015"}]