[{"id":77156,"Name":"Altagracia","state_id":942,"state_code":"RI","state_name":"Rivas","country_id":159,"country_code":"NI","country_name":"Nicaragua","latitude":"11.56615000","longitude":"-85.57840000","wikiDataId":"Q1186803"},{"id":77157,"Name":"Belén","state_id":942,"state_code":"RI","state_name":"Rivas","country_id":159,"country_code":"NI","country_name":"Nicaragua","latitude":"11.50299000","longitude":"-85.88935000","wikiDataId":"Q1647916"},{"id":77162,"Name":"Buenos Aires","state_id":942,"state_code":"RI","state_name":"Rivas","country_id":159,"country_code":"NI","country_name":"Nicaragua","latitude":"11.46916000","longitude":"-85.81661000","wikiDataId":"Q1648230"},{"id":77175,"Name":"Cárdenas","state_id":942,"state_code":"RI","state_name":"Rivas","country_id":159,"country_code":"NI","country_name":"Nicaragua","latitude":"11.19639000","longitude":"-85.50890000","wikiDataId":"Q1647924"},{"id":77220,"Name":"Moyogalpa","state_id":942,"state_code":"RI","state_name":"Rivas","country_id":159,"country_code":"NI","country_name":"Nicaragua","latitude":"11.54006000","longitude":"-85.69795000","wikiDataId":"Q2215641"},{"id":77222,"Name":"Municipio de Altagracia","state_id":942,"state_code":"RI","state_name":"Rivas","country_id":159,"country_code":"NI","country_name":"Nicaragua","latitude":"11.47983000","longitude":"-85.54166000","wikiDataId":"Q1647907"},{"id":77223,"Name":"Municipio de Belén","state_id":942,"state_code":"RI","state_name":"Rivas","country_id":159,"country_code":"NI","country_name":"Nicaragua","latitude":"11.57193000","longitude":"-85.96316000","wikiDataId":"Q1647907"},{"id":77224,"Name":"Municipio de Buenos Aires","state_id":942,"state_code":"RI","state_name":"Rivas","country_id":159,"country_code":"NI","country_name":"Nicaragua","latitude":"11.51760000","longitude":"-85.78333000","wikiDataId":"Q1647907"},{"id":77225,"Name":"Municipio de Cárdenas","state_id":942,"state_code":"RI","state_name":"Rivas","country_id":159,"country_code":"NI","country_name":"Nicaragua","latitude":"11.14912000","longitude":"-85.42323000","wikiDataId":"Q1647907"},{"id":77227,"Name":"Municipio de Moyogalpa","state_id":942,"state_code":"RI","state_name":"Rivas","country_id":159,"country_code":"NI","country_name":"Nicaragua","latitude":"11.52632000","longitude":"-85.67329000","wikiDataId":"Q1647907"},{"id":77230,"Name":"Municipio de Potosí","state_id":942,"state_code":"RI","state_name":"Rivas","country_id":159,"country_code":"NI","country_name":"Nicaragua","latitude":"11.57854000","longitude":"-85.87764000","wikiDataId":"Q1647907"},{"id":77231,"Name":"Municipio de Rivas","state_id":942,"state_code":"RI","state_name":"Rivas","country_id":159,"country_code":"NI","country_name":"Nicaragua","latitude":"11.43931000","longitude":"-85.82700000","wikiDataId":"Q1647907"},{"id":77233,"Name":"Municipio de San Jorge","state_id":942,"state_code":"RI","state_name":"Rivas","country_id":159,"country_code":"NI","country_name":"Nicaragua","latitude":"11.42703000","longitude":"-85.78904000","wikiDataId":"Q2214920"},{"id":77235,"Name":"Municipio de San Juan del Sur","state_id":942,"state_code":"RI","state_name":"Rivas","country_id":159,"country_code":"NI","country_name":"Nicaragua","latitude":"11.22368000","longitude":"-85.78289000","wikiDataId":"Q2214920"},{"id":77237,"Name":"Municipio de Tola","state_id":942,"state_code":"RI","state_name":"Rivas","country_id":159,"country_code":"NI","country_name":"Nicaragua","latitude":"11.46009000","longitude":"-86.00789000","wikiDataId":"Q2214920"},{"id":77247,"Name":"Potosí","state_id":942,"state_code":"RI","state_name":"Rivas","country_id":159,"country_code":"NI","country_name":"Nicaragua","latitude":"11.49416000","longitude":"-85.85680000","wikiDataId":"Q1647911"},{"id":77253,"Name":"Rivas","state_id":942,"state_code":"RI","state_name":"Rivas","country_id":159,"country_code":"NI","country_name":"Nicaragua","latitude":"11.43716000","longitude":"-85.82632000","wikiDataId":"Q1757609"},{"id":77257,"Name":"San Jorge","state_id":942,"state_code":"RI","state_name":"Rivas","country_id":159,"country_code":"NI","country_name":"Nicaragua","latitude":"11.45584000","longitude":"-85.80308000","wikiDataId":"Q956573"},{"id":77264,"Name":"San Juan del Sur","state_id":942,"state_code":"RI","state_name":"Rivas","country_id":159,"country_code":"NI","country_name":"Nicaragua","latitude":"11.25292000","longitude":"-85.87049000","wikiDataId":"Q240247"},{"id":77289,"Name":"Tola","state_id":942,"state_code":"RI","state_name":"Rivas","country_id":159,"country_code":"NI","country_name":"Nicaragua","latitude":"11.43927000","longitude":"-85.93891000","wikiDataId":"Q942590"}]