[{"id":67827,"Name":"Amaury","state_id":3261,"state_code":"RR","state_name":"Rivière du Rempart District","country_id":140,"country_code":"MU","country_name":"Mauritius","latitude":"-20.13083000","longitude":"57.65917000","wikiDataId":"Q27764414"},{"id":67843,"Name":"Cap Malheureux","state_id":3261,"state_code":"RR","state_name":"Rivière du Rempart District","country_id":140,"country_code":"MU","country_name":"Mauritius","latitude":"-19.98417000","longitude":"57.61417000","wikiDataId":"Q130238"},{"id":67852,"Name":"Cottage","state_id":3261,"state_code":"RR","state_name":"Rivière du Rempart District","country_id":140,"country_code":"MU","country_name":"Mauritius","latitude":"-20.05972000","longitude":"57.62917000","wikiDataId":"Q27764429"},{"id":67859,"Name":"Espérance Trébuchet","state_id":3261,"state_code":"RR","state_name":"Rivière du Rempart District","country_id":140,"country_code":"MU","country_name":"Mauritius","latitude":"-20.06972000","longitude":"57.64194000","wikiDataId":"Q27763650"},{"id":67862,"Name":"Goodlands","state_id":3261,"state_code":"RR","state_name":"Rivière du Rempart District","country_id":140,"country_code":"MU","country_name":"Mauritius","latitude":"-20.03841000","longitude":"57.65055000","wikiDataId":"Q3110720"},{"id":67863,"Name":"Grand Baie","state_id":3261,"state_code":"RR","state_name":"Rivière du Rempart District","country_id":140,"country_code":"MU","country_name":"Mauritius","latitude":"-20.01816000","longitude":"57.58015000","wikiDataId":"Q992154"},{"id":67865,"Name":"Grand Gaube","state_id":3261,"state_code":"RR","state_name":"Rivière du Rempart District","country_id":140,"country_code":"MU","country_name":"Mauritius","latitude":"-20.00639000","longitude":"57.66083000","wikiDataId":"Q3113606"},{"id":67875,"Name":"Mapou","state_id":3261,"state_code":"RR","state_name":"Rivière du Rempart District","country_id":140,"country_code":"MU","country_name":"Mauritius","latitude":"-20.07583000","longitude":"57.60139000","wikiDataId":"Q1105427"},{"id":67887,"Name":"Petit Raffray","state_id":3261,"state_code":"RR","state_name":"Rivière du Rempart District","country_id":140,"country_code":"MU","country_name":"Mauritius","latitude":"-20.02022000","longitude":"57.62296000","wikiDataId":"Q24045809"},{"id":67890,"Name":"Piton","state_id":3261,"state_code":"RR","state_name":"Rivière du Rempart District","country_id":140,"country_code":"MU","country_name":"Mauritius","latitude":"-20.09028000","longitude":"57.63028000","wikiDataId":"Q21402299"},{"id":67893,"Name":"Plaines des Roches","state_id":3261,"state_code":"RR","state_name":"Rivière du Rempart District","country_id":140,"country_code":"MU","country_name":"Mauritius","latitude":"-20.11167000","longitude":"57.69083000","wikiDataId":"Q24041555"},{"id":67905,"Name":"Rivière du Rempart","state_id":3261,"state_code":"RR","state_name":"Rivière du Rempart District","country_id":140,"country_code":"MU","country_name":"Mauritius","latitude":"-20.10306000","longitude":"57.68472000","wikiDataId":"Q1341194"},{"id":67906,"Name":"Roche Terre","state_id":3261,"state_code":"RR","state_name":"Rivière du Rempart District","country_id":140,"country_code":"MU","country_name":"Mauritius","latitude":"-20.01861000","longitude":"57.64472000","wikiDataId":"Q1341194"},{"id":67907,"Name":"Roches Noire","state_id":3261,"state_code":"RR","state_name":"Rivière du Rempart District","country_id":140,"country_code":"MU","country_name":"Mauritius","latitude":"-20.11111000","longitude":"57.71222000","wikiDataId":"Q1341194"},{"id":67918,"Name":"The Vale","state_id":3261,"state_code":"RR","state_name":"Rivière du Rempart District","country_id":140,"country_code":"MU","country_name":"Mauritius","latitude":"-20.03018000","longitude":"57.60219000","wikiDataId":"Q2322083"}]