[{"id":97566,"Name":"Aleksandrov Gay","state_id":1887,"state_code":"SAR","state_name":"Saratov Oblast","country_id":182,"country_code":"RU","country_name":"Russia","latitude":"50.14704000","longitude":"48.57037000","wikiDataId":"Q253296"},{"id":97576,"Name":"Alekseyevka","state_id":1887,"state_code":"SAR","state_name":"Saratov Oblast","country_id":182,"country_code":"RU","country_name":"Russia","latitude":"52.30583000","longitude":"48.02611000","wikiDataId":"Q4061836"},{"id":97663,"Name":"Arkadak","state_id":1887,"state_code":"SAR","state_name":"Saratov Oblast","country_id":182,"country_code":"RU","country_name":"Russia","latitude":"51.93261000","longitude":"43.49779000","wikiDataId":"Q103703"},{"id":97712,"Name":"Atkarsk","state_id":1887,"state_code":"SAR","state_name":"Saratov Oblast","country_id":182,"country_code":"RU","country_name":"Russia","latitude":"51.87185000","longitude":"45.00775000","wikiDataId":"Q104143"},{"id":97713,"Name":"Atkarskiy Rayon","state_id":1887,"state_code":"SAR","state_name":"Saratov Oblast","country_id":182,"country_code":"RU","country_name":"Russia","latitude":"51.91667000","longitude":"45.00000000","wikiDataId":"Q1651115"},{"id":97771,"Name":"Balakovo","state_id":1887,"state_code":"SAR","state_name":"Saratov Oblast","country_id":182,"country_code":"RU","country_name":"Russia","latitude":"52.02782000","longitude":"47.80070000","wikiDataId":"Q104560"},{"id":97775,"Name":"Balashov","state_id":1887,"state_code":"SAR","state_name":"Saratov Oblast","country_id":182,"country_code":"RU","country_name":"Russia","latitude":"51.55020000","longitude":"43.16670000","wikiDataId":"Q104564"},{"id":97782,"Name":"Baltay","state_id":1887,"state_code":"SAR","state_name":"Saratov Oblast","country_id":182,"country_code":"RU","country_name":"Russia","latitude":"52.46525000","longitude":"46.63081000","wikiDataId":"Q4076869"},{"id":97783,"Name":"Baltayskiy Rayon","state_id":1887,"state_code":"SAR","state_name":"Saratov Oblast","country_id":182,"country_code":"RU","country_name":"Russia","latitude":"52.50000000","longitude":"46.66667000","wikiDataId":"Q1651123"},{"id":97828,"Name":"Bazarno-Karabulakskiy Rayon","state_id":1887,"state_code":"SAR","state_name":"Saratov Oblast","country_id":182,"country_code":"RU","country_name":"Russia","latitude":"52.33333000","longitude":"46.33333000","wikiDataId":"Q1651093"},{"id":97829,"Name":"Bazarnyy Karabulak","state_id":1887,"state_code":"SAR","state_name":"Saratov Oblast","country_id":182,"country_code":"RU","country_name":"Russia","latitude":"52.26833000","longitude":"46.41444000","wikiDataId":"Q809783"},{"id":98009,"Name":"Bol’shoy Karay","state_id":1887,"state_code":"SAR","state_name":"Saratov Oblast","country_id":182,"country_code":"RU","country_name":"Russia","latitude":"51.60542000","longitude":"42.69006000","wikiDataId":"Q18768048"},{"id":98159,"Name":"Cherkasskoye","state_id":1887,"state_code":"SAR","state_name":"Saratov Oblast","country_id":182,"country_code":"RU","country_name":"Russia","latitude":"52.42895000","longitude":"47.21048000","wikiDataId":"Q4513125"},{"id":98267,"Name":"Dergachi","state_id":1887,"state_code":"SAR","state_name":"Saratov Oblast","country_id":182,"country_code":"RU","country_name":"Russia","latitude":"51.23280000","longitude":"48.76590000","wikiDataId":"Q3623602"},{"id":98350,"Name":"Dukhovnitskoye","state_id":1887,"state_code":"SAR","state_name":"Saratov Oblast","country_id":182,"country_code":"RU","country_name":"Russia","latitude":"52.48280000","longitude":"48.21370000","wikiDataId":"Q3701913"},{"id":98398,"Name":"Engel’s","state_id":1887,"state_code":"SAR","state_name":"Saratov Oblast","country_id":182,"country_code":"RU","country_name":"Russia","latitude":"51.48389000","longitude":"46.10528000","wikiDataId":"Q198748"},{"id":98399,"Name":"Engel’sskiy Rayon","state_id":1887,"state_code":"SAR","state_name":"Saratov Oblast","country_id":182,"country_code":"RU","country_name":"Russia","latitude":"51.50000000","longitude":"46.16667000","wikiDataId":"Q4025626"},{"id":98539,"Name":"Gornyy","state_id":1887,"state_code":"SAR","state_name":"Saratov Oblast","country_id":182,"country_code":"RU","country_name":"Russia","latitude":"51.75780000","longitude":"48.54130000","wikiDataId":"Q372021"},{"id":98737,"Name":"Ivanteyevka","state_id":1887,"state_code":"SAR","state_name":"Saratov Oblast","country_id":182,"country_code":"RU","country_name":"Russia","latitude":"52.26670000","longitude":"49.10550000","wikiDataId":"Q4196813"},{"id":98788,"Name":"Kalininsk","state_id":1887,"state_code":"SAR","state_name":"Saratov Oblast","country_id":182,"country_code":"RU","country_name":"Russia","latitude":"51.50000000","longitude":"44.47580000","wikiDataId":"Q143697"},{"id":98821,"Name":"Kamenskiy","state_id":1887,"state_code":"SAR","state_name":"Saratov Oblast","country_id":182,"country_code":"RU","country_name":"Russia","latitude":"50.88547000","longitude":"45.48801000","wikiDataId":"Q4211378"},{"id":99023,"Name":"Khvalynsk","state_id":1887,"state_code":"SAR","state_name":"Saratov Oblast","country_id":182,"country_code":"RU","country_name":"Russia","latitude":"52.49060000","longitude":"48.10580000","wikiDataId":"Q197560"},{"id":99024,"Name":"Khvalynskiy Rayon","state_id":1887,"state_code":"SAR","state_name":"Saratov Oblast","country_id":182,"country_code":"RU","country_name":"Russia","latitude":"52.50000000","longitude":"47.91667000","wikiDataId":"Q197560"},{"id":99027,"Name":"Khvatovka","state_id":1887,"state_code":"SAR","state_name":"Saratov Oblast","country_id":182,"country_code":"RU","country_name":"Russia","latitude":"52.35236000","longitude":"46.56282000","wikiDataId":"Q4496853"},{"id":99210,"Name":"Kormëzhka","state_id":1887,"state_code":"SAR","state_name":"Saratov Oblast","country_id":182,"country_code":"RU","country_name":"Russia","latitude":"51.90050000","longitude":"48.01630000","wikiDataId":"Q4233226"},{"id":99290,"Name":"Krasnoarmeysk","state_id":1887,"state_code":"SAR","state_name":"Saratov Oblast","country_id":182,"country_code":"RU","country_name":"Russia","latitude":"51.02389000","longitude":"45.69694000","wikiDataId":"Q155553"},{"id":99367,"Name":"Krasnyy Kut","state_id":1887,"state_code":"SAR","state_name":"Saratov Oblast","country_id":182,"country_code":"RU","country_name":"Russia","latitude":"50.95000000","longitude":"46.96667000","wikiDataId":"Q155797"},{"id":99369,"Name":"Krasnyy Oktyabr’","state_id":1887,"state_code":"SAR","state_name":"Saratov Oblast","country_id":182,"country_code":"RU","country_name":"Russia","latitude":"51.54018000","longitude":"45.70382000","wikiDataId":"Q4239552"},{"id":99375,"Name":"Krasnyy Yar","state_id":1887,"state_code":"SAR","state_name":"Saratov Oblast","country_id":182,"country_code":"RU","country_name":"Russia","latitude":"51.62917000","longitude":"46.42167000","wikiDataId":"Q4239663"},{"id":99709,"Name":"Lysyye Gory","state_id":1887,"state_code":"SAR","state_name":"Saratov Oblast","country_id":182,"country_code":"RU","country_name":"Russia","latitude":"51.55063000","longitude":"44.84144000","wikiDataId":"Q4270803"},{"id":99801,"Name":"Marks","state_id":1887,"state_code":"SAR","state_name":"Saratov Oblast","country_id":182,"country_code":"RU","country_name":"Russia","latitude":"51.71111000","longitude":"46.74861000","wikiDataId":"Q158357"},{"id":99802,"Name":"Marksovskiy Rayon","state_id":1887,"state_code":"SAR","state_name":"Saratov Oblast","country_id":182,"country_code":"RU","country_name":"Russia","latitude":"51.66667000","longitude":"46.83333000","wikiDataId":"Q516637"},{"id":99943,"Name":"Mokrous","state_id":1887,"state_code":"SAR","state_name":"Saratov Oblast","country_id":182,"country_code":"RU","country_name":"Russia","latitude":"51.23730000","longitude":"47.51370000","wikiDataId":"Q3701926"},{"id":100325,"Name":"Novouzensk","state_id":1887,"state_code":"SAR","state_name":"Saratov Oblast","country_id":182,"country_code":"RU","country_name":"Russia","latitude":"50.45917000","longitude":"48.14306000","wikiDataId":"Q175371"},{"id":100357,"Name":"Novyye Burasy","state_id":1887,"state_code":"SAR","state_name":"Saratov Oblast","country_id":182,"country_code":"RU","country_name":"Russia","latitude":"52.13236000","longitude":"46.07144000","wikiDataId":"Q4326340"},{"id":100600,"Name":"Perelyub","state_id":1887,"state_code":"SAR","state_name":"Saratov Oblast","country_id":182,"country_code":"RU","country_name":"Russia","latitude":"51.86292000","longitude":"50.35412000","wikiDataId":"Q4350534"},{"id":100658,"Name":"Petrovsk","state_id":1887,"state_code":"SAR","state_name":"Saratov Oblast","country_id":182,"country_code":"RU","country_name":"Russia","latitude":"52.30639000","longitude":"45.39167000","wikiDataId":"Q178857"},{"id":100676,"Name":"Pinerovka","state_id":1887,"state_code":"SAR","state_name":"Saratov Oblast","country_id":182,"country_code":"RU","country_name":"Russia","latitude":"51.56200000","longitude":"43.06890000","wikiDataId":"Q4362989"},{"id":100687,"Name":"Piterka","state_id":1887,"state_code":"SAR","state_name":"Saratov Oblast","country_id":182,"country_code":"RU","country_name":"Russia","latitude":"50.68030000","longitude":"47.44539000","wikiDataId":"Q4363850"},{"id":100721,"Name":"Podlesnoye","state_id":1887,"state_code":"SAR","state_name":"Saratov Oblast","country_id":182,"country_code":"RU","country_name":"Russia","latitude":"51.81610000","longitude":"47.00900000","wikiDataId":"Q4367751"},{"id":100847,"Name":"Privolzhskiy","state_id":1887,"state_code":"SAR","state_name":"Saratov Oblast","country_id":182,"country_code":"RU","country_name":"Russia","latitude":"51.40944000","longitude":"46.04833000","wikiDataId":"Q2111215"},{"id":100851,"Name":"Privolzhskoye","state_id":1887,"state_code":"SAR","state_name":"Saratov Oblast","country_id":182,"country_code":"RU","country_name":"Russia","latitude":"51.69194000","longitude":"46.72361000","wikiDataId":"Q21103856"},{"id":100889,"Name":"Pugachev","state_id":1887,"state_code":"SAR","state_name":"Saratov Oblast","country_id":182,"country_code":"RU","country_name":"Russia","latitude":"52.01333000","longitude":"48.80250000","wikiDataId":"Q184220"},{"id":100897,"Name":"Pushkino","state_id":1887,"state_code":"SAR","state_name":"Saratov Oblast","country_id":182,"country_code":"RU","country_name":"Russia","latitude":"51.23500000","longitude":"46.97417000","wikiDataId":"Q37958729"},{"id":100962,"Name":"Repnoye","state_id":1887,"state_code":"SAR","state_name":"Saratov Oblast","country_id":182,"country_code":"RU","country_name":"Russia","latitude":"51.59210000","longitude":"43.18610000","wikiDataId":"Q37958635"},{"id":100986,"Name":"Romanovka","state_id":1887,"state_code":"SAR","state_name":"Saratov Oblast","country_id":182,"country_code":"RU","country_name":"Russia","latitude":"51.74427000","longitude":"42.75270000","wikiDataId":"Q4397307"},{"id":101011,"Name":"Rovnoye","state_id":1887,"state_code":"SAR","state_name":"Saratov Oblast","country_id":182,"country_code":"RU","country_name":"Russia","latitude":"50.77650000","longitude":"46.05085000","wikiDataId":"Q4395294"},{"id":101017,"Name":"Rtishchevo","state_id":1887,"state_code":"SAR","state_name":"Saratov Oblast","country_id":182,"country_code":"RU","country_name":"Russia","latitude":"52.26041000","longitude":"43.78745000","wikiDataId":"Q193371"},{"id":101090,"Name":"Samoylovka","state_id":1887,"state_code":"SAR","state_name":"Saratov Oblast","country_id":182,"country_code":"RU","country_name":"Russia","latitude":"51.18400000","longitude":"43.70810000","wikiDataId":"Q37958337"},{"id":101114,"Name":"Saratov","state_id":1887,"state_code":"SAR","state_name":"Saratov Oblast","country_id":182,"country_code":"RU","country_name":"Russia","latitude":"51.54056000","longitude":"46.00861000","wikiDataId":"Q5332"},{"id":101116,"Name":"Saratovskiy Rayon","state_id":1887,"state_code":"SAR","state_name":"Saratov Oblast","country_id":182,"country_code":"RU","country_name":"Russia","latitude":"51.75000000","longitude":"46.16667000","wikiDataId":"Q1504872"},{"id":101172,"Name":"Sennoy","state_id":1887,"state_code":"SAR","state_name":"Saratov Oblast","country_id":182,"country_code":"RU","country_name":"Russia","latitude":"52.15090000","longitude":"46.96309000","wikiDataId":"Q37958093"},{"id":101310,"Name":"Shikhany","state_id":1887,"state_code":"SAR","state_name":"Saratov Oblast","country_id":182,"country_code":"RU","country_name":"Russia","latitude":"52.11776000","longitude":"47.19860000","wikiDataId":"Q198332"},{"id":101348,"Name":"Shumeyka","state_id":1887,"state_code":"SAR","state_name":"Saratov Oblast","country_id":182,"country_code":"RU","country_name":"Russia","latitude":"51.56361000","longitude":"46.24833000","wikiDataId":"Q198349"},{"id":101376,"Name":"Sinodskoye","state_id":1887,"state_code":"SAR","state_name":"Saratov Oblast","country_id":182,"country_code":"RU","country_name":"Russia","latitude":"51.99180000","longitude":"46.67009000","wikiDataId":"Q37957569"},{"id":101440,"Name":"Sokolovyy","state_id":1887,"state_code":"SAR","state_name":"Saratov Oblast","country_id":182,"country_code":"RU","country_name":"Russia","latitude":"51.56857000","longitude":"45.83312000","wikiDataId":"Q37957430"},{"id":101517,"Name":"Sovetskoye","state_id":1887,"state_code":"SAR","state_name":"Saratov Oblast","country_id":182,"country_code":"RU","country_name":"Russia","latitude":"51.44255000","longitude":"46.74240000","wikiDataId":"Q37957267"},{"id":101611,"Name":"Staryye Ozinki","state_id":1887,"state_code":"SAR","state_name":"Saratov Oblast","country_id":182,"country_code":"RU","country_name":"Russia","latitude":"51.17860000","longitude":"49.67690000","wikiDataId":"Q37959374"},{"id":101616,"Name":"Stepnoye","state_id":1887,"state_code":"SAR","state_name":"Saratov Oblast","country_id":182,"country_code":"RU","country_name":"Russia","latitude":"51.37972000","longitude":"46.84917000","wikiDataId":"Q37957051"},{"id":101706,"Name":"Svetlyy","state_id":1887,"state_code":"SAR","state_name":"Saratov Oblast","country_id":182,"country_code":"RU","country_name":"Russia","latitude":"51.67370000","longitude":"45.63054000","wikiDataId":"Q5665"},{"id":101713,"Name":"Svobodnyy","state_id":1887,"state_code":"SAR","state_name":"Saratov Oblast","country_id":182,"country_code":"RU","country_name":"Russia","latitude":"52.33039000","longitude":"46.37122000","wikiDataId":"Q37956783"},{"id":101797,"Name":"Tatishchevo","state_id":1887,"state_code":"SAR","state_name":"Saratov Oblast","country_id":182,"country_code":"RU","country_name":"Russia","latitude":"51.67028000","longitude":"45.59528000","wikiDataId":"Q37956608"},{"id":101836,"Name":"Tersa","state_id":1887,"state_code":"SAR","state_name":"Saratov Oblast","country_id":182,"country_code":"RU","country_name":"Russia","latitude":"52.08671000","longitude":"47.53936000","wikiDataId":"Q1655750"},{"id":101979,"Name":"Turki","state_id":1887,"state_code":"SAR","state_name":"Saratov Oblast","country_id":182,"country_code":"RU","country_name":"Russia","latitude":"51.98703000","longitude":"43.27310000","wikiDataId":"Q37956223"},{"id":102374,"Name":"Vol’sk","state_id":1887,"state_code":"SAR","state_name":"Saratov Oblast","country_id":182,"country_code":"RU","country_name":"Russia","latitude":"52.04541000","longitude":"47.37993000","wikiDataId":"Q133416"},{"id":102375,"Name":"Vol’skiy Rayon","state_id":1887,"state_code":"SAR","state_name":"Saratov Oblast","country_id":182,"country_code":"RU","country_name":"Russia","latitude":"52.08333000","longitude":"47.25000000","wikiDataId":"Q1504900"},{"id":102391,"Name":"Voskresenskiy Rayon","state_id":1887,"state_code":"SAR","state_name":"Saratov Oblast","country_id":182,"country_code":"RU","country_name":"Russia","latitude":"51.84139000","longitude":"46.90250000","wikiDataId":"Q4016489"},{"id":102392,"Name":"Voskresenskoye","state_id":1887,"state_code":"SAR","state_name":"Saratov Oblast","country_id":182,"country_code":"RU","country_name":"Russia","latitude":"51.82478000","longitude":"46.93508000","wikiDataId":"Q4126272"},{"id":102529,"Name":"Yekaterinovka","state_id":1887,"state_code":"SAR","state_name":"Saratov Oblast","country_id":182,"country_code":"RU","country_name":"Russia","latitude":"52.05083000","longitude":"44.34515000","wikiDataId":"Q3623617"},{"id":102548,"Name":"Yelshanka","state_id":1887,"state_code":"SAR","state_name":"Saratov Oblast","country_id":182,"country_code":"RU","country_name":"Russia","latitude":"51.81389000","longitude":"46.39972000","wikiDataId":"Q4175151"},{"id":102572,"Name":"Yershov","state_id":1887,"state_code":"SAR","state_name":"Saratov Oblast","country_id":182,"country_code":"RU","country_name":"Russia","latitude":"51.35130000","longitude":"48.27660000","wikiDataId":"Q135754"}]