[{"id":110977,"Name":"Aberdeen","state_id":1445,"state_code":"SD","state_name":"South Dakota","country_id":233,"country_code":"US","country_name":"United States","latitude":"45.46470000","longitude":"-98.48648000","wikiDataId":"Q236713"},{"id":111156,"Name":"Alexandria","state_id":1445,"state_code":"SD","state_name":"South Dakota","country_id":233,"country_code":"US","country_name":"United States","latitude":"43.65359000","longitude":"-97.78285000","wikiDataId":"Q2414602"},{"id":111479,"Name":"Armour","state_id":1445,"state_code":"SD","state_name":"South Dakota","country_id":233,"country_code":"US","country_name":"United States","latitude":"43.31860000","longitude":"-98.34675000","wikiDataId":"Q2235927"},{"id":111664,"Name":"Aurora County","state_id":1445,"state_code":"SD","state_name":"South Dakota","country_id":233,"country_code":"US","country_name":"United States","latitude":"43.71801000","longitude":"-98.56155000","wikiDataId":"Q484633"},{"id":111782,"Name":"Baltic","state_id":1445,"state_code":"SD","state_name":"South Dakota","country_id":233,"country_code":"US","country_name":"United States","latitude":"43.76136000","longitude":"-96.74033000","wikiDataId":"Q2510610"},{"id":111970,"Name":"Beadle County","state_id":1445,"state_code":"SD","state_name":"South Dakota","country_id":233,"country_code":"US","country_name":"United States","latitude":"44.41448000","longitude":"-98.27811000","wikiDataId":"Q484780"},{"id":112081,"Name":"Belle Fourche","state_id":1445,"state_code":"SD","state_name":"South Dakota","country_id":233,"country_code":"US","country_name":"United States","latitude":"44.67137000","longitude":"-103.85215000","wikiDataId":"Q947052"},{"id":112174,"Name":"Bennett County","state_id":1445,"state_code":"SD","state_name":"South Dakota","country_id":233,"country_code":"US","country_name":"United States","latitude":"43.19492000","longitude":"-101.66397000","wikiDataId":"Q484231"},{"id":112215,"Name":"Beresford","state_id":1445,"state_code":"SD","state_name":"South Dakota","country_id":233,"country_code":"US","country_name":"United States","latitude":"43.08054000","longitude":"-96.77366000","wikiDataId":"Q287417"},{"id":112368,"Name":"Bison","state_id":1445,"state_code":"SD","state_name":"South Dakota","country_id":233,"country_code":"US","country_name":"United States","latitude":"45.52026000","longitude":"-102.46127000","wikiDataId":"Q937981"},{"id":112388,"Name":"Blackhawk","state_id":1445,"state_code":"SD","state_name":"South Dakota","country_id":233,"country_code":"US","country_name":"United States","latitude":"44.15110000","longitude":"-103.30796000","wikiDataId":"Q2651630"},{"id":112528,"Name":"Bon Homme County","state_id":1445,"state_code":"SD","state_name":"South Dakota","country_id":233,"country_code":"US","country_name":"United States","latitude":"42.98837000","longitude":"-97.88463000","wikiDataId":"Q484234"},{"id":112636,"Name":"Box Elder","state_id":1445,"state_code":"SD","state_name":"South Dakota","country_id":233,"country_code":"US","country_name":"United States","latitude":"44.11249000","longitude":"-103.06823000","wikiDataId":"Q2152746"},{"id":112691,"Name":"Brandon","state_id":1445,"state_code":"SD","state_name":"South Dakota","country_id":233,"country_code":"US","country_name":"United States","latitude":"43.59470000","longitude":"-96.57199000","wikiDataId":"Q2923758"},{"id":112819,"Name":"Britton","state_id":1445,"state_code":"SD","state_name":"South Dakota","country_id":233,"country_code":"US","country_name":"United States","latitude":"45.79162000","longitude":"-97.75094000","wikiDataId":"Q2151512"},{"id":112861,"Name":"Brookings","state_id":1445,"state_code":"SD","state_name":"South Dakota","country_id":233,"country_code":"US","country_name":"United States","latitude":"44.31136000","longitude":"-96.79839000","wikiDataId":"Q1650462"},{"id":112863,"Name":"Brookings County","state_id":1445,"state_code":"SD","state_name":"South Dakota","country_id":233,"country_code":"US","country_name":"United States","latitude":"44.36968000","longitude":"-96.79042000","wikiDataId":"Q489069"},{"id":112913,"Name":"Brown County","state_id":1445,"state_code":"SD","state_name":"South Dakota","country_id":233,"country_code":"US","country_name":"United States","latitude":"45.58972000","longitude":"-98.35161000","wikiDataId":"Q489062"},{"id":112945,"Name":"Brule County","state_id":1445,"state_code":"SD","state_name":"South Dakota","country_id":233,"country_code":"US","country_name":"United States","latitude":"43.71806000","longitude":"-99.08094000","wikiDataId":"Q489088"},{"id":113015,"Name":"Buffalo","state_id":1445,"state_code":"SD","state_name":"South Dakota","country_id":233,"country_code":"US","country_name":"United States","latitude":"45.58416000","longitude":"-103.54603000","wikiDataId":"Q2149699"},{"id":113019,"Name":"Buffalo County","state_id":1445,"state_code":"SD","state_name":"South Dakota","country_id":233,"country_code":"US","country_name":"United States","latitude":"44.07635000","longitude":"-99.20496000","wikiDataId":"Q484450"},{"id":113055,"Name":"Burke","state_id":1445,"state_code":"SD","state_name":"South Dakota","country_id":233,"country_code":"US","country_name":"United States","latitude":"43.18250000","longitude":"-99.29205000","wikiDataId":"Q2725777"},{"id":113127,"Name":"Butte County","state_id":1445,"state_code":"SD","state_name":"South Dakota","country_id":233,"country_code":"US","country_name":"United States","latitude":"44.90583000","longitude":"-103.50802000","wikiDataId":"Q2613601"},{"id":113302,"Name":"Campbell County","state_id":1445,"state_code":"SD","state_name":"South Dakota","country_id":233,"country_code":"US","country_name":"United States","latitude":"45.77113000","longitude":"-100.05163000","wikiDataId":"Q489106"},{"id":113350,"Name":"Canton","state_id":1445,"state_code":"SD","state_name":"South Dakota","country_id":233,"country_code":"US","country_name":"United States","latitude":"43.30081000","longitude":"-96.59282000","wikiDataId":"Q1013549"},{"id":113718,"Name":"Chamberlain","state_id":1445,"state_code":"SD","state_name":"South Dakota","country_id":233,"country_code":"US","country_name":"United States","latitude":"43.81083000","longitude":"-99.33066000","wikiDataId":"Q1060410"},{"id":113758,"Name":"Charles Mix County","state_id":1445,"state_code":"SD","state_name":"South Dakota","country_id":233,"country_code":"US","country_name":"United States","latitude":"43.20791000","longitude":"-98.58789000","wikiDataId":"Q489159"},{"id":114120,"Name":"Clark","state_id":1445,"state_code":"SD","state_name":"South Dakota","country_id":233,"country_code":"US","country_name":"United States","latitude":"44.87774000","longitude":"-97.73314000","wikiDataId":"Q2781596"},{"id":114127,"Name":"Clark County","state_id":1445,"state_code":"SD","state_name":"South Dakota","country_id":233,"country_code":"US","country_name":"United States","latitude":"44.85825000","longitude":"-97.72950000","wikiDataId":"Q489083"},{"id":114190,"Name":"Clay County","state_id":1445,"state_code":"SD","state_name":"South Dakota","country_id":233,"country_code":"US","country_name":"United States","latitude":"42.91465000","longitude":"-96.97566000","wikiDataId":"Q489273"},{"id":114210,"Name":"Clear Lake","state_id":1445,"state_code":"SD","state_name":"South Dakota","country_id":233,"country_code":"US","country_name":"United States","latitude":"44.74580000","longitude":"-96.68256000","wikiDataId":"Q2109765"},{"id":114363,"Name":"Codington County","state_id":1445,"state_code":"SD","state_name":"South Dakota","country_id":233,"country_code":"US","country_name":"United States","latitude":"44.97785000","longitude":"-97.18862000","wikiDataId":"Q489075"},{"id":114451,"Name":"Colonial Pine Hills","state_id":1445,"state_code":"SD","state_name":"South Dakota","country_id":233,"country_code":"US","country_name":"United States","latitude":"44.00777000","longitude":"-103.31546000","wikiDataId":"Q2365993"},{"id":114671,"Name":"Corson County","state_id":1445,"state_code":"SD","state_name":"South Dakota","country_id":233,"country_code":"US","country_name":"United States","latitude":"45.70860000","longitude":"-101.19687000","wikiDataId":"Q489079"},{"id":114839,"Name":"Crooks","state_id":1445,"state_code":"SD","state_name":"South Dakota","country_id":233,"country_code":"US","country_name":"United States","latitude":"43.66470000","longitude":"-96.81089000","wikiDataId":"Q2656672"},{"id":114934,"Name":"Custer","state_id":1445,"state_code":"SD","state_name":"South Dakota","country_id":233,"country_code":"US","country_name":"United States","latitude":"43.76665000","longitude":"-103.59881000","wikiDataId":"Q1026175"},{"id":114940,"Name":"Custer County","state_id":1445,"state_code":"SD","state_name":"South Dakota","country_id":233,"country_code":"US","country_name":"United States","latitude":"43.67763000","longitude":"-103.45154000","wikiDataId":"Q489620"},{"id":114978,"Name":"Dakota Dunes","state_id":1445,"state_code":"SD","state_name":"South Dakota","country_id":233,"country_code":"US","country_name":"United States","latitude":"42.48749000","longitude":"-96.48642000","wikiDataId":"Q3475326"},{"id":115079,"Name":"Davison County","state_id":1445,"state_code":"SD","state_name":"South Dakota","country_id":233,"country_code":"US","country_name":"United States","latitude":"43.67474000","longitude":"-98.14600000","wikiDataId":"Q488922"},{"id":115089,"Name":"Day County","state_id":1445,"state_code":"SD","state_name":"South Dakota","country_id":233,"country_code":"US","country_name":"United States","latitude":"45.36715000","longitude":"-97.60741000","wikiDataId":"Q178341"},{"id":115114,"Name":"De Smet","state_id":1445,"state_code":"SD","state_name":"South Dakota","country_id":233,"country_code":"US","country_name":"United States","latitude":"44.38747000","longitude":"-97.55035000","wikiDataId":"Q2625666"},{"id":115142,"Name":"Deadwood","state_id":1445,"state_code":"SD","state_name":"South Dakota","country_id":233,"country_code":"US","country_name":"United States","latitude":"44.37665000","longitude":"-103.72964000","wikiDataId":"Q262483"},{"id":115214,"Name":"Dell Rapids","state_id":1445,"state_code":"SD","state_name":"South Dakota","country_id":233,"country_code":"US","country_name":"United States","latitude":"43.82608000","longitude":"-96.70616000","wikiDataId":"Q2160410"},{"id":115294,"Name":"Deuel County","state_id":1445,"state_code":"SD","state_name":"South Dakota","country_id":233,"country_code":"US","country_name":"United States","latitude":"44.76006000","longitude":"-96.66797000","wikiDataId":"Q489265"},{"id":115304,"Name":"Dewey County","state_id":1445,"state_code":"SD","state_name":"South Dakota","country_id":233,"country_code":"US","country_name":"United States","latitude":"45.15662000","longitude":"-100.87186000","wikiDataId":"Q489092"},{"id":115431,"Name":"Douglas County","state_id":1445,"state_code":"SD","state_name":"South Dakota","country_id":233,"country_code":"US","country_name":"United States","latitude":"43.38692000","longitude":"-98.36610000","wikiDataId":"Q489259"},{"id":115559,"Name":"Dupree","state_id":1445,"state_code":"SD","state_name":"South Dakota","country_id":233,"country_code":"US","country_name":"United States","latitude":"45.04748000","longitude":"-101.60099000","wikiDataId":"Q1013540"},{"id":115599,"Name":"Eagle Butte","state_id":1445,"state_code":"SD","state_name":"South Dakota","country_id":233,"country_code":"US","country_name":"United States","latitude":"45.00248000","longitude":"-101.23349000","wikiDataId":"Q2705570"},{"id":115883,"Name":"Edmunds County","state_id":1445,"state_code":"SD","state_name":"South Dakota","country_id":233,"country_code":"US","country_name":"United States","latitude":"45.41880000","longitude":"-99.21533000","wikiDataId":"Q179954"},{"id":115990,"Name":"Elk Point","state_id":1445,"state_code":"SD","state_name":"South Dakota","country_id":233,"country_code":"US","country_name":"United States","latitude":"42.68333000","longitude":"-96.68365000","wikiDataId":"Q974611"},{"id":116375,"Name":"Fall River County","state_id":1445,"state_code":"SD","state_name":"South Dakota","country_id":233,"country_code":"US","country_name":"United States","latitude":"43.23939000","longitude":"-103.52756000","wikiDataId":"Q495654"},{"id":116433,"Name":"Faulk County","state_id":1445,"state_code":"SD","state_name":"South Dakota","country_id":233,"country_code":"US","country_name":"United States","latitude":"45.07101000","longitude":"-99.14525000","wikiDataId":"Q495417"},{"id":116435,"Name":"Faulkton","state_id":1445,"state_code":"SD","state_name":"South Dakota","country_id":233,"country_code":"US","country_name":"United States","latitude":"45.03497000","longitude":"-99.12400000","wikiDataId":"Q2438591"},{"id":116549,"Name":"Flandreau","state_id":1445,"state_code":"SD","state_name":"South Dakota","country_id":233,"country_code":"US","country_name":"United States","latitude":"44.04942000","longitude":"-96.59532000","wikiDataId":"Q675049"},{"id":116742,"Name":"Fort Pierre","state_id":1445,"state_code":"SD","state_name":"South Dakota","country_id":233,"country_code":"US","country_name":"United States","latitude":"44.35359000","longitude":"-100.37374000","wikiDataId":"Q1994648"},{"id":116755,"Name":"Fort Thompson","state_id":1445,"state_code":"SD","state_name":"South Dakota","country_id":233,"country_code":"US","country_name":"United States","latitude":"44.06860000","longitude":"-99.43788000","wikiDataId":"Q1438770"},{"id":116908,"Name":"Freeman","state_id":1445,"state_code":"SD","state_name":"South Dakota","country_id":233,"country_code":"US","country_name":"United States","latitude":"43.35249000","longitude":"-97.43729000","wikiDataId":"Q2397565"},{"id":117097,"Name":"Garretson","state_id":1445,"state_code":"SD","state_name":"South Dakota","country_id":233,"country_code":"US","country_name":"United States","latitude":"43.71747000","longitude":"-96.50282000","wikiDataId":"Q2298175"},{"id":117180,"Name":"Gettysburg","state_id":1445,"state_code":"SD","state_name":"South Dakota","country_id":233,"country_code":"US","country_name":"United States","latitude":"45.01165000","longitude":"-99.95567000","wikiDataId":"Q2176578"},{"id":117514,"Name":"Grant County","state_id":1445,"state_code":"SD","state_name":"South Dakota","country_id":233,"country_code":"US","country_name":"United States","latitude":"45.17194000","longitude":"-96.76769000","wikiDataId":"Q490498"},{"id":117717,"Name":"Gregory","state_id":1445,"state_code":"SD","state_name":"South Dakota","country_id":233,"country_code":"US","country_name":"United States","latitude":"43.23222000","longitude":"-99.43038000","wikiDataId":"Q2171759"},{"id":117718,"Name":"Gregory County","state_id":1445,"state_code":"SD","state_name":"South Dakota","country_id":233,"country_code":"US","country_name":"United States","latitude":"43.19238000","longitude":"-99.18561000","wikiDataId":"Q495234"},{"id":117751,"Name":"Groton","state_id":1445,"state_code":"SD","state_name":"South Dakota","country_id":233,"country_code":"US","country_name":"United States","latitude":"45.44746000","longitude":"-98.09871000","wikiDataId":"Q3245483"},{"id":117823,"Name":"Haakon County","state_id":1445,"state_code":"SD","state_name":"South Dakota","country_id":233,"country_code":"US","country_name":"United States","latitude":"44.29443000","longitude":"-101.53999000","wikiDataId":"Q489369"},{"id":117911,"Name":"Hamlin County","state_id":1445,"state_code":"SD","state_name":"South Dakota","country_id":233,"country_code":"US","country_name":"United States","latitude":"44.67376000","longitude":"-97.18833000","wikiDataId":"Q495223"},{"id":117959,"Name":"Hand County","state_id":1445,"state_code":"SD","state_name":"South Dakota","country_id":233,"country_code":"US","country_name":"United States","latitude":"44.54778000","longitude":"-99.00494000","wikiDataId":"Q495625"},{"id":117979,"Name":"Hanson County","state_id":1445,"state_code":"SD","state_name":"South Dakota","country_id":233,"country_code":"US","country_name":"United States","latitude":"43.67482000","longitude":"-97.78734000","wikiDataId":"Q495667"},{"id":118005,"Name":"Harding County","state_id":1445,"state_code":"SD","state_name":"South Dakota","country_id":233,"country_code":"US","country_name":"United States","latitude":"45.58035000","longitude":"-103.49577000","wikiDataId":"Q492493"},{"id":118051,"Name":"Harrisburg","state_id":1445,"state_code":"SD","state_name":"South Dakota","country_id":233,"country_code":"US","country_name":"United States","latitude":"43.43137000","longitude":"-96.69727000","wikiDataId":"Q2266776"},{"id":118093,"Name":"Hartford","state_id":1445,"state_code":"SD","state_name":"South Dakota","country_id":233,"country_code":"US","country_name":"United States","latitude":"43.62303000","longitude":"-96.94255000","wikiDataId":"Q2650963"},{"id":118195,"Name":"Hayti","state_id":1445,"state_code":"SD","state_name":"South Dakota","country_id":233,"country_code":"US","country_name":"United States","latitude":"44.65719000","longitude":"-97.20507000","wikiDataId":"Q599201"},{"id":118422,"Name":"Highmore","state_id":1445,"state_code":"SD","state_name":"South Dakota","country_id":233,"country_code":"US","country_name":"United States","latitude":"44.52137000","longitude":"-99.44150000","wikiDataId":"Q2279962"},{"id":118683,"Name":"Hot Springs","state_id":1445,"state_code":"SD","state_name":"South Dakota","country_id":233,"country_code":"US","country_name":"United States","latitude":"43.43165000","longitude":"-103.47436000","wikiDataId":"Q937736"},{"id":118709,"Name":"Howard","state_id":1445,"state_code":"SD","state_name":"South Dakota","country_id":233,"country_code":"US","country_name":"United States","latitude":"44.01081000","longitude":"-97.52674000","wikiDataId":"Q2089472"},{"id":118759,"Name":"Hughes County","state_id":1445,"state_code":"SD","state_name":"South Dakota","country_id":233,"country_code":"US","country_name":"United States","latitude":"44.38903000","longitude":"-99.99605000","wikiDataId":"Q495629"},{"id":118824,"Name":"Huron","state_id":1445,"state_code":"SD","state_name":"South Dakota","country_id":233,"country_code":"US","country_name":"United States","latitude":"44.36332000","longitude":"-98.21426000","wikiDataId":"Q1988967"},{"id":118837,"Name":"Hutchinson County","state_id":1445,"state_code":"SD","state_name":"South Dakota","country_id":233,"country_code":"US","country_name":"United States","latitude":"43.33485000","longitude":"-97.75442000","wikiDataId":"Q491702"},{"id":118848,"Name":"Hyde County","state_id":1445,"state_code":"SD","state_name":"South Dakota","country_id":233,"country_code":"US","country_name":"United States","latitude":"44.54736000","longitude":"-99.48711000","wikiDataId":"Q495672"},{"id":118983,"Name":"Ipswich","state_id":1445,"state_code":"SD","state_name":"South Dakota","country_id":233,"country_code":"US","country_name":"United States","latitude":"45.44442000","longitude":"-99.02928000","wikiDataId":"Q2676656"},{"id":119096,"Name":"Jackson County","state_id":1445,"state_code":"SD","state_name":"South Dakota","country_id":233,"country_code":"US","country_name":"United States","latitude":"43.69421000","longitude":"-101.62813000","wikiDataId":"Q495620"},{"id":119223,"Name":"Jerauld County","state_id":1445,"state_code":"SD","state_name":"South Dakota","country_id":233,"country_code":"US","country_name":"United States","latitude":"44.06635000","longitude":"-98.62973000","wikiDataId":"Q495608"},{"id":119297,"Name":"Jones County","state_id":1445,"state_code":"SD","state_name":"South Dakota","country_id":233,"country_code":"US","country_name":"United States","latitude":"43.96061000","longitude":"-100.68972000","wikiDataId":"Q926589"},{"id":119350,"Name":"Kadoka","state_id":1445,"state_code":"SD","state_name":"South Dakota","country_id":233,"country_code":"US","country_name":"United States","latitude":"43.83388000","longitude":"-101.50987000","wikiDataId":"Q2725763"},{"id":119464,"Name":"Kennebec","state_id":1445,"state_code":"SD","state_name":"South Dakota","country_id":233,"country_code":"US","country_name":"United States","latitude":"43.90360000","longitude":"-99.86178000","wikiDataId":"Q2408990"},{"id":119611,"Name":"Kingsbury County","state_id":1445,"state_code":"SD","state_name":"South Dakota","country_id":233,"country_code":"US","country_name":"United States","latitude":"44.36959000","longitude":"-97.49148000","wikiDataId":"Q495289"},{"id":119863,"Name":"Lake Andes","state_id":1445,"state_code":"SD","state_name":"South Dakota","country_id":233,"country_code":"US","country_name":"United States","latitude":"43.15638000","longitude":"-98.54147000","wikiDataId":"Q2411086"},{"id":119895,"Name":"Lake County","state_id":1445,"state_code":"SD","state_name":"South Dakota","country_id":233,"country_code":"US","country_name":"United States","latitude":"44.02204000","longitude":"-97.12938000","wikiDataId":"Q495246"},{"id":120238,"Name":"Lawrence County","state_id":1445,"state_code":"SD","state_name":"South Dakota","country_id":233,"country_code":"US","country_name":"United States","latitude":"44.35863000","longitude":"-103.79222000","wikiDataId":"Q489099"},{"id":120270,"Name":"Lead","state_id":1445,"state_code":"SD","state_name":"South Dakota","country_id":233,"country_code":"US","country_name":"United States","latitude":"44.35221000","longitude":"-103.76520000","wikiDataId":"Q584982"},{"id":120357,"Name":"Lemmon","state_id":1445,"state_code":"SD","state_name":"South Dakota","country_id":233,"country_code":"US","country_name":"United States","latitude":"45.94083000","longitude":"-102.15932000","wikiDataId":"Q3243577"},{"id":120370,"Name":"Lennox","state_id":1445,"state_code":"SD","state_name":"South Dakota","country_id":233,"country_code":"US","country_name":"United States","latitude":"43.35415000","longitude":"-96.89200000","wikiDataId":"Q3243599"},{"id":120381,"Name":"Leola","state_id":1445,"state_code":"SD","state_name":"South Dakota","country_id":233,"country_code":"US","country_name":"United States","latitude":"45.72275000","longitude":"-98.94094000","wikiDataId":"Q582933"},{"id":120528,"Name":"Lincoln County","state_id":1445,"state_code":"SD","state_name":"South Dakota","country_id":233,"country_code":"US","country_name":"United States","latitude":"43.27892000","longitude":"-96.72182000","wikiDataId":"Q495209"},{"id":120911,"Name":"Lyman County","state_id":1445,"state_code":"SD","state_name":"South Dakota","country_id":233,"country_code":"US","country_name":"United States","latitude":"43.89582000","longitude":"-99.84738000","wikiDataId":"Q495252"},{"id":121000,"Name":"Madison","state_id":1445,"state_code":"SD","state_name":"South Dakota","country_id":233,"country_code":"US","country_name":"United States","latitude":"44.00608000","longitude":"-97.11395000","wikiDataId":"Q1020419"},{"id":121321,"Name":"Marshall County","state_id":1445,"state_code":"SD","state_name":"South Dakota","country_id":233,"country_code":"US","country_name":"United States","latitude":"45.75867000","longitude":"-97.59850000","wikiDataId":"Q495198"},{"id":121336,"Name":"Martin","state_id":1445,"state_code":"SD","state_name":"South Dakota","country_id":233,"country_code":"US","country_name":"United States","latitude":"43.17250000","longitude":"-101.73265000","wikiDataId":"Q281028"},{"id":121480,"Name":"McCook County","state_id":1445,"state_code":"SD","state_name":"South Dakota","country_id":233,"country_code":"US","country_name":"United States","latitude":"43.67431000","longitude":"-97.36844000","wikiDataId":"Q495285"},{"id":121512,"Name":"McIntosh","state_id":1445,"state_code":"SD","state_name":"South Dakota","country_id":233,"country_code":"US","country_name":"United States","latitude":"45.92139000","longitude":"-101.34958000","wikiDataId":"Q2574896"},{"id":121547,"Name":"McPherson County","state_id":1445,"state_code":"SD","state_name":"South Dakota","country_id":233,"country_code":"US","country_name":"United States","latitude":"45.76637000","longitude":"-99.22146000","wikiDataId":"Q368006"},{"id":121558,"Name":"Meade County","state_id":1445,"state_code":"SD","state_name":"South Dakota","country_id":233,"country_code":"US","country_name":"United States","latitude":"44.56684000","longitude":"-102.71687000","wikiDataId":"Q495269"},{"id":121625,"Name":"Mellette County","state_id":1445,"state_code":"SD","state_name":"South Dakota","country_id":233,"country_code":"US","country_name":"United States","latitude":"43.58127000","longitude":"-100.75999000","wikiDataId":"Q495261"},{"id":121842,"Name":"Milbank","state_id":1445,"state_code":"SD","state_name":"South Dakota","country_id":233,"country_code":"US","country_name":"United States","latitude":"45.21913000","longitude":"-96.63562000","wikiDataId":"Q1815489"},{"id":121879,"Name":"Miller","state_id":1445,"state_code":"SD","state_name":"South Dakota","country_id":233,"country_code":"US","country_name":"United States","latitude":"44.51831000","longitude":"-98.98843000","wikiDataId":"Q2474066"},{"id":121933,"Name":"Miner County","state_id":1445,"state_code":"SD","state_name":"South Dakota","country_id":233,"country_code":"US","country_name":"United States","latitude":"44.02195000","longitude":"-97.61025000","wikiDataId":"Q338939"},{"id":121953,"Name":"Minnehaha County","state_id":1445,"state_code":"SD","state_name":"South Dakota","country_id":233,"country_code":"US","country_name":"United States","latitude":"43.67418000","longitude":"-96.79144000","wikiDataId":"Q489222"},{"id":121982,"Name":"Mission","state_id":1445,"state_code":"SD","state_name":"South Dakota","country_id":233,"country_code":"US","country_name":"United States","latitude":"43.30584000","longitude":"-100.65819000","wikiDataId":"Q2380665"},{"id":121997,"Name":"Mitchell","state_id":1445,"state_code":"SD","state_name":"South Dakota","country_id":233,"country_code":"US","country_name":"United States","latitude":"43.70943000","longitude":"-98.02980000","wikiDataId":"Q1988986"},{"id":122012,"Name":"Mobridge","state_id":1445,"state_code":"SD","state_name":"South Dakota","country_id":233,"country_code":"US","country_name":"United States","latitude":"45.53722000","longitude":"-100.42791000","wikiDataId":"Q2284683"},{"id":122197,"Name":"Moody County","state_id":1445,"state_code":"SD","state_name":"South Dakota","country_id":233,"country_code":"US","country_name":"United States","latitude":"44.02201000","longitude":"-96.67092000","wikiDataId":"Q495219"},{"id":122323,"Name":"Mound City","state_id":1445,"state_code":"SD","state_name":"South Dakota","country_id":233,"country_code":"US","country_name":"United States","latitude":"45.72527000","longitude":"-100.06845000","wikiDataId":"Q2189383"},{"id":122479,"Name":"Murdo","state_id":1445,"state_code":"SD","state_name":"South Dakota","country_id":233,"country_code":"US","country_name":"United States","latitude":"43.88832000","longitude":"-100.71291000","wikiDataId":"Q2725754"},{"id":123016,"Name":"North Eagle Butte","state_id":1445,"state_code":"SD","state_name":"South Dakota","country_id":233,"country_code":"US","country_name":"United States","latitude":"45.00415000","longitude":"-101.23376000","wikiDataId":"Q608418"},{"id":123106,"Name":"North Sioux City","state_id":1445,"state_code":"SD","state_name":"South Dakota","country_id":233,"country_code":"US","country_name":"United States","latitude":"42.52722000","longitude":"-96.48309000","wikiDataId":"Q3243570"},{"id":123109,"Name":"North Spearfish","state_id":1445,"state_code":"SD","state_name":"South Dakota","country_id":233,"country_code":"US","country_name":"United States","latitude":"44.50665000","longitude":"-103.89215000","wikiDataId":"Q2043204"},{"id":123374,"Name":"Oglala","state_id":1445,"state_code":"SD","state_name":"South Dakota","country_id":233,"country_code":"US","country_name":"United States","latitude":"43.18859000","longitude":"-102.73962000","wikiDataId":"Q1889041"},{"id":123375,"Name":"Oglala Lakota County","state_id":1445,"state_code":"SD","state_name":"South Dakota","country_id":233,"country_code":"US","country_name":"United States","latitude":"43.33559000","longitude":"-102.55162000","wikiDataId":"Q495201"},{"id":123448,"Name":"Olivet","state_id":1445,"state_code":"SD","state_name":"South Dakota","country_id":233,"country_code":"US","country_name":"United States","latitude":"43.24082000","longitude":"-97.67534000","wikiDataId":"Q2400868"},{"id":123480,"Name":"Onida","state_id":1445,"state_code":"SD","state_name":"South Dakota","country_id":233,"country_code":"US","country_name":"United States","latitude":"44.70804000","longitude":"-100.05984000","wikiDataId":"Q2451306"},{"id":123862,"Name":"Parker","state_id":1445,"state_code":"SD","state_name":"South Dakota","country_id":233,"country_code":"US","country_name":"United States","latitude":"43.39748000","longitude":"-97.13645000","wikiDataId":"Q2124451"},{"id":123876,"Name":"Parkston","state_id":1445,"state_code":"SD","state_name":"South Dakota","country_id":233,"country_code":"US","country_name":"United States","latitude":"43.39888000","longitude":"-97.98368000","wikiDataId":"Q2133424"},{"id":124031,"Name":"Pennington County","state_id":1445,"state_code":"SD","state_name":"South Dakota","country_id":233,"country_code":"US","country_name":"United States","latitude":"44.00373000","longitude":"-102.82383000","wikiDataId":"Q495257"},{"id":124064,"Name":"Perkins County","state_id":1445,"state_code":"SD","state_name":"South Dakota","country_id":233,"country_code":"US","country_name":"United States","latitude":"45.49051000","longitude":"-102.47563000","wikiDataId":"Q495195"},{"id":124129,"Name":"Philip","state_id":1445,"state_code":"SD","state_name":"South Dakota","country_id":233,"country_code":"US","country_name":"United States","latitude":"44.03943000","longitude":"-101.66514000","wikiDataId":"Q593141"},{"id":124178,"Name":"Pierre","state_id":1445,"state_code":"SD","state_name":"South Dakota","country_id":233,"country_code":"US","country_name":"United States","latitude":"44.36832000","longitude":"-100.35097000","wikiDataId":"Q40747"},{"id":124243,"Name":"Pine Ridge","state_id":1445,"state_code":"SD","state_name":"South Dakota","country_id":233,"country_code":"US","country_name":"United States","latitude":"43.02554000","longitude":"-102.55627000","wikiDataId":"Q2086753"},{"id":124341,"Name":"Plankinton","state_id":1445,"state_code":"SD","state_name":"South Dakota","country_id":233,"country_code":"US","country_name":"United States","latitude":"43.71555000","longitude":"-98.48509000","wikiDataId":"Q2515293"},{"id":124351,"Name":"Platte","state_id":1445,"state_code":"SD","state_name":"South Dakota","country_id":233,"country_code":"US","country_name":"United States","latitude":"43.38694000","longitude":"-98.84453000","wikiDataId":"Q1983451"},{"id":124490,"Name":"Porcupine","state_id":1445,"state_code":"SD","state_name":"South Dakota","country_id":233,"country_code":"US","country_name":"United States","latitude":"43.23971000","longitude":"-102.33099000","wikiDataId":"Q1787175"},{"id":124593,"Name":"Potter County","state_id":1445,"state_code":"SD","state_name":"South Dakota","country_id":233,"country_code":"US","country_name":"United States","latitude":"45.06450000","longitude":"-99.95725000","wikiDataId":"Q495191"},{"id":124894,"Name":"Rapid City","state_id":1445,"state_code":"SD","state_name":"South Dakota","country_id":233,"country_code":"US","country_name":"United States","latitude":"44.08054000","longitude":"-103.23101000","wikiDataId":"Q213325"},{"id":124895,"Name":"Rapid Valley","state_id":1445,"state_code":"SD","state_name":"South Dakota","country_id":233,"country_code":"US","country_name":"United States","latitude":"44.06249000","longitude":"-103.14629000","wikiDataId":"Q3460954"},{"id":124968,"Name":"Redfield","state_id":1445,"state_code":"SD","state_name":"South Dakota","country_id":233,"country_code":"US","country_name":"United States","latitude":"44.87581000","longitude":"-98.51871000","wikiDataId":"Q2374507"},{"id":125242,"Name":"Roberts County","state_id":1445,"state_code":"SD","state_name":"South Dakota","country_id":233,"country_code":"US","country_name":"United States","latitude":"45.62965000","longitude":"-96.94612000","wikiDataId":"Q495273"},{"id":125412,"Name":"Rosebud","state_id":1445,"state_code":"SD","state_name":"South Dakota","country_id":233,"country_code":"US","country_name":"United States","latitude":"43.23278000","longitude":"-100.85348000","wikiDataId":"Q2019376"},{"id":125737,"Name":"Salem","state_id":1445,"state_code":"SD","state_name":"South Dakota","country_id":233,"country_code":"US","country_name":"United States","latitude":"43.72415000","longitude":"-97.38895000","wikiDataId":"Q2189060"},{"id":125855,"Name":"Sanborn County","state_id":1445,"state_code":"SD","state_name":"South Dakota","country_id":233,"country_code":"US","country_name":"United States","latitude":"44.02345000","longitude":"-98.09139000","wikiDataId":"Q495229"},{"id":126130,"Name":"Selby","state_id":1445,"state_code":"SD","state_name":"South Dakota","country_id":233,"country_code":"US","country_name":"United States","latitude":"45.50638000","longitude":"-100.03207000","wikiDataId":"Q2725711"},{"id":126462,"Name":"Sioux Falls","state_id":1445,"state_code":"SD","state_name":"South Dakota","country_id":233,"country_code":"US","country_name":"United States","latitude":"43.54997000","longitude":"-96.70033000","wikiDataId":"Q131335"},{"id":126466,"Name":"Sisseton","state_id":1445,"state_code":"SD","state_name":"South Dakota","country_id":233,"country_code":"US","country_name":"United States","latitude":"45.66468000","longitude":"-97.04980000","wikiDataId":"Q1026188"},{"id":126816,"Name":"Spearfish","state_id":1445,"state_code":"SD","state_name":"South Dakota","country_id":233,"country_code":"US","country_name":"United States","latitude":"44.49082000","longitude":"-103.85937000","wikiDataId":"Q568764"},{"id":126836,"Name":"Spink County","state_id":1445,"state_code":"SD","state_name":"South Dakota","country_id":233,"country_code":"US","country_name":"United States","latitude":"44.93802000","longitude":"-98.34619000","wikiDataId":"Q495239"},{"id":126905,"Name":"Springfield","state_id":1445,"state_code":"SD","state_name":"South Dakota","country_id":233,"country_code":"US","country_name":"United States","latitude":"42.85417000","longitude":"-97.89729000","wikiDataId":"Q954194"},{"id":126962,"Name":"Stanley County","state_id":1445,"state_code":"SD","state_name":"South Dakota","country_id":233,"country_code":"US","country_name":"United States","latitude":"44.41232000","longitude":"-100.73594000","wikiDataId":"Q495280"},{"id":127152,"Name":"Sturgis","state_id":1445,"state_code":"SD","state_name":"South Dakota","country_id":233,"country_code":"US","country_name":"United States","latitude":"44.40971000","longitude":"-103.50908000","wikiDataId":"Q989280"},{"id":127193,"Name":"Sully County","state_id":1445,"state_code":"SD","state_name":"South Dakota","country_id":233,"country_code":"US","country_name":"United States","latitude":"44.71558000","longitude":"-100.13220000","wikiDataId":"Q495264"},{"id":127207,"Name":"Summerset","state_id":1445,"state_code":"SD","state_name":"South Dakota","country_id":233,"country_code":"US","country_name":"United States","latitude":"44.18998000","longitude":"-103.34384000","wikiDataId":"Q3345855"},{"id":127473,"Name":"Tea","state_id":1445,"state_code":"SD","state_name":"South Dakota","country_id":233,"country_code":"US","country_name":"United States","latitude":"43.44637000","longitude":"-96.83588000","wikiDataId":"Q3243556"},{"id":127656,"Name":"Timber Lake","state_id":1445,"state_code":"SD","state_name":"South Dakota","country_id":233,"country_code":"US","country_name":"United States","latitude":"45.42915000","longitude":"-101.07403000","wikiDataId":"Q2577083"},{"id":127694,"Name":"Todd County","state_id":1445,"state_code":"SD","state_name":"South Dakota","country_id":233,"country_code":"US","country_name":"United States","latitude":"43.19337000","longitude":"-100.71841000","wikiDataId":"Q502081"},{"id":127832,"Name":"Tripp County","state_id":1445,"state_code":"SD","state_name":"South Dakota","country_id":233,"country_code":"US","country_name":"United States","latitude":"43.34587000","longitude":"-99.88400000","wikiDataId":"Q426360"},{"id":127904,"Name":"Turner County","state_id":1445,"state_code":"SD","state_name":"South Dakota","country_id":233,"country_code":"US","country_name":"United States","latitude":"43.31087000","longitude":"-97.14866000","wikiDataId":"Q495275"},{"id":127945,"Name":"Tyndall","state_id":1445,"state_code":"SD","state_name":"South Dakota","country_id":233,"country_code":"US","country_name":"United States","latitude":"42.99333000","longitude":"-97.86285000","wikiDataId":"Q2537865"},{"id":128001,"Name":"Union County","state_id":1445,"state_code":"SD","state_name":"South Dakota","country_id":233,"country_code":"US","country_name":"United States","latitude":"42.83249000","longitude":"-96.65609000","wikiDataId":"Q495216"},{"id":128185,"Name":"Vermillion","state_id":1445,"state_code":"SD","state_name":"South Dakota","country_id":233,"country_code":"US","country_name":"United States","latitude":"42.77944000","longitude":"-96.92921000","wikiDataId":"Q989284"},{"id":128300,"Name":"Volga","state_id":1445,"state_code":"SD","state_name":"South Dakota","country_id":233,"country_code":"US","country_name":"United States","latitude":"44.32358000","longitude":"-96.92645000","wikiDataId":"Q615655"},{"id":128328,"Name":"Wagner","state_id":1445,"state_code":"SD","state_name":"South Dakota","country_id":233,"country_code":"US","country_name":"United States","latitude":"43.07972000","longitude":"-98.29313000","wikiDataId":"Q2326992"},{"id":128441,"Name":"Walworth County","state_id":1445,"state_code":"SD","state_name":"South Dakota","country_id":233,"country_code":"US","country_name":"United States","latitude":"45.42995000","longitude":"-100.03156000","wikiDataId":"Q494764"},{"id":128625,"Name":"Watertown","state_id":1445,"state_code":"SD","state_name":"South Dakota","country_id":233,"country_code":"US","country_name":"United States","latitude":"44.89941000","longitude":"-97.11507000","wikiDataId":"Q1065503"},{"id":128734,"Name":"Webster","state_id":1445,"state_code":"SD","state_name":"South Dakota","country_id":233,"country_code":"US","country_name":"United States","latitude":"45.33218000","longitude":"-97.52009000","wikiDataId":"Q3710240"},{"id":128813,"Name":"Wessington Springs","state_id":1445,"state_code":"SD","state_name":"South Dakota","country_id":233,"country_code":"US","country_name":"United States","latitude":"44.07916000","longitude":"-98.56954000","wikiDataId":"Q920776"},{"id":129156,"Name":"White River","state_id":1445,"state_code":"SD","state_name":"South Dakota","country_id":233,"country_code":"US","country_name":"United States","latitude":"43.56805000","longitude":"-100.74542000","wikiDataId":"Q2269699"},{"id":129412,"Name":"Winner","state_id":1445,"state_code":"SD","state_name":"South Dakota","country_id":233,"country_code":"US","country_name":"United States","latitude":"43.37667000","longitude":"-99.85901000","wikiDataId":"Q930440"},{"id":129583,"Name":"Woonsocket","state_id":1445,"state_code":"SD","state_name":"South Dakota","country_id":233,"country_code":"US","country_name":"United States","latitude":"44.05360000","longitude":"-98.27564000","wikiDataId":"Q2725794"},{"id":129661,"Name":"Yankton","state_id":1445,"state_code":"SD","state_name":"South Dakota","country_id":233,"country_code":"US","country_name":"United States","latitude":"42.87111000","longitude":"-97.39728000","wikiDataId":"Q989288"},{"id":129662,"Name":"Yankton County","state_id":1445,"state_code":"SD","state_name":"South Dakota","country_id":233,"country_code":"US","country_name":"United States","latitude":"43.00897000","longitude":"-97.39475000","wikiDataId":"Q493450"},{"id":129753,"Name":"Ziebach County","state_id":1445,"state_code":"SD","state_name":"South Dakota","country_id":233,"country_code":"US","country_name":"United States","latitude":"44.98041000","longitude":"-101.66586000","wikiDataId":"Q198529"}]