[{"id":23476,"Name":"Achtrup","state_id":3005,"state_code":"SH","state_name":"Schleswig-Holstein","country_id":82,"country_code":"DE","country_name":"Germany","latitude":"54.79053000","longitude":"9.02848000","wikiDataId":"Q341040"},{"id":23514,"Name":"Ahrensbök","state_id":3005,"state_code":"SH","state_name":"Schleswig-Holstein","country_id":82,"country_code":"DE","country_name":"Germany","latitude":"54.00862000","longitude":"10.57434000","wikiDataId":"Q402773"},{"id":23513,"Name":"Ahrensburg","state_id":3005,"state_code":"SH","state_name":"Schleswig-Holstein","country_id":82,"country_code":"DE","country_name":"Germany","latitude":"53.67515000","longitude":"10.22593000","wikiDataId":"Q16104"},{"id":23533,"Name":"Albersdorf","state_id":3005,"state_code":"SH","state_name":"Schleswig-Holstein","country_id":82,"country_code":"DE","country_name":"Germany","latitude":"54.15000000","longitude":"9.28333000","wikiDataId":"Q522404"},{"id":23575,"Name":"Alt Duvenstedt","state_id":3005,"state_code":"SH","state_name":"Schleswig-Holstein","country_id":82,"country_code":"DE","country_name":"Germany","latitude":"54.36667000","longitude":"9.65000000","wikiDataId":"Q433130"},{"id":23603,"Name":"Altenholz","state_id":3005,"state_code":"SH","state_name":"Schleswig-Holstein","country_id":82,"country_code":"DE","country_name":"Germany","latitude":"54.40000000","longitude":"10.13333000","wikiDataId":"Q437140"},{"id":23606,"Name":"Altenkrempe","state_id":3005,"state_code":"SH","state_name":"Schleswig-Holstein","country_id":82,"country_code":"DE","country_name":"Germany","latitude":"54.13333000","longitude":"10.83333000","wikiDataId":"Q488373"},{"id":23640,"Name":"Alveslohe","state_id":3005,"state_code":"SH","state_name":"Schleswig-Holstein","country_id":82,"country_code":"DE","country_name":"Germany","latitude":"53.78333000","longitude":"9.91667000","wikiDataId":"Q448894"},{"id":23677,"Name":"Appen","state_id":3005,"state_code":"SH","state_name":"Schleswig-Holstein","country_id":82,"country_code":"DE","country_name":"Germany","latitude":"53.65813000","longitude":"9.74582000","wikiDataId":"Q574225"},{"id":23706,"Name":"Ascheberg","state_id":3005,"state_code":"SH","state_name":"Schleswig-Holstein","country_id":82,"country_code":"DE","country_name":"Germany","latitude":"54.15027000","longitude":"10.34552000","wikiDataId":"Q682175"},{"id":23736,"Name":"Aukrug","state_id":3005,"state_code":"SH","state_name":"Schleswig-Holstein","country_id":82,"country_code":"DE","country_name":"Germany","latitude":"54.08333000","longitude":"9.78333000","wikiDataId":"Q638295"},{"id":23776,"Name":"Bad Bramstedt","state_id":3005,"state_code":"SH","state_name":"Schleswig-Holstein","country_id":82,"country_code":"DE","country_name":"Germany","latitude":"53.91830000","longitude":"9.88424000","wikiDataId":"Q523987"},{"id":23845,"Name":"Bad Oldesloe","state_id":3005,"state_code":"SH","state_name":"Schleswig-Holstein","country_id":82,"country_code":"DE","country_name":"Germany","latitude":"53.81167000","longitude":"10.37417000","wikiDataId":"Q155226"},{"id":23865,"Name":"Bad Schwartau","state_id":3005,"state_code":"SH","state_name":"Schleswig-Holstein","country_id":82,"country_code":"DE","country_name":"Germany","latitude":"53.91887000","longitude":"10.69691000","wikiDataId":"Q516432"},{"id":23866,"Name":"Bad Segeberg","state_id":3005,"state_code":"SH","state_name":"Schleswig-Holstein","country_id":82,"country_code":"DE","country_name":"Germany","latitude":"53.94313000","longitude":"10.30215000","wikiDataId":"Q496050"},{"id":23930,"Name":"Bargfeld-Stegen","state_id":3005,"state_code":"SH","state_name":"Schleswig-Holstein","country_id":82,"country_code":"DE","country_name":"Germany","latitude":"53.76778000","longitude":"10.18750000","wikiDataId":"Q565481"},{"id":23932,"Name":"Bargteheide","state_id":3005,"state_code":"SH","state_name":"Schleswig-Holstein","country_id":82,"country_code":"DE","country_name":"Germany","latitude":"53.72856000","longitude":"10.26695000","wikiDataId":"Q149921"},{"id":23933,"Name":"Bark","state_id":3005,"state_code":"SH","state_name":"Schleswig-Holstein","country_id":82,"country_code":"DE","country_name":"Germany","latitude":"53.91146000","longitude":"10.17949000","wikiDataId":"Q149921"},{"id":23934,"Name":"Barkelsby","state_id":3005,"state_code":"SH","state_name":"Schleswig-Holstein","country_id":82,"country_code":"DE","country_name":"Germany","latitude":"54.50000000","longitude":"9.83333000","wikiDataId":"Q149921"},{"id":23937,"Name":"Barmstedt","state_id":3005,"state_code":"SH","state_name":"Schleswig-Holstein","country_id":82,"country_code":"DE","country_name":"Germany","latitude":"53.79209000","longitude":"9.76739000","wikiDataId":"Q516930"},{"id":23941,"Name":"Barsbüttel","state_id":3005,"state_code":"SH","state_name":"Schleswig-Holstein","country_id":82,"country_code":"DE","country_name":"Germany","latitude":"53.56667000","longitude":"10.16667000","wikiDataId":"Q629424"},{"id":24051,"Name":"Berkenthin","state_id":3005,"state_code":"SH","state_name":"Schleswig-Holstein","country_id":82,"country_code":"DE","country_name":"Germany","latitude":"53.73333000","longitude":"10.65000000","wikiDataId":"Q641603"},{"id":24178,"Name":"Blekendorf","state_id":3005,"state_code":"SH","state_name":"Schleswig-Holstein","country_id":82,"country_code":"DE","country_name":"Germany","latitude":"54.28211000","longitude":"10.65820000","wikiDataId":"Q517311"},{"id":24220,"Name":"Bokholt-Hanredder","state_id":3005,"state_code":"SH","state_name":"Schleswig-Holstein","country_id":82,"country_code":"DE","country_name":"Germany","latitude":"53.78808000","longitude":"9.73586000","wikiDataId":"Q31917321"},{"id":24225,"Name":"Bollingstedt","state_id":3005,"state_code":"SH","state_name":"Schleswig-Holstein","country_id":82,"country_code":"DE","country_name":"Germany","latitude":"54.59229000","longitude":"9.41738000","wikiDataId":"Q557182"},{"id":24468,"Name":"Bönebüttel","state_id":3005,"state_code":"SH","state_name":"Schleswig-Holstein","country_id":82,"country_code":"DE","country_name":"Germany","latitude":"54.08333000","longitude":"10.06667000","wikiDataId":"Q22972"},{"id":24471,"Name":"Bönningstedt","state_id":3005,"state_code":"SH","state_name":"Schleswig-Holstein","country_id":82,"country_code":"DE","country_name":"Germany","latitude":"53.66667000","longitude":"9.91667000","wikiDataId":"Q574242"},{"id":24235,"Name":"Boostedt","state_id":3005,"state_code":"SH","state_name":"Schleswig-Holstein","country_id":82,"country_code":"DE","country_name":"Germany","latitude":"54.01667000","longitude":"10.03333000","wikiDataId":"Q554107"},{"id":24238,"Name":"Bordelum","state_id":3005,"state_code":"SH","state_name":"Schleswig-Holstein","country_id":82,"country_code":"DE","country_name":"Germany","latitude":"54.63333000","longitude":"8.93333000","wikiDataId":"Q573015"},{"id":24239,"Name":"Bordesholm","state_id":3005,"state_code":"SH","state_name":"Schleswig-Holstein","country_id":82,"country_code":"DE","country_name":"Germany","latitude":"54.17611000","longitude":"10.03146000","wikiDataId":"Q570362"},{"id":24243,"Name":"Borgstedt","state_id":3005,"state_code":"SH","state_name":"Schleswig-Holstein","country_id":82,"country_code":"DE","country_name":"Germany","latitude":"54.33268000","longitude":"9.70954000","wikiDataId":"Q225794"},{"id":24254,"Name":"Bornhöved","state_id":3005,"state_code":"SH","state_name":"Schleswig-Holstein","country_id":82,"country_code":"DE","country_name":"Germany","latitude":"54.06667000","longitude":"10.23333000","wikiDataId":"Q520795"},{"id":24475,"Name":"Börnsen","state_id":3005,"state_code":"SH","state_name":"Schleswig-Holstein","country_id":82,"country_code":"DE","country_name":"Germany","latitude":"53.47620000","longitude":"10.28160000","wikiDataId":"Q565397"},{"id":24259,"Name":"Borstel-Hohenraden","state_id":3005,"state_code":"SH","state_name":"Schleswig-Holstein","country_id":82,"country_code":"DE","country_name":"Germany","latitude":"53.68333000","longitude":"9.81667000","wikiDataId":"Q574233"},{"id":24261,"Name":"Bosau","state_id":3005,"state_code":"SH","state_name":"Schleswig-Holstein","country_id":82,"country_code":"DE","country_name":"Germany","latitude":"54.09787000","longitude":"10.43570000","wikiDataId":"Q554043"},{"id":24478,"Name":"Bösdorf","state_id":3005,"state_code":"SH","state_name":"Schleswig-Holstein","country_id":82,"country_code":"DE","country_name":"Germany","latitude":"54.15000000","longitude":"10.48333000","wikiDataId":"Q658765"},{"id":24265,"Name":"Bovenau","state_id":3005,"state_code":"SH","state_name":"Schleswig-Holstein","country_id":82,"country_code":"DE","country_name":"Germany","latitude":"54.33333000","longitude":"9.83333000","wikiDataId":"Q641638"},{"id":24279,"Name":"Brande-Hörnerkirchen","state_id":3005,"state_code":"SH","state_name":"Schleswig-Holstein","country_id":82,"country_code":"DE","country_name":"Germany","latitude":"53.85000000","longitude":"9.71667000","wikiDataId":"Q71159"},{"id":24295,"Name":"Bredenbek","state_id":3005,"state_code":"SH","state_name":"Schleswig-Holstein","country_id":82,"country_code":"DE","country_name":"Germany","latitude":"54.32247000","longitude":"9.87293000","wikiDataId":"Q641700"},{"id":24296,"Name":"Bredstedt","state_id":3005,"state_code":"SH","state_name":"Schleswig-Holstein","country_id":82,"country_code":"DE","country_name":"Germany","latitude":"54.61868000","longitude":"8.96441000","wikiDataId":"Q20753"},{"id":24301,"Name":"Breiholz","state_id":3005,"state_code":"SH","state_name":"Schleswig-Holstein","country_id":82,"country_code":"DE","country_name":"Germany","latitude":"54.20554000","longitude":"9.52371000","wikiDataId":"Q564579"},{"id":24309,"Name":"Breitenburg","state_id":3005,"state_code":"SH","state_name":"Schleswig-Holstein","country_id":82,"country_code":"DE","country_name":"Germany","latitude":"53.90572000","longitude":"9.57041000","wikiDataId":"Q635210"},{"id":24310,"Name":"Breitenfelde","state_id":3005,"state_code":"SH","state_name":"Schleswig-Holstein","country_id":82,"country_code":"DE","country_name":"Germany","latitude":"53.60592000","longitude":"10.63339000","wikiDataId":"Q632515"},{"id":24318,"Name":"Brekendorf","state_id":3005,"state_code":"SH","state_name":"Schleswig-Holstein","country_id":82,"country_code":"DE","country_name":"Germany","latitude":"54.42120000","longitude":"9.63350000","wikiDataId":"Q312658"},{"id":24319,"Name":"Breklum","state_id":3005,"state_code":"SH","state_name":"Schleswig-Holstein","country_id":82,"country_code":"DE","country_name":"Germany","latitude":"54.60000000","longitude":"8.98333000","wikiDataId":"Q559468"},{"id":24343,"Name":"Brokdorf","state_id":3005,"state_code":"SH","state_name":"Schleswig-Holstein","country_id":82,"country_code":"DE","country_name":"Germany","latitude":"53.86380000","longitude":"9.32314000","wikiDataId":"Q384719"},{"id":24344,"Name":"Brokstedt","state_id":3005,"state_code":"SH","state_name":"Schleswig-Holstein","country_id":82,"country_code":"DE","country_name":"Germany","latitude":"53.98333000","longitude":"9.81667000","wikiDataId":"Q384719"},{"id":24368,"Name":"Brügge","state_id":3005,"state_code":"SH","state_name":"Schleswig-Holstein","country_id":82,"country_code":"DE","country_name":"Germany","latitude":"54.17578000","longitude":"10.06913000","wikiDataId":"Q559019"},{"id":24362,"Name":"Brunsbüttel","state_id":3005,"state_code":"SH","state_name":"Schleswig-Holstein","country_id":82,"country_code":"DE","country_name":"Germany","latitude":"53.89504000","longitude":"9.10484000","wikiDataId":"Q516635"},{"id":24486,"Name":"Büchen","state_id":3005,"state_code":"SH","state_name":"Schleswig-Holstein","country_id":82,"country_code":"DE","country_name":"Germany","latitude":"53.48008000","longitude":"10.61760000","wikiDataId":"Q631683"},{"id":24391,"Name":"Buchholz","state_id":3005,"state_code":"SH","state_name":"Schleswig-Holstein","country_id":82,"country_code":"DE","country_name":"Germany","latitude":"53.98829000","longitude":"9.22362000","wikiDataId":"Q1795734"},{"id":24493,"Name":"Büdelsdorf","state_id":3005,"state_code":"SH","state_name":"Schleswig-Holstein","country_id":82,"country_code":"DE","country_name":"Germany","latitude":"54.31844000","longitude":"9.67295000","wikiDataId":"Q571940"},{"id":24407,"Name":"Burg","state_id":3005,"state_code":"SH","state_name":"Schleswig-Holstein","country_id":82,"country_code":"DE","country_name":"Germany","latitude":"53.99708000","longitude":"9.25891000","wikiDataId":"Q31925603"},{"id":24409,"Name":"Burg auf Fehmarn","state_id":3005,"state_code":"SH","state_name":"Schleswig-Holstein","country_id":82,"country_code":"DE","country_name":"Germany","latitude":"54.43333000","longitude":"11.20000000","wikiDataId":"Q896928"},{"id":24447,"Name":"Busdorf","state_id":3005,"state_code":"SH","state_name":"Schleswig-Holstein","country_id":82,"country_code":"DE","country_name":"Germany","latitude":"54.10345000","longitude":"10.08242000","wikiDataId":"Q31926098"},{"id":24506,"Name":"Büsum","state_id":3005,"state_code":"SH","state_name":"Schleswig-Holstein","country_id":82,"country_code":"DE","country_name":"Germany","latitude":"54.13398000","longitude":"8.85756000","wikiDataId":"Q20768"},{"id":24790,"Name":"Dägeling","state_id":3005,"state_code":"SH","state_name":"Schleswig-Holstein","country_id":82,"country_code":"DE","country_name":"Germany","latitude":"53.88333000","longitude":"9.53333000","wikiDataId":"Q507755"},{"id":24582,"Name":"Dahme","state_id":3005,"state_code":"SH","state_name":"Schleswig-Holstein","country_id":82,"country_code":"DE","country_name":"Germany","latitude":"54.21667000","longitude":"11.08333000","wikiDataId":"Q637728"},{"id":24589,"Name":"Damp","state_id":3005,"state_code":"SH","state_name":"Schleswig-Holstein","country_id":82,"country_code":"DE","country_name":"Germany","latitude":"54.58469000","longitude":"10.01785000","wikiDataId":"Q662717"},{"id":24791,"Name":"Dänischenhagen","state_id":3005,"state_code":"SH","state_name":"Schleswig-Holstein","country_id":82,"country_code":"DE","country_name":"Germany","latitude":"54.42775000","longitude":"10.12596000","wikiDataId":"Q651026"},{"id":24593,"Name":"Dannewerk","state_id":3005,"state_code":"SH","state_name":"Schleswig-Holstein","country_id":82,"country_code":"DE","country_name":"Germany","latitude":"54.48333000","longitude":"9.50000000","wikiDataId":"Q495745"},{"id":24600,"Name":"Dassendorf","state_id":3005,"state_code":"SH","state_name":"Schleswig-Holstein","country_id":82,"country_code":"DE","country_name":"Germany","latitude":"53.49532000","longitude":"10.35987000","wikiDataId":"Q486556"},{"id":24622,"Name":"Delingsdorf","state_id":3005,"state_code":"SH","state_name":"Schleswig-Holstein","country_id":82,"country_code":"DE","country_name":"Germany","latitude":"53.70000000","longitude":"10.25000000","wikiDataId":"Q570831"},{"id":24715,"Name":"Dobersdorf","state_id":3005,"state_code":"SH","state_name":"Schleswig-Holstein","country_id":82,"country_code":"DE","country_name":"Germany","latitude":"54.31893000","longitude":"10.28011000","wikiDataId":"Q636598"},{"id":24723,"Name":"Dollerup","state_id":3005,"state_code":"SH","state_name":"Schleswig-Holstein","country_id":82,"country_code":"DE","country_name":"Germany","latitude":"54.77798000","longitude":"9.67981000","wikiDataId":"Q556921"},{"id":24765,"Name":"Drelsdorf","state_id":3005,"state_code":"SH","state_name":"Schleswig-Holstein","country_id":82,"country_code":"DE","country_name":"Germany","latitude":"54.60548000","longitude":"9.04449000","wikiDataId":"Q559390"},{"id":24849,"Name":"Eckernförde","state_id":3005,"state_code":"SH","state_name":"Schleswig-Holstein","country_id":82,"country_code":"DE","country_name":"Germany","latitude":"54.46854000","longitude":"9.83824000","wikiDataId":"Q490453"},{"id":24851,"Name":"Eddelak","state_id":3005,"state_code":"SH","state_name":"Schleswig-Holstein","country_id":82,"country_code":"DE","country_name":"Germany","latitude":"53.95000000","longitude":"9.15000000","wikiDataId":"Q551677"},{"id":24871,"Name":"Eggebek","state_id":3005,"state_code":"SH","state_name":"Schleswig-Holstein","country_id":82,"country_code":"DE","country_name":"Germany","latitude":"54.61667000","longitude":"9.36667000","wikiDataId":"Q557146"},{"id":24948,"Name":"Ellerau","state_id":3005,"state_code":"SH","state_name":"Schleswig-Holstein","country_id":82,"country_code":"DE","country_name":"Germany","latitude":"53.75000000","longitude":"9.91667000","wikiDataId":"Q554129"},{"id":24949,"Name":"Ellerbek","state_id":3005,"state_code":"SH","state_name":"Schleswig-Holstein","country_id":82,"country_code":"DE","country_name":"Germany","latitude":"53.65817000","longitude":"9.86991000","wikiDataId":"Q554129"},{"id":24950,"Name":"Ellerhoop","state_id":3005,"state_code":"SH","state_name":"Schleswig-Holstein","country_id":82,"country_code":"DE","country_name":"Germany","latitude":"53.72603000","longitude":"9.76933000","wikiDataId":"Q554129"},{"id":24958,"Name":"Elmenhorst","state_id":3005,"state_code":"SH","state_name":"Schleswig-Holstein","country_id":82,"country_code":"DE","country_name":"Germany","latitude":"53.76667000","longitude":"10.26667000","wikiDataId":"Q662651"},{"id":24960,"Name":"Elmshorn","state_id":3005,"state_code":"SH","state_name":"Schleswig-Holstein","country_id":82,"country_code":"DE","country_name":"Germany","latitude":"53.75396000","longitude":"9.65339000","wikiDataId":"Q6845"},{"id":24964,"Name":"Elsdorf-Westermühlen","state_id":3005,"state_code":"SH","state_name":"Schleswig-Holstein","country_id":82,"country_code":"DE","country_name":"Germany","latitude":"54.26667000","longitude":"9.51667000","wikiDataId":"Q49282863"},{"id":24984,"Name":"Emkendorf","state_id":3005,"state_code":"SH","state_name":"Schleswig-Holstein","country_id":82,"country_code":"DE","country_name":"Germany","latitude":"54.26667000","longitude":"9.85000000","wikiDataId":"Q560893"},{"id":24986,"Name":"Emmelsbüll-Horsbüll","state_id":3005,"state_code":"SH","state_name":"Schleswig-Holstein","country_id":82,"country_code":"DE","country_name":"Germany","latitude":"54.81667000","longitude":"8.70000000","wikiDataId":"Q514150"},{"id":25036,"Name":"Erfde","state_id":3005,"state_code":"SH","state_name":"Schleswig-Holstein","country_id":82,"country_code":"DE","country_name":"Germany","latitude":"54.30000000","longitude":"9.31667000","wikiDataId":"Q118540"},{"id":25077,"Name":"Escheburg","state_id":3005,"state_code":"SH","state_name":"Schleswig-Holstein","country_id":82,"country_code":"DE","country_name":"Germany","latitude":"53.46667000","longitude":"10.31667000","wikiDataId":"Q555756"},{"id":25117,"Name":"Eutin","state_id":3005,"state_code":"SH","state_name":"Schleswig-Holstein","country_id":82,"country_code":"DE","country_name":"Germany","latitude":"54.14054000","longitude":"10.60751000","wikiDataId":"Q490445"},{"id":25126,"Name":"Fahrdorf","state_id":3005,"state_code":"SH","state_name":"Schleswig-Holstein","country_id":82,"country_code":"DE","country_name":"Germany","latitude":"54.50000000","longitude":"9.60000000","wikiDataId":"Q117919"},{"id":25128,"Name":"Fahrenkrug","state_id":3005,"state_code":"SH","state_name":"Schleswig-Holstein","country_id":82,"country_code":"DE","country_name":"Germany","latitude":"53.95000000","longitude":"10.25000000","wikiDataId":"Q534257"},{"id":25148,"Name":"Fehmarn","state_id":3005,"state_code":"SH","state_name":"Schleswig-Holstein","country_id":82,"country_code":"DE","country_name":"Germany","latitude":"54.43780000","longitude":"11.19352000","wikiDataId":"Q3172"},{"id":25154,"Name":"Felde","state_id":3005,"state_code":"SH","state_name":"Schleswig-Holstein","country_id":82,"country_code":"DE","country_name":"Germany","latitude":"54.30000000","longitude":"9.93333000","wikiDataId":"Q631676"},{"id":25161,"Name":"Felm","state_id":3005,"state_code":"SH","state_name":"Schleswig-Holstein","country_id":82,"country_code":"DE","country_name":"Germany","latitude":"54.41667000","longitude":"10.05000000","wikiDataId":"Q545144"},{"id":25187,"Name":"Fleckeby","state_id":3005,"state_code":"SH","state_name":"Schleswig-Holstein","country_id":82,"country_code":"DE","country_name":"Germany","latitude":"54.48333000","longitude":"9.70000000","wikiDataId":"Q568197"},{"id":25189,"Name":"Flensburg","state_id":3005,"state_code":"SH","state_name":"Schleswig-Holstein","country_id":82,"country_code":"DE","country_name":"Germany","latitude":"54.78431000","longitude":"9.43961000","wikiDataId":"Q3798"},{"id":25192,"Name":"Flintbek","state_id":3005,"state_code":"SH","state_name":"Schleswig-Holstein","country_id":82,"country_code":"DE","country_name":"Germany","latitude":"54.25000000","longitude":"10.06667000","wikiDataId":"Q570392"},{"id":25202,"Name":"Fockbek","state_id":3005,"state_code":"SH","state_name":"Schleswig-Holstein","country_id":82,"country_code":"DE","country_name":"Germany","latitude":"54.30000000","longitude":"9.60000000","wikiDataId":"Q622593"},{"id":25245,"Name":"Freienwill","state_id":3005,"state_code":"SH","state_name":"Schleswig-Holstein","country_id":82,"country_code":"DE","country_name":"Germany","latitude":"54.72752000","longitude":"9.49414000","wikiDataId":"Q545804"},{"id":25291,"Name":"Friedrichskoog","state_id":3005,"state_code":"SH","state_name":"Schleswig-Holstein","country_id":82,"country_code":"DE","country_name":"Germany","latitude":"54.01667000","longitude":"8.91667000","wikiDataId":"Q538124"},{"id":25293,"Name":"Friedrichstadt","state_id":3005,"state_code":"SH","state_name":"Schleswig-Holstein","country_id":82,"country_code":"DE","country_name":"Germany","latitude":"54.37566000","longitude":"9.08672000","wikiDataId":"Q21065"},{"id":25365,"Name":"Garding","state_id":3005,"state_code":"SH","state_name":"Schleswig-Holstein","country_id":82,"country_code":"DE","country_name":"Germany","latitude":"54.33056000","longitude":"8.78056000","wikiDataId":"Q27324"},{"id":25390,"Name":"Geesthacht","state_id":3005,"state_code":"SH","state_name":"Schleswig-Holstein","country_id":82,"country_code":"DE","country_name":"Germany","latitude":"53.43575000","longitude":"10.37790000","wikiDataId":"Q494790"},{"id":25418,"Name":"Gelting","state_id":3005,"state_code":"SH","state_name":"Schleswig-Holstein","country_id":82,"country_code":"DE","country_name":"Germany","latitude":"54.75000000","longitude":"9.90000000","wikiDataId":"Q548337"},{"id":25476,"Name":"Gettorf","state_id":3005,"state_code":"SH","state_name":"Schleswig-Holstein","country_id":82,"country_code":"DE","country_name":"Germany","latitude":"54.40000000","longitude":"9.98333000","wikiDataId":"Q630251"},{"id":25482,"Name":"Giekau","state_id":3005,"state_code":"SH","state_name":"Schleswig-Holstein","country_id":82,"country_code":"DE","country_name":"Germany","latitude":"54.31667000","longitude":"10.51667000","wikiDataId":"Q566701"},{"id":25513,"Name":"Glinde","state_id":3005,"state_code":"SH","state_name":"Schleswig-Holstein","country_id":82,"country_code":"DE","country_name":"Germany","latitude":"53.54410000","longitude":"10.20048000","wikiDataId":"Q32034335"},{"id":25519,"Name":"Glücksburg","state_id":3005,"state_code":"SH","state_name":"Schleswig-Holstein","country_id":82,"country_code":"DE","country_name":"Germany","latitude":"54.83522000","longitude":"9.54853000","wikiDataId":"Q494617"},{"id":25520,"Name":"Glückstadt","state_id":3005,"state_code":"SH","state_name":"Schleswig-Holstein","country_id":82,"country_code":"DE","country_name":"Germany","latitude":"53.78893000","longitude":"9.42576000","wikiDataId":"Q377277"},{"id":25524,"Name":"Gnutz","state_id":3005,"state_code":"SH","state_name":"Schleswig-Holstein","country_id":82,"country_code":"DE","country_name":"Germany","latitude":"54.13333000","longitude":"9.81667000","wikiDataId":"Q536734"},{"id":25527,"Name":"Goel","state_id":3005,"state_code":"SH","state_name":"Schleswig-Holstein","country_id":82,"country_code":"DE","country_name":"Germany","latitude":"54.28350000","longitude":"10.94036000","wikiDataId":"Q585507"},{"id":25586,"Name":"Grebin","state_id":3005,"state_code":"SH","state_name":"Schleswig-Holstein","country_id":82,"country_code":"DE","country_name":"Germany","latitude":"54.20000000","longitude":"10.50000000","wikiDataId":"Q635388"},{"id":25597,"Name":"Gremersdorf","state_id":3005,"state_code":"SH","state_name":"Schleswig-Holstein","country_id":82,"country_code":"DE","country_name":"Germany","latitude":"54.33333000","longitude":"10.93333000","wikiDataId":"Q1642511"},{"id":25731,"Name":"Grömitz","state_id":3005,"state_code":"SH","state_name":"Schleswig-Holstein","country_id":82,"country_code":"DE","country_name":"Germany","latitude":"54.15000000","longitude":"10.96667000","wikiDataId":"Q541739"},{"id":25733,"Name":"Grönwohld","state_id":3005,"state_code":"SH","state_name":"Schleswig-Holstein","country_id":82,"country_code":"DE","country_name":"Germany","latitude":"53.64162000","longitude":"10.40784000","wikiDataId":"Q641644"},{"id":25622,"Name":"Groß Grönau","state_id":3005,"state_code":"SH","state_name":"Schleswig-Holstein","country_id":82,"country_code":"DE","country_name":"Germany","latitude":"53.80000000","longitude":"10.75000000","wikiDataId":"Q555878"},{"id":25626,"Name":"Groß Kummerfeld","state_id":3005,"state_code":"SH","state_name":"Schleswig-Holstein","country_id":82,"country_code":"DE","country_name":"Germany","latitude":"54.05000000","longitude":"10.08333000","wikiDataId":"Q33440552"},{"id":25636,"Name":"Groß Rheide","state_id":3005,"state_code":"SH","state_name":"Schleswig-Holstein","country_id":82,"country_code":"DE","country_name":"Germany","latitude":"54.44154000","longitude":"9.43508000","wikiDataId":"Q370074"},{"id":25641,"Name":"Groß Wittensee","state_id":3005,"state_code":"SH","state_name":"Schleswig-Holstein","country_id":82,"country_code":"DE","country_name":"Germany","latitude":"54.40000000","longitude":"9.76667000","wikiDataId":"Q632740"},{"id":25661,"Name":"Großenaspe","state_id":3005,"state_code":"SH","state_name":"Schleswig-Holstein","country_id":82,"country_code":"DE","country_name":"Germany","latitude":"53.98333000","longitude":"9.96667000","wikiDataId":"Q566627"},{"id":25618,"Name":"Grossenbrode","state_id":3005,"state_code":"SH","state_name":"Schleswig-Holstein","country_id":82,"country_code":"DE","country_name":"Germany","latitude":"54.38333000","longitude":"11.08333000","wikiDataId":"Q541681"},{"id":25667,"Name":"Großensee","state_id":3005,"state_code":"SH","state_name":"Schleswig-Holstein","country_id":82,"country_code":"DE","country_name":"Germany","latitude":"53.61263000","longitude":"10.33961000","wikiDataId":"Q632739"},{"id":25670,"Name":"Großenwiehe","state_id":3005,"state_code":"SH","state_name":"Schleswig-Holstein","country_id":82,"country_code":"DE","country_name":"Germany","latitude":"54.70000000","longitude":"9.25000000","wikiDataId":"Q544597"},{"id":25674,"Name":"Großhansdorf","state_id":3005,"state_code":"SH","state_name":"Schleswig-Holstein","country_id":82,"country_code":"DE","country_name":"Germany","latitude":"53.66667000","longitude":"10.28333000","wikiDataId":"Q553192"},{"id":25709,"Name":"Großsolt","state_id":3005,"state_code":"SH","state_name":"Schleswig-Holstein","country_id":82,"country_code":"DE","country_name":"Germany","latitude":"54.70000000","longitude":"9.51667000","wikiDataId":"Q641731"},{"id":25717,"Name":"Grube","state_id":3005,"state_code":"SH","state_name":"Schleswig-Holstein","country_id":82,"country_code":"DE","country_name":"Germany","latitude":"54.23333000","longitude":"11.03333000","wikiDataId":"Q32046052"},{"id":25751,"Name":"Gudow","state_id":3005,"state_code":"SH","state_name":"Schleswig-Holstein","country_id":82,"country_code":"DE","country_name":"Germany","latitude":"53.55556000","longitude":"10.77021000","wikiDataId":"Q632215"},{"id":25793,"Name":"Gülzow","state_id":3005,"state_code":"SH","state_name":"Schleswig-Holstein","country_id":82,"country_code":"DE","country_name":"Germany","latitude":"53.45000000","longitude":"10.50000000","wikiDataId":"Q53803"},{"id":25799,"Name":"Güster","state_id":3005,"state_code":"SH","state_name":"Schleswig-Holstein","country_id":82,"country_code":"DE","country_name":"Germany","latitude":"53.53851000","longitude":"10.67607000","wikiDataId":"Q246502"},{"id":25860,"Name":"Halstenbek","state_id":3005,"state_code":"SH","state_name":"Schleswig-Holstein","country_id":82,"country_code":"DE","country_name":"Germany","latitude":"53.63333000","longitude":"9.85000000","wikiDataId":"Q542824"},{"id":25863,"Name":"Hamberge","state_id":3005,"state_code":"SH","state_name":"Schleswig-Holstein","country_id":82,"country_code":"DE","country_name":"Germany","latitude":"53.83333000","longitude":"10.58333000","wikiDataId":"Q118546"},{"id":25871,"Name":"Hamdorf","state_id":3005,"state_code":"SH","state_name":"Schleswig-Holstein","country_id":82,"country_code":"DE","country_name":"Germany","latitude":"54.22522000","longitude":"9.51866000","wikiDataId":"Q371560"},{"id":25881,"Name":"Hammoor","state_id":3005,"state_code":"SH","state_name":"Schleswig-Holstein","country_id":82,"country_code":"DE","country_name":"Germany","latitude":"53.71378000","longitude":"10.32200000","wikiDataId":"Q641623"},{"id":25884,"Name":"Handewitt","state_id":3005,"state_code":"SH","state_name":"Schleswig-Holstein","country_id":82,"country_code":"DE","country_name":"Germany","latitude":"54.76667000","longitude":"9.33333000","wikiDataId":"Q551497"},{"id":25886,"Name":"Hanerau-Hademarschen","state_id":3005,"state_code":"SH","state_name":"Schleswig-Holstein","country_id":82,"country_code":"DE","country_name":"Germany","latitude":"54.13333000","longitude":"9.41667000","wikiDataId":"Q631638"},{"id":25905,"Name":"Harrislee","state_id":3005,"state_code":"SH","state_name":"Schleswig-Holstein","country_id":82,"country_code":"DE","country_name":"Germany","latitude":"54.80000000","longitude":"9.38333000","wikiDataId":"Q539243"},{"id":25911,"Name":"Hartenholm","state_id":3005,"state_code":"SH","state_name":"Schleswig-Holstein","country_id":82,"country_code":"DE","country_name":"Germany","latitude":"53.89856000","longitude":"10.05953000","wikiDataId":"Q531536"},{"id":25922,"Name":"Haselau","state_id":3005,"state_code":"SH","state_name":"Schleswig-Holstein","country_id":82,"country_code":"DE","country_name":"Germany","latitude":"53.66181000","longitude":"9.62010000","wikiDataId":"Q566114"},{"id":25925,"Name":"Haseldorf","state_id":3005,"state_code":"SH","state_name":"Schleswig-Holstein","country_id":82,"country_code":"DE","country_name":"Germany","latitude":"53.63780000","longitude":"9.59151000","wikiDataId":"Q93247"},{"id":25930,"Name":"Hasloh","state_id":3005,"state_code":"SH","state_name":"Schleswig-Holstein","country_id":82,"country_code":"DE","country_name":"Germany","latitude":"53.69471000","longitude":"9.91682000","wikiDataId":"Q566123"},{"id":25942,"Name":"Hattstedt","state_id":3005,"state_code":"SH","state_name":"Schleswig-Holstein","country_id":82,"country_code":"DE","country_name":"Germany","latitude":"54.53333000","longitude":"9.03333000","wikiDataId":"Q21135"},{"id":25980,"Name":"Heide","state_id":3005,"state_code":"SH","state_name":"Schleswig-Holstein","country_id":82,"country_code":"DE","country_name":"Germany","latitude":"54.19579000","longitude":"9.09880000","wikiDataId":"Q238513"},{"id":25989,"Name":"Heidgraben","state_id":3005,"state_code":"SH","state_name":"Schleswig-Holstein","country_id":82,"country_code":"DE","country_name":"Germany","latitude":"53.70787000","longitude":"9.68099000","wikiDataId":"Q524535"},{"id":25992,"Name":"Heikendorf","state_id":3005,"state_code":"SH","state_name":"Schleswig-Holstein","country_id":82,"country_code":"DE","country_name":"Germany","latitude":"54.36667000","longitude":"10.20000000","wikiDataId":"Q629415"},{"id":25997,"Name":"Heiligenhafen","state_id":3005,"state_code":"SH","state_name":"Schleswig-Holstein","country_id":82,"country_code":"DE","country_name":"Germany","latitude":"54.36964000","longitude":"10.98022000","wikiDataId":"Q516540"},{"id":26002,"Name":"Heiligenstedten","state_id":3005,"state_code":"SH","state_name":"Schleswig-Holstein","country_id":82,"country_code":"DE","country_name":"Germany","latitude":"53.93264000","longitude":"9.47462000","wikiDataId":"Q628981"},{"id":26017,"Name":"Heist","state_id":3005,"state_code":"SH","state_name":"Schleswig-Holstein","country_id":82,"country_code":"DE","country_name":"Germany","latitude":"53.65000000","longitude":"9.65000000","wikiDataId":"Q14833"},{"id":26023,"Name":"Helgoland","state_id":3005,"state_code":"SH","state_name":"Schleswig-Holstein","country_id":82,"country_code":"DE","country_name":"Germany","latitude":"54.18143000","longitude":"7.88630000","wikiDataId":"Q564488"},{"id":26037,"Name":"Hemdingen","state_id":3005,"state_code":"SH","state_name":"Schleswig-Holstein","country_id":82,"country_code":"DE","country_name":"Germany","latitude":"53.76667000","longitude":"9.83333000","wikiDataId":"Q491402"},{"id":26042,"Name":"Hemmingstedt","state_id":3005,"state_code":"SH","state_name":"Schleswig-Holstein","country_id":82,"country_code":"DE","country_name":"Germany","latitude":"54.15000000","longitude":"9.06667000","wikiDataId":"Q522133"},{"id":26052,"Name":"Hennstedt","state_id":3005,"state_code":"SH","state_name":"Schleswig-Holstein","country_id":82,"country_code":"DE","country_name":"Germany","latitude":"54.28333000","longitude":"9.16667000","wikiDataId":"Q583462"},{"id":26054,"Name":"Henstedt-Ulzburg","state_id":3005,"state_code":"SH","state_name":"Schleswig-Holstein","country_id":82,"country_code":"DE","country_name":"Germany","latitude":"53.80500000","longitude":"9.97452000","wikiDataId":"Q508077"},{"id":26073,"Name":"Heringsdorf","state_id":3005,"state_code":"SH","state_name":"Schleswig-Holstein","country_id":82,"country_code":"DE","country_name":"Germany","latitude":"54.30100000","longitude":"11.00658000","wikiDataId":"Q570334"},{"id":26100,"Name":"Herzhorn","state_id":3005,"state_code":"SH","state_name":"Schleswig-Holstein","country_id":82,"country_code":"DE","country_name":"Germany","latitude":"53.78333000","longitude":"9.48333000","wikiDataId":"Q560923"},{"id":26109,"Name":"Hetlingen","state_id":3005,"state_code":"SH","state_name":"Schleswig-Holstein","country_id":82,"country_code":"DE","country_name":"Germany","latitude":"53.60712000","longitude":"9.63718000","wikiDataId":"Q546300"},{"id":26171,"Name":"Hitzhusen","state_id":3005,"state_code":"SH","state_name":"Schleswig-Holstein","country_id":82,"country_code":"DE","country_name":"Germany","latitude":"53.92397000","longitude":"9.85262000","wikiDataId":"Q572535"},{"id":26172,"Name":"Hochdonn","state_id":3005,"state_code":"SH","state_name":"Schleswig-Holstein","country_id":82,"country_code":"DE","country_name":"Germany","latitude":"54.02663000","longitude":"9.27624000","wikiDataId":"Q572535"},{"id":26196,"Name":"Hohenaspe","state_id":3005,"state_code":"SH","state_name":"Schleswig-Holstein","country_id":82,"country_code":"DE","country_name":"Germany","latitude":"53.98898000","longitude":"9.52774000","wikiDataId":"Q545568"},{"id":26203,"Name":"Hohenfelde","state_id":3005,"state_code":"SH","state_name":"Schleswig-Holstein","country_id":82,"country_code":"DE","country_name":"Germany","latitude":"54.36667000","longitude":"10.50000000","wikiDataId":"Q695555"},{"id":26211,"Name":"Hohenlockstedt","state_id":3005,"state_code":"SH","state_name":"Schleswig-Holstein","country_id":82,"country_code":"DE","country_name":"Germany","latitude":"53.96667000","longitude":"9.61667000","wikiDataId":"Q428389"},{"id":26222,"Name":"Hohenwestedt","state_id":3005,"state_code":"SH","state_name":"Schleswig-Holstein","country_id":82,"country_code":"DE","country_name":"Germany","latitude":"54.08886000","longitude":"9.65359000","wikiDataId":"Q206686"},{"id":26223,"Name":"Hohn","state_id":3005,"state_code":"SH","state_name":"Schleswig-Holstein","country_id":82,"country_code":"DE","country_name":"Germany","latitude":"54.30000000","longitude":"9.50000000","wikiDataId":"Q206686"},{"id":26227,"Name":"Hoisdorf","state_id":3005,"state_code":"SH","state_name":"Schleswig-Holstein","country_id":82,"country_code":"DE","country_name":"Germany","latitude":"53.65000000","longitude":"10.31667000","wikiDataId":"Q514911"},{"id":26235,"Name":"Hollingstedt","state_id":3005,"state_code":"SH","state_name":"Schleswig-Holstein","country_id":82,"country_code":"DE","country_name":"Germany","latitude":"54.45934000","longitude":"9.33695000","wikiDataId":"Q503048"},{"id":26237,"Name":"Holm","state_id":3005,"state_code":"SH","state_name":"Schleswig-Holstein","country_id":82,"country_code":"DE","country_name":"Germany","latitude":"53.61667000","longitude":"9.66667000","wikiDataId":"Q691934"},{"id":26239,"Name":"Holtsee","state_id":3005,"state_code":"SH","state_name":"Schleswig-Holstein","country_id":82,"country_code":"DE","country_name":"Germany","latitude":"54.40000000","longitude":"9.85000000","wikiDataId":"Q567450"},{"id":26272,"Name":"Horst","state_id":3005,"state_code":"SH","state_name":"Schleswig-Holstein","country_id":82,"country_code":"DE","country_name":"Germany","latitude":"53.81195000","longitude":"9.62307000","wikiDataId":"Q32060526"},{"id":26341,"Name":"Hürup","state_id":3005,"state_code":"SH","state_name":"Schleswig-Holstein","country_id":82,"country_code":"DE","country_name":"Germany","latitude":"54.75000000","longitude":"9.53333000","wikiDataId":"Q164363"},{"id":26292,"Name":"Husum","state_id":3005,"state_code":"SH","state_name":"Schleswig-Holstein","country_id":82,"country_code":"DE","country_name":"Germany","latitude":"54.48580000","longitude":"9.05239000","wikiDataId":"Q21159"},{"id":26422,"Name":"Itzehoe","state_id":3005,"state_code":"SH","state_name":"Schleswig-Holstein","country_id":82,"country_code":"DE","country_name":"Germany","latitude":"53.92099000","longitude":"9.51529000","wikiDataId":"Q16073"},{"id":26423,"Name":"Itzstedt","state_id":3005,"state_code":"SH","state_name":"Schleswig-Holstein","country_id":82,"country_code":"DE","country_name":"Germany","latitude":"53.80800000","longitude":"10.15797000","wikiDataId":"Q16073"},{"id":26431,"Name":"Jarplund-Weding","state_id":3005,"state_code":"SH","state_name":"Schleswig-Holstein","country_id":82,"country_code":"DE","country_name":"Germany","latitude":"54.73714000","longitude":"9.41813000","wikiDataId":"Q819221"},{"id":26438,"Name":"Jerrishoe","state_id":3005,"state_code":"SH","state_name":"Schleswig-Holstein","country_id":82,"country_code":"DE","country_name":"Germany","latitude":"54.65670000","longitude":"9.36918000","wikiDataId":"Q530090"},{"id":26439,"Name":"Jersbek","state_id":3005,"state_code":"SH","state_name":"Schleswig-Holstein","country_id":82,"country_code":"DE","country_name":"Germany","latitude":"53.73333000","longitude":"10.21667000","wikiDataId":"Q567419"},{"id":26449,"Name":"Jevenstedt","state_id":3005,"state_code":"SH","state_name":"Schleswig-Holstein","country_id":82,"country_code":"DE","country_name":"Germany","latitude":"54.23333000","longitude":"9.66667000","wikiDataId":"Q556659"},{"id":26469,"Name":"Jübek","state_id":3005,"state_code":"SH","state_name":"Schleswig-Holstein","country_id":82,"country_code":"DE","country_name":"Germany","latitude":"54.55709000","longitude":"9.39773000","wikiDataId":"Q556966"},{"id":26496,"Name":"Kaltenkirchen","state_id":3005,"state_code":"SH","state_name":"Schleswig-Holstein","country_id":82,"country_code":"DE","country_name":"Germany","latitude":"53.83292000","longitude":"9.95810000","wikiDataId":"Q492390"},{"id":26509,"Name":"Kappeln","state_id":3005,"state_code":"SH","state_name":"Schleswig-Holstein","country_id":82,"country_code":"DE","country_name":"Germany","latitude":"54.66122000","longitude":"9.93130000","wikiDataId":"Q516567"},{"id":26530,"Name":"Kasseedorf","state_id":3005,"state_code":"SH","state_name":"Schleswig-Holstein","country_id":82,"country_code":"DE","country_name":"Germany","latitude":"54.16667000","longitude":"10.71667000","wikiDataId":"Q546789"},{"id":26534,"Name":"Kastorf","state_id":3005,"state_code":"SH","state_name":"Schleswig-Holstein","country_id":82,"country_code":"DE","country_name":"Germany","latitude":"53.74569000","longitude":"10.56723000","wikiDataId":"Q705730"},{"id":26548,"Name":"Kayhude","state_id":3005,"state_code":"SH","state_name":"Schleswig-Holstein","country_id":82,"country_code":"DE","country_name":"Germany","latitude":"53.75629000","longitude":"10.13232000","wikiDataId":"Q679276"},{"id":26553,"Name":"Keitum","state_id":3005,"state_code":"SH","state_name":"Schleswig-Holstein","country_id":82,"country_code":"DE","country_name":"Germany","latitude":"54.89333000","longitude":"8.37083000","wikiDataId":"Q20767"},{"id":26559,"Name":"Kellenhusen","state_id":3005,"state_code":"SH","state_name":"Schleswig-Holstein","country_id":82,"country_code":"DE","country_name":"Germany","latitude":"54.19338000","longitude":"11.06165000","wikiDataId":"Q551387"},{"id":26560,"Name":"Kellinghusen","state_id":3005,"state_code":"SH","state_name":"Schleswig-Holstein","country_id":82,"country_code":"DE","country_name":"Germany","latitude":"53.95202000","longitude":"9.71959000","wikiDataId":"Q515943"},{"id":26581,"Name":"Kiebitzreihe","state_id":3005,"state_code":"SH","state_name":"Schleswig-Holstein","country_id":82,"country_code":"DE","country_name":"Germany","latitude":"53.78333000","longitude":"9.61667000","wikiDataId":"Q243526"},{"id":26584,"Name":"Kiel","state_id":3005,"state_code":"SH","state_name":"Schleswig-Holstein","country_id":82,"country_code":"DE","country_name":"Germany","latitude":"54.32133000","longitude":"10.13489000","wikiDataId":"Q1707"},{"id":26647,"Name":"Kisdorf","state_id":3005,"state_code":"SH","state_name":"Schleswig-Holstein","country_id":82,"country_code":"DE","country_name":"Germany","latitude":"53.81667000","longitude":"10.01667000","wikiDataId":"Q533366"},{"id":26656,"Name":"Klausdorf","state_id":3005,"state_code":"SH","state_name":"Schleswig-Holstein","country_id":82,"country_code":"DE","country_name":"Germany","latitude":"54.30899000","longitude":"10.21372000","wikiDataId":"Q690151"},{"id":26660,"Name":"Klein Nordende","state_id":3005,"state_code":"SH","state_name":"Schleswig-Holstein","country_id":82,"country_code":"DE","country_name":"Germany","latitude":"53.72219000","longitude":"9.65424000","wikiDataId":"Q554084"},{"id":26661,"Name":"Klein Offenseth-Sparrieshoop","state_id":3005,"state_code":"SH","state_name":"Schleswig-Holstein","country_id":82,"country_code":"DE","country_name":"Germany","latitude":"53.79748000","longitude":"9.68653000","wikiDataId":"Q554084"},{"id":26664,"Name":"Klein Rönnau","state_id":3005,"state_code":"SH","state_name":"Schleswig-Holstein","country_id":82,"country_code":"DE","country_name":"Germany","latitude":"53.96667000","longitude":"10.31667000","wikiDataId":"Q29561600"},{"id":26714,"Name":"Kollmar","state_id":3005,"state_code":"SH","state_name":"Schleswig-Holstein","country_id":82,"country_code":"DE","country_name":"Germany","latitude":"53.72936000","longitude":"9.47880000","wikiDataId":"Q572999"},{"id":26817,"Name":"Kölln-Reisiek","state_id":3005,"state_code":"SH","state_name":"Schleswig-Holstein","country_id":82,"country_code":"DE","country_name":"Germany","latitude":"53.75748000","longitude":"9.69772000","wikiDataId":"Q567415"},{"id":26727,"Name":"Kosel","state_id":3005,"state_code":"SH","state_name":"Schleswig-Holstein","country_id":82,"country_code":"DE","country_name":"Germany","latitude":"54.50580000","longitude":"9.75653000","wikiDataId":"Q16042"},{"id":26750,"Name":"Krempe","state_id":3005,"state_code":"SH","state_name":"Schleswig-Holstein","country_id":82,"country_code":"DE","country_name":"Germany","latitude":"53.83694000","longitude":"9.48831000","wikiDataId":"Q32068022"},{"id":26751,"Name":"Kremperheide","state_id":3005,"state_code":"SH","state_name":"Schleswig-Holstein","country_id":82,"country_code":"DE","country_name":"Germany","latitude":"53.88721000","longitude":"9.47809000","wikiDataId":"Q32068022"},{"id":26772,"Name":"Kronshagen","state_id":3005,"state_code":"SH","state_name":"Schleswig-Holstein","country_id":82,"country_code":"DE","country_name":"Germany","latitude":"54.33333000","longitude":"10.08333000","wikiDataId":"Q565416"},{"id":26773,"Name":"Kropp","state_id":3005,"state_code":"SH","state_name":"Schleswig-Holstein","country_id":82,"country_code":"DE","country_name":"Germany","latitude":"54.41667000","longitude":"9.51667000","wikiDataId":"Q557021"},{"id":26784,"Name":"Kröppelshagen-Fahrendorf","state_id":3005,"state_code":"SH","state_name":"Schleswig-Holstein","country_id":82,"country_code":"DE","country_name":"Germany","latitude":"53.48979000","longitude":"10.31697000","wikiDataId":"Q645814"},{"id":26780,"Name":"Krummesse","state_id":3005,"state_code":"SH","state_name":"Schleswig-Holstein","country_id":82,"country_code":"DE","country_name":"Germany","latitude":"53.78333000","longitude":"10.65000000","wikiDataId":"Q629376"},{"id":26790,"Name":"Kuddewörde","state_id":3005,"state_code":"SH","state_name":"Schleswig-Holstein","country_id":82,"country_code":"DE","country_name":"Germany","latitude":"53.58333000","longitude":"10.40000000","wikiDataId":"Q32068543"},{"id":26796,"Name":"Kummerfeld","state_id":3005,"state_code":"SH","state_name":"Schleswig-Holstein","country_id":82,"country_code":"DE","country_name":"Germany","latitude":"53.69262000","longitude":"9.79099000","wikiDataId":"Q551706"},{"id":26866,"Name":"Laboe","state_id":3005,"state_code":"SH","state_name":"Schleswig-Holstein","country_id":82,"country_code":"DE","country_name":"Germany","latitude":"54.40000000","longitude":"10.21667000","wikiDataId":"Q504740"},{"id":26871,"Name":"Ladelund","state_id":3005,"state_code":"SH","state_name":"Schleswig-Holstein","country_id":82,"country_code":"DE","country_name":"Germany","latitude":"54.84084000","longitude":"9.02135000","wikiDataId":"Q32072623"},{"id":27183,"Name":"Lägerdorf","state_id":3005,"state_code":"SH","state_name":"Schleswig-Holstein","country_id":82,"country_code":"DE","country_name":"Germany","latitude":"53.88333000","longitude":"9.58333000","wikiDataId":"Q638314"},{"id":26899,"Name":"Langballig","state_id":3005,"state_code":"SH","state_name":"Schleswig-Holstein","country_id":82,"country_code":"DE","country_name":"Germany","latitude":"54.80000000","longitude":"9.63333000","wikiDataId":"Q428981"},{"id":26921,"Name":"Langenhorn","state_id":3005,"state_code":"SH","state_name":"Schleswig-Holstein","country_id":82,"country_code":"DE","country_name":"Germany","latitude":"54.66667000","longitude":"8.91667000","wikiDataId":"Q559410"},{"id":26941,"Name":"Langstedt","state_id":3005,"state_code":"SH","state_name":"Schleswig-Holstein","country_id":82,"country_code":"DE","country_name":"Germany","latitude":"54.61667000","longitude":"9.38333000","wikiDataId":"Q545817"},{"id":26944,"Name":"Langwedel","state_id":3005,"state_code":"SH","state_name":"Schleswig-Holstein","country_id":82,"country_code":"DE","country_name":"Germany","latitude":"54.21033000","longitude":"9.92761000","wikiDataId":"Q612722"},{"id":26951,"Name":"Lasbek","state_id":3005,"state_code":"SH","state_name":"Schleswig-Holstein","country_id":82,"country_code":"DE","country_name":"Germany","latitude":"53.73333000","longitude":"10.36667000","wikiDataId":"Q634537"},{"id":26968,"Name":"Lauenburg","state_id":3005,"state_code":"SH","state_name":"Schleswig-Holstein","country_id":82,"country_code":"DE","country_name":"Germany","latitude":"53.37199000","longitude":"10.55654000","wikiDataId":"Q592405"},{"id":26997,"Name":"Leck","state_id":3005,"state_code":"SH","state_name":"Schleswig-Holstein","country_id":82,"country_code":"DE","country_name":"Germany","latitude":"54.76667000","longitude":"8.98333000","wikiDataId":"Q28001"},{"id":27002,"Name":"Leezen","state_id":3005,"state_code":"SH","state_name":"Schleswig-Holstein","country_id":82,"country_code":"DE","country_name":"Germany","latitude":"53.86667000","longitude":"10.25000000","wikiDataId":"Q566105"},{"id":27006,"Name":"Lehe","state_id":3005,"state_code":"SH","state_name":"Schleswig-Holstein","country_id":82,"country_code":"DE","country_name":"Germany","latitude":"54.34143000","longitude":"9.02374000","wikiDataId":"Q32091276"},{"id":27009,"Name":"Lehmkuhlen","state_id":3005,"state_code":"SH","state_name":"Schleswig-Holstein","country_id":82,"country_code":"DE","country_name":"Germany","latitude":"54.23333000","longitude":"10.36667000","wikiDataId":"Q686715"},{"id":27048,"Name":"Lensahn","state_id":3005,"state_code":"SH","state_name":"Schleswig-Holstein","country_id":82,"country_code":"DE","country_name":"Germany","latitude":"54.21652000","longitude":"10.88326000","wikiDataId":"Q552941"},{"id":27049,"Name":"Lentföhrden","state_id":3005,"state_code":"SH","state_name":"Schleswig-Holstein","country_id":82,"country_code":"DE","country_name":"Germany","latitude":"53.86667000","longitude":"9.88333000","wikiDataId":"Q552941"},{"id":27101,"Name":"Linau","state_id":3005,"state_code":"SH","state_name":"Schleswig-Holstein","country_id":82,"country_code":"DE","country_name":"Germany","latitude":"53.64446000","longitude":"10.46853000","wikiDataId":"Q662258"},{"id":27104,"Name":"Lindau","state_id":3005,"state_code":"SH","state_name":"Schleswig-Holstein","country_id":82,"country_code":"DE","country_name":"Germany","latitude":"54.38333000","longitude":"9.90000000","wikiDataId":"Q697959"},{"id":27109,"Name":"Lindewitt","state_id":3005,"state_code":"SH","state_name":"Schleswig-Holstein","country_id":82,"country_code":"DE","country_name":"Germany","latitude":"54.70000000","longitude":"9.20000000","wikiDataId":"Q551480"},{"id":27122,"Name":"List","state_id":3005,"state_code":"SH","state_name":"Schleswig-Holstein","country_id":82,"country_code":"DE","country_name":"Germany","latitude":"55.01917000","longitude":"8.43132000","wikiDataId":"Q567229"},{"id":27131,"Name":"Lohe-Rickelshof","state_id":3005,"state_code":"SH","state_name":"Schleswig-Holstein","country_id":82,"country_code":"DE","country_name":"Germany","latitude":"54.18803000","longitude":"9.07066000","wikiDataId":"Q550364"},{"id":27205,"Name":"Lübeck","state_id":3005,"state_code":"SH","state_name":"Schleswig-Holstein","country_id":82,"country_code":"DE","country_name":"Germany","latitude":"53.86893000","longitude":"10.68729000","wikiDataId":"Q2843"},{"id":27174,"Name":"Lunden","state_id":3005,"state_code":"SH","state_name":"Schleswig-Holstein","country_id":82,"country_code":"DE","country_name":"Germany","latitude":"54.33131000","longitude":"9.02523000","wikiDataId":"Q554187"},{"id":27221,"Name":"Lürschau","state_id":3005,"state_code":"SH","state_name":"Schleswig-Holstein","country_id":82,"country_code":"DE","country_name":"Germany","latitude":"54.55000000","longitude":"9.50000000","wikiDataId":"Q557339"},{"id":27222,"Name":"Lütjenburg","state_id":3005,"state_code":"SH","state_name":"Schleswig-Holstein","country_id":82,"country_code":"DE","country_name":"Germany","latitude":"54.29188000","longitude":"10.58945000","wikiDataId":"Q221840"},{"id":27223,"Name":"Lütjensee","state_id":3005,"state_code":"SH","state_name":"Schleswig-Holstein","country_id":82,"country_code":"DE","country_name":"Germany","latitude":"53.65000000","longitude":"10.36667000","wikiDataId":"Q567443"},{"id":27252,"Name":"Malente","state_id":3005,"state_code":"SH","state_name":"Schleswig-Holstein","country_id":82,"country_code":"DE","country_name":"Germany","latitude":"54.17226000","longitude":"10.55968000","wikiDataId":"Q522056"},{"id":27327,"Name":"Martensrade","state_id":3005,"state_code":"SH","state_name":"Schleswig-Holstein","country_id":82,"country_code":"DE","country_name":"Germany","latitude":"54.28333000","longitude":"10.40000000","wikiDataId":"Q636541"},{"id":27392,"Name":"Meldorf","state_id":3005,"state_code":"SH","state_name":"Schleswig-Holstein","country_id":82,"country_code":"DE","country_name":"Germany","latitude":"54.09182000","longitude":"9.06870000","wikiDataId":"Q498545"},{"id":27399,"Name":"Melsdorf","state_id":3005,"state_code":"SH","state_name":"Schleswig-Holstein","country_id":82,"country_code":"DE","country_name":"Germany","latitude":"54.31667000","longitude":"10.03333000","wikiDataId":"Q531792"},{"id":27460,"Name":"Mielkendorf","state_id":3005,"state_code":"SH","state_name":"Schleswig-Holstein","country_id":82,"country_code":"DE","country_name":"Germany","latitude":"54.28333000","longitude":"10.05000000","wikiDataId":"Q631119"},{"id":27466,"Name":"Mildstedt","state_id":3005,"state_code":"SH","state_name":"Schleswig-Holstein","country_id":82,"country_code":"DE","country_name":"Germany","latitude":"54.46667000","longitude":"9.10000000","wikiDataId":"Q21011"},{"id":27502,"Name":"Mohrkirch","state_id":3005,"state_code":"SH","state_name":"Schleswig-Holstein","country_id":82,"country_code":"DE","country_name":"Germany","latitude":"54.66667000","longitude":"9.71667000","wikiDataId":"Q560882"},{"id":27505,"Name":"Molfsee","state_id":3005,"state_code":"SH","state_name":"Schleswig-Holstein","country_id":82,"country_code":"DE","country_name":"Germany","latitude":"54.26667000","longitude":"10.06667000","wikiDataId":"Q642144"},{"id":27564,"Name":"Mölln","state_id":3005,"state_code":"SH","state_name":"Schleswig-Holstein","country_id":82,"country_code":"DE","country_name":"Germany","latitude":"53.61702000","longitude":"10.68742000","wikiDataId":"Q73206"},{"id":27574,"Name":"Mönkeberg","state_id":3005,"state_code":"SH","state_name":"Schleswig-Holstein","country_id":82,"country_code":"DE","country_name":"Germany","latitude":"54.35000000","longitude":"10.18333000","wikiDataId":"Q818718"},{"id":27516,"Name":"Moorrege","state_id":3005,"state_code":"SH","state_name":"Schleswig-Holstein","country_id":82,"country_code":"DE","country_name":"Germany","latitude":"53.66667000","longitude":"9.66667000","wikiDataId":"Q555079"},{"id":27541,"Name":"Munkbrarup","state_id":3005,"state_code":"SH","state_name":"Schleswig-Holstein","country_id":82,"country_code":"DE","country_name":"Germany","latitude":"54.80000000","longitude":"9.56667000","wikiDataId":"Q559161"},{"id":27624,"Name":"Münsterdorf","state_id":3005,"state_code":"SH","state_name":"Schleswig-Holstein","country_id":82,"country_code":"DE","country_name":"Germany","latitude":"53.90232000","longitude":"9.54123000","wikiDataId":"Q635202"},{"id":27636,"Name":"Nahe","state_id":3005,"state_code":"SH","state_name":"Schleswig-Holstein","country_id":82,"country_code":"DE","country_name":"Germany","latitude":"53.80000000","longitude":"10.13333000","wikiDataId":"Q683933"},{"id":27667,"Name":"Negernbötel","state_id":3005,"state_code":"SH","state_name":"Schleswig-Holstein","country_id":82,"country_code":"DE","country_name":"Germany","latitude":"53.98333000","longitude":"10.25000000","wikiDataId":"Q536318"},{"id":27697,"Name":"Neuberend","state_id":3005,"state_code":"SH","state_name":"Schleswig-Holstein","country_id":82,"country_code":"DE","country_name":"Germany","latitude":"54.55000000","longitude":"9.53333000","wikiDataId":"Q556904"},{"id":27713,"Name":"Neudorf-Bornstein","state_id":3005,"state_code":"SH","state_name":"Schleswig-Holstein","country_id":82,"country_code":"DE","country_name":"Germany","latitude":"54.43333000","longitude":"9.95000000","wikiDataId":"Q701263"},{"id":27760,"Name":"Neukirchen","state_id":3005,"state_code":"SH","state_name":"Schleswig-Holstein","country_id":82,"country_code":"DE","country_name":"Germany","latitude":"54.21465000","longitude":"10.55381000","wikiDataId":"Q32182796"},{"id":27774,"Name":"Neumünster","state_id":3005,"state_code":"SH","state_name":"Schleswig-Holstein","country_id":82,"country_code":"DE","country_name":"Germany","latitude":"54.07477000","longitude":"9.98195000","wikiDataId":"Q3879"},{"id":27805,"Name":"Neustadt in Holstein","state_id":3005,"state_code":"SH","state_name":"Schleswig-Holstein","country_id":82,"country_code":"DE","country_name":"Germany","latitude":"54.10707000","longitude":"10.81450000","wikiDataId":"Q499861"},{"id":27815,"Name":"Neuwittenbek","state_id":3005,"state_code":"SH","state_name":"Schleswig-Holstein","country_id":82,"country_code":"DE","country_name":"Germany","latitude":"54.36667000","longitude":"10.01667000","wikiDataId":"Q3967"},{"id":27824,"Name":"Niebüll","state_id":3005,"state_code":"SH","state_name":"Schleswig-Holstein","country_id":82,"country_code":"DE","country_name":"Germany","latitude":"54.78663000","longitude":"8.82854000","wikiDataId":"Q21014"},{"id":27900,"Name":"Nindorf","state_id":3005,"state_code":"SH","state_name":"Schleswig-Holstein","country_id":82,"country_code":"DE","country_name":"Germany","latitude":"54.08333000","longitude":"9.11667000","wikiDataId":"Q576653"},{"id":27916,"Name":"Norderstedt","state_id":3005,"state_code":"SH","state_name":"Schleswig-Holstein","country_id":82,"country_code":"DE","country_name":"Germany","latitude":"53.68590000","longitude":"9.98041000","wikiDataId":"Q3928"},{"id":27918,"Name":"Nordhastedt","state_id":3005,"state_code":"SH","state_name":"Schleswig-Holstein","country_id":82,"country_code":"DE","country_name":"Germany","latitude":"54.16667000","longitude":"9.18333000","wikiDataId":"Q528348"},{"id":27932,"Name":"Nortorf","state_id":3005,"state_code":"SH","state_name":"Schleswig-Holstein","country_id":82,"country_code":"DE","country_name":"Germany","latitude":"54.16738000","longitude":"9.85437000","wikiDataId":"Q573031"},{"id":27950,"Name":"Nübbel","state_id":3005,"state_code":"SH","state_name":"Schleswig-Holstein","country_id":82,"country_code":"DE","country_name":"Germany","latitude":"54.26667000","longitude":"9.61667000","wikiDataId":"Q200068"},{"id":27941,"Name":"Nusse","state_id":3005,"state_code":"SH","state_name":"Schleswig-Holstein","country_id":82,"country_code":"DE","country_name":"Germany","latitude":"53.65654000","longitude":"10.58391000","wikiDataId":"Q514600"},{"id":27956,"Name":"Nützen","state_id":3005,"state_code":"SH","state_name":"Schleswig-Holstein","country_id":82,"country_code":"DE","country_name":"Germany","latitude":"53.86667000","longitude":"9.91667000","wikiDataId":"Q14853"},{"id":28077,"Name":"Oelixdorf","state_id":3005,"state_code":"SH","state_name":"Schleswig-Holstein","country_id":82,"country_code":"DE","country_name":"Germany","latitude":"53.92738000","longitude":"9.56383000","wikiDataId":"Q556261"},{"id":28084,"Name":"Oeversee","state_id":3005,"state_code":"SH","state_name":"Schleswig-Holstein","country_id":82,"country_code":"DE","country_name":"Germany","latitude":"54.70000000","longitude":"9.43333000","wikiDataId":"Q538052"},{"id":28106,"Name":"Oldenburg in Holstein","state_id":3005,"state_code":"SH","state_name":"Schleswig-Holstein","country_id":82,"country_code":"DE","country_name":"Germany","latitude":"54.29576000","longitude":"10.90156000","wikiDataId":"Q496435"},{"id":28107,"Name":"Oldendorf","state_id":3005,"state_code":"SH","state_name":"Schleswig-Holstein","country_id":82,"country_code":"DE","country_name":"Germany","latitude":"53.95341000","longitude":"9.45858000","wikiDataId":"Q496435"},{"id":28109,"Name":"Oldenswort","state_id":3005,"state_code":"SH","state_name":"Schleswig-Holstein","country_id":82,"country_code":"DE","country_name":"Germany","latitude":"54.37243000","longitude":"8.93996000","wikiDataId":"Q20784"},{"id":28138,"Name":"Osdorf","state_id":3005,"state_code":"SH","state_name":"Schleswig-Holstein","country_id":82,"country_code":"DE","country_name":"Germany","latitude":"54.43333000","longitude":"10.01667000","wikiDataId":"Q525392"},{"id":28146,"Name":"Ostenfeld","state_id":3005,"state_code":"SH","state_name":"Schleswig-Holstein","country_id":82,"country_code":"DE","country_name":"Germany","latitude":"54.46400000","longitude":"9.23430000","wikiDataId":"Q32209784"},{"id":28157,"Name":"Osterrönfeld","state_id":3005,"state_code":"SH","state_name":"Schleswig-Holstein","country_id":82,"country_code":"DE","country_name":"Germany","latitude":"54.29013000","longitude":"9.69900000","wikiDataId":"Q565888"},{"id":28176,"Name":"Oststeinbek","state_id":3005,"state_code":"SH","state_name":"Schleswig-Holstein","country_id":82,"country_code":"DE","country_name":"Germany","latitude":"53.54321000","longitude":"10.16939000","wikiDataId":"Q560887"},{"id":28203,"Name":"Owschlag","state_id":3005,"state_code":"SH","state_name":"Schleswig-Holstein","country_id":82,"country_code":"DE","country_name":"Germany","latitude":"54.39336000","longitude":"9.59243000","wikiDataId":"Q557773"},{"id":28208,"Name":"Padenstedt","state_id":3005,"state_code":"SH","state_name":"Schleswig-Holstein","country_id":82,"country_code":"DE","country_name":"Germany","latitude":"54.05000000","longitude":"9.91667000","wikiDataId":"Q93273"},{"id":28210,"Name":"Pahlen","state_id":3005,"state_code":"SH","state_name":"Schleswig-Holstein","country_id":82,"country_code":"DE","country_name":"Germany","latitude":"54.26667000","longitude":"9.30000000","wikiDataId":"Q2971"},{"id":28215,"Name":"Panker","state_id":3005,"state_code":"SH","state_name":"Schleswig-Holstein","country_id":82,"country_code":"DE","country_name":"Germany","latitude":"54.33333000","longitude":"10.56667000","wikiDataId":"Q526753"},{"id":28248,"Name":"Pellworm","state_id":3005,"state_code":"SH","state_name":"Schleswig-Holstein","country_id":82,"country_code":"DE","country_name":"Germany","latitude":"54.51610000","longitude":"8.64512000","wikiDataId":"Q3146"},{"id":28304,"Name":"Pinneberg","state_id":3005,"state_code":"SH","state_name":"Schleswig-Holstein","country_id":82,"country_code":"DE","country_name":"Germany","latitude":"53.66732000","longitude":"9.78936000","wikiDataId":"Q7074"},{"id":28331,"Name":"Plön","state_id":3005,"state_code":"SH","state_name":"Schleswig-Holstein","country_id":82,"country_code":"DE","country_name":"Germany","latitude":"54.16241000","longitude":"10.42333000","wikiDataId":"Q497060"},{"id":28416,"Name":"Pölitz","state_id":3005,"state_code":"SH","state_name":"Schleswig-Holstein","country_id":82,"country_code":"DE","country_name":"Germany","latitude":"53.77303000","longitude":"10.38276000","wikiDataId":"Q651252"},{"id":28371,"Name":"Preetz","state_id":3005,"state_code":"SH","state_name":"Schleswig-Holstein","country_id":82,"country_code":"DE","country_name":"Germany","latitude":"54.23540000","longitude":"10.27795000","wikiDataId":"Q500171"},{"id":28389,"Name":"Prisdorf","state_id":3005,"state_code":"SH","state_name":"Schleswig-Holstein","country_id":82,"country_code":"DE","country_name":"Germany","latitude":"53.68333000","longitude":"9.75000000","wikiDataId":"Q8759"},{"id":28393,"Name":"Probsteierhagen","state_id":3005,"state_code":"SH","state_name":"Schleswig-Holstein","country_id":82,"country_code":"DE","country_name":"Germany","latitude":"54.36153000","longitude":"10.28772000","wikiDataId":"Q558468"},{"id":28396,"Name":"Pronstorf","state_id":3005,"state_code":"SH","state_name":"Schleswig-Holstein","country_id":82,"country_code":"DE","country_name":"Germany","latitude":"53.95000000","longitude":"10.46667000","wikiDataId":"Q543991"},{"id":28425,"Name":"Quarnbek","state_id":3005,"state_code":"SH","state_name":"Schleswig-Holstein","country_id":82,"country_code":"DE","country_name":"Germany","latitude":"54.33333000","longitude":"9.98333000","wikiDataId":"Q638148"},{"id":28431,"Name":"Quern","state_id":3005,"state_code":"SH","state_name":"Schleswig-Holstein","country_id":82,"country_code":"DE","country_name":"Germany","latitude":"54.75000000","longitude":"9.71667000","wikiDataId":"Q559199"},{"id":28432,"Name":"Quickborn","state_id":3005,"state_code":"SH","state_name":"Schleswig-Holstein","country_id":82,"country_code":"DE","country_name":"Germany","latitude":"53.72831000","longitude":"9.90934000","wikiDataId":"Q516623"},{"id":28454,"Name":"Raisdorf","state_id":3005,"state_code":"SH","state_name":"Schleswig-Holstein","country_id":82,"country_code":"DE","country_name":"Germany","latitude":"54.28127000","longitude":"10.24915000","wikiDataId":"Q682215"},{"id":28476,"Name":"Rantrum","state_id":3005,"state_code":"SH","state_name":"Schleswig-Holstein","country_id":82,"country_code":"DE","country_name":"Germany","latitude":"54.44062000","longitude":"9.12872000","wikiDataId":"Q21019"},{"id":28483,"Name":"Ratekau","state_id":3005,"state_code":"SH","state_name":"Schleswig-Holstein","country_id":82,"country_code":"DE","country_name":"Germany","latitude":"53.95000000","longitude":"10.73333000","wikiDataId":"Q629480"},{"id":28491,"Name":"Ratzeburg","state_id":3005,"state_code":"SH","state_name":"Schleswig-Holstein","country_id":82,"country_code":"DE","country_name":"Germany","latitude":"53.69965000","longitude":"10.77256000","wikiDataId":"Q490025"},{"id":28555,"Name":"Reinbek","state_id":3005,"state_code":"SH","state_name":"Schleswig-Holstein","country_id":82,"country_code":"DE","country_name":"Germany","latitude":"53.51703000","longitude":"10.24880000","wikiDataId":"Q516405"},{"id":28557,"Name":"Reinfeld","state_id":3005,"state_code":"SH","state_name":"Schleswig-Holstein","country_id":82,"country_code":"DE","country_name":"Germany","latitude":"53.83184000","longitude":"10.49126000","wikiDataId":"Q539463"},{"id":28571,"Name":"Rellingen","state_id":3005,"state_code":"SH","state_name":"Schleswig-Holstein","country_id":82,"country_code":"DE","country_name":"Germany","latitude":"53.65000000","longitude":"9.81667000","wikiDataId":"Q542849"},{"id":28579,"Name":"Rendsburg","state_id":3005,"state_code":"SH","state_name":"Schleswig-Holstein","country_id":82,"country_code":"DE","country_name":"Germany","latitude":"54.30663000","longitude":"9.66313000","wikiDataId":"Q490457"},{"id":28624,"Name":"Rickert","state_id":3005,"state_code":"SH","state_name":"Schleswig-Holstein","country_id":82,"country_code":"DE","country_name":"Germany","latitude":"54.33333000","longitude":"9.66667000","wikiDataId":"Q571963"},{"id":28625,"Name":"Rickling","state_id":3005,"state_code":"SH","state_name":"Schleswig-Holstein","country_id":82,"country_code":"DE","country_name":"Germany","latitude":"54.01667000","longitude":"10.16667000","wikiDataId":"Q571963"},{"id":28644,"Name":"Riepsdorf","state_id":3005,"state_code":"SH","state_name":"Schleswig-Holstein","country_id":82,"country_code":"DE","country_name":"Germany","latitude":"54.22611000","longitude":"10.97242000","wikiDataId":"Q507487"},{"id":28647,"Name":"Rieseby","state_id":3005,"state_code":"SH","state_name":"Schleswig-Holstein","country_id":82,"country_code":"DE","country_name":"Germany","latitude":"54.54140000","longitude":"9.81689000","wikiDataId":"Q544462"},{"id":28666,"Name":"Risum-Lindholm","state_id":3005,"state_code":"SH","state_name":"Schleswig-Holstein","country_id":82,"country_code":"DE","country_name":"Germany","latitude":"54.75802000","longitude":"8.86906000","wikiDataId":"Q28038"},{"id":28760,"Name":"Ruhwinkel","state_id":3005,"state_code":"SH","state_name":"Schleswig-Holstein","country_id":82,"country_code":"DE","country_name":"Germany","latitude":"54.10000000","longitude":"10.21667000","wikiDataId":"Q636423"},{"id":28808,"Name":"Rümpel","state_id":3005,"state_code":"SH","state_name":"Schleswig-Holstein","country_id":82,"country_code":"DE","country_name":"Germany","latitude":"53.78333000","longitude":"10.35000000","wikiDataId":"Q659428"},{"id":28855,"Name":"Sandesneben","state_id":3005,"state_code":"SH","state_name":"Schleswig-Holstein","country_id":82,"country_code":"DE","country_name":"Germany","latitude":"53.68333000","longitude":"10.50000000","wikiDataId":"Q579973"},{"id":28859,"Name":"Sankelmark","state_id":3005,"state_code":"SH","state_name":"Schleswig-Holstein","country_id":82,"country_code":"DE","country_name":"Germany","latitude":"54.71803000","longitude":"9.42344000","wikiDataId":"Q705271"},{"id":28876,"Name":"Sankt Margarethen","state_id":3005,"state_code":"SH","state_name":"Schleswig-Holstein","country_id":82,"country_code":"DE","country_name":"Germany","latitude":"53.89199000","longitude":"9.25301000","wikiDataId":"Q32278417"},{"id":28878,"Name":"Sankt Michaelisdonn","state_id":3005,"state_code":"SH","state_name":"Schleswig-Holstein","country_id":82,"country_code":"DE","country_name":"Germany","latitude":"53.98333000","longitude":"9.11667000","wikiDataId":"Q528499"},{"id":28881,"Name":"Sankt Peter-Ording","state_id":3005,"state_code":"SH","state_name":"Schleswig-Holstein","country_id":82,"country_code":"DE","country_name":"Germany","latitude":"54.30363000","longitude":"8.64138000","wikiDataId":"Q20749"},{"id":28892,"Name":"Satrup","state_id":3005,"state_code":"SH","state_name":"Schleswig-Holstein","country_id":82,"country_code":"DE","country_name":"Germany","latitude":"54.69237000","longitude":"9.60549000","wikiDataId":"Q552908"},{"id":28902,"Name":"Schaalby","state_id":3005,"state_code":"SH","state_name":"Schleswig-Holstein","country_id":82,"country_code":"DE","country_name":"Germany","latitude":"54.55000000","longitude":"9.63333000","wikiDataId":"Q568952"},{"id":28903,"Name":"Schacht-Audorf","state_id":3005,"state_code":"SH","state_name":"Schleswig-Holstein","country_id":82,"country_code":"DE","country_name":"Germany","latitude":"54.31282000","longitude":"9.71586000","wikiDataId":"Q568952"},{"id":28904,"Name":"Schafflund","state_id":3005,"state_code":"SH","state_name":"Schleswig-Holstein","country_id":82,"country_code":"DE","country_name":"Germany","latitude":"54.75845000","longitude":"9.18329000","wikiDataId":"Q551483"},{"id":28910,"Name":"Scharbeutz","state_id":3005,"state_code":"SH","state_name":"Schleswig-Holstein","country_id":82,"country_code":"DE","country_name":"Germany","latitude":"54.03333000","longitude":"10.75000000","wikiDataId":"Q541628"},{"id":28913,"Name":"Schashagen","state_id":3005,"state_code":"SH","state_name":"Schleswig-Holstein","country_id":82,"country_code":"DE","country_name":"Germany","latitude":"54.13333000","longitude":"10.88333000","wikiDataId":"Q632660"},{"id":28927,"Name":"Schellhorn","state_id":3005,"state_code":"SH","state_name":"Schleswig-Holstein","country_id":82,"country_code":"DE","country_name":"Germany","latitude":"54.22952000","longitude":"10.29402000","wikiDataId":"Q694793"},{"id":28928,"Name":"Schenefeld","state_id":3005,"state_code":"SH","state_name":"Schleswig-Holstein","country_id":82,"country_code":"DE","country_name":"Germany","latitude":"54.05000000","longitude":"9.48333000","wikiDataId":"Q682133"},{"id":28972,"Name":"Schleswig","state_id":3005,"state_code":"SH","state_name":"Schleswig-Holstein","country_id":82,"country_code":"DE","country_name":"Germany","latitude":"54.52156000","longitude":"9.55860000","wikiDataId":"Q506738"},{"id":28986,"Name":"Schmalfeld","state_id":3005,"state_code":"SH","state_name":"Schleswig-Holstein","country_id":82,"country_code":"DE","country_name":"Germany","latitude":"53.88333000","longitude":"9.96667000","wikiDataId":"Q515958"},{"id":29011,"Name":"Schobüll","state_id":3005,"state_code":"SH","state_name":"Schleswig-Holstein","country_id":82,"country_code":"DE","country_name":"Germany","latitude":"54.50920000","longitude":"9.00621000","wikiDataId":"Q317644"},{"id":29111,"Name":"Schönberg","state_id":3005,"state_code":"SH","state_name":"Schleswig-Holstein","country_id":82,"country_code":"DE","country_name":"Germany","latitude":"53.68319000","longitude":"10.42671000","wikiDataId":"Q503163"},{"id":29128,"Name":"Schönkirchen","state_id":3005,"state_code":"SH","state_name":"Schleswig-Holstein","country_id":82,"country_code":"DE","country_name":"Germany","latitude":"54.33333000","longitude":"10.23333000","wikiDataId":"Q505736"},{"id":29134,"Name":"Schönwalde am Bungsberg","state_id":3005,"state_code":"SH","state_name":"Schleswig-Holstein","country_id":82,"country_code":"DE","country_name":"Germany","latitude":"54.18333000","longitude":"10.75000000","wikiDataId":"Q82920"},{"id":29034,"Name":"Schuby","state_id":3005,"state_code":"SH","state_name":"Schleswig-Holstein","country_id":82,"country_code":"DE","country_name":"Germany","latitude":"54.51667000","longitude":"9.48333000","wikiDataId":"Q561176"},{"id":29137,"Name":"Schülp","state_id":3005,"state_code":"SH","state_name":"Schleswig-Holstein","country_id":82,"country_code":"DE","country_name":"Germany","latitude":"54.25896000","longitude":"9.63034000","wikiDataId":"Q49289366"},{"id":29044,"Name":"Schwabstedt","state_id":3005,"state_code":"SH","state_name":"Schleswig-Holstein","country_id":82,"country_code":"DE","country_name":"Germany","latitude":"54.39705000","longitude":"9.18646000","wikiDataId":"Q28050"},{"id":29069,"Name":"Schwarzenbek","state_id":3005,"state_code":"SH","state_name":"Schleswig-Holstein","country_id":82,"country_code":"DE","country_name":"Germany","latitude":"53.50303000","longitude":"10.48055000","wikiDataId":"Q569643"},{"id":29149,"Name":"Seedorf","state_id":3005,"state_code":"SH","state_name":"Schleswig-Holstein","country_id":82,"country_code":"DE","country_name":"Germany","latitude":"54.05000000","longitude":"10.41667000","wikiDataId":"Q701125"},{"id":29178,"Name":"Selent","state_id":3005,"state_code":"SH","state_name":"Schleswig-Holstein","country_id":82,"country_code":"DE","country_name":"Germany","latitude":"54.28893000","longitude":"10.42702000","wikiDataId":"Q631654"},{"id":29197,"Name":"Seth","state_id":3005,"state_code":"SH","state_name":"Schleswig-Holstein","country_id":82,"country_code":"DE","country_name":"Germany","latitude":"53.84718000","longitude":"10.17421000","wikiDataId":"Q61709"},{"id":29216,"Name":"Siek","state_id":3005,"state_code":"SH","state_name":"Schleswig-Holstein","country_id":82,"country_code":"DE","country_name":"Germany","latitude":"53.63333000","longitude":"10.30000000","wikiDataId":"Q669139"},{"id":29219,"Name":"Sierksdorf","state_id":3005,"state_code":"SH","state_name":"Schleswig-Holstein","country_id":82,"country_code":"DE","country_name":"Germany","latitude":"54.06667000","longitude":"10.76667000","wikiDataId":"Q629468"},{"id":29223,"Name":"Sievershütten","state_id":3005,"state_code":"SH","state_name":"Schleswig-Holstein","country_id":82,"country_code":"DE","country_name":"Germany","latitude":"53.84238000","longitude":"10.11216000","wikiDataId":"Q554102"},{"id":29224,"Name":"Sieverstedt","state_id":3005,"state_code":"SH","state_name":"Schleswig-Holstein","country_id":82,"country_code":"DE","country_name":"Germany","latitude":"54.64145000","longitude":"9.46949000","wikiDataId":"Q551167"},{"id":29229,"Name":"Silberstedt","state_id":3005,"state_code":"SH","state_name":"Schleswig-Holstein","country_id":82,"country_code":"DE","country_name":"Germany","latitude":"54.51667000","longitude":"9.38333000","wikiDataId":"Q556887"},{"id":29496,"Name":"Sörup","state_id":3005,"state_code":"SH","state_name":"Schleswig-Holstein","country_id":82,"country_code":"DE","country_name":"Germany","latitude":"54.71667000","longitude":"9.66667000","wikiDataId":"Q638417"},{"id":29332,"Name":"Stadum","state_id":3005,"state_code":"SH","state_name":"Schleswig-Holstein","country_id":82,"country_code":"DE","country_name":"Germany","latitude":"54.73333000","longitude":"9.05000000","wikiDataId":"Q427292"},{"id":29340,"Name":"Stapelfeld","state_id":3005,"state_code":"SH","state_name":"Schleswig-Holstein","country_id":82,"country_code":"DE","country_name":"Germany","latitude":"53.60000000","longitude":"10.21667000","wikiDataId":"Q700505"},{"id":29367,"Name":"Steinberg","state_id":3005,"state_code":"SH","state_name":"Schleswig-Holstein","country_id":82,"country_code":"DE","country_name":"Germany","latitude":"54.76667000","longitude":"9.78333000","wikiDataId":"Q622573"},{"id":29368,"Name":"Steinbergkirche","state_id":3005,"state_code":"SH","state_name":"Schleswig-Holstein","country_id":82,"country_code":"DE","country_name":"Germany","latitude":"54.75463000","longitude":"9.76069000","wikiDataId":"Q556975"},{"id":29403,"Name":"Sterup","state_id":3005,"state_code":"SH","state_name":"Schleswig-Holstein","country_id":82,"country_code":"DE","country_name":"Germany","latitude":"54.72650000","longitude":"9.73572000","wikiDataId":"Q80526"},{"id":29411,"Name":"Stockelsdorf","state_id":3005,"state_code":"SH","state_name":"Schleswig-Holstein","country_id":82,"country_code":"DE","country_name":"Germany","latitude":"53.89220000","longitude":"10.64713000","wikiDataId":"Q551818"},{"id":29418,"Name":"Stolpe","state_id":3005,"state_code":"SH","state_name":"Schleswig-Holstein","country_id":82,"country_code":"DE","country_name":"Germany","latitude":"54.13333000","longitude":"10.21667000","wikiDataId":"Q57955"},{"id":29426,"Name":"Strande","state_id":3005,"state_code":"SH","state_name":"Schleswig-Holstein","country_id":82,"country_code":"DE","country_name":"Germany","latitude":"54.43333000","longitude":"10.16667000","wikiDataId":"Q561233"},{"id":29439,"Name":"Struvenhütten","state_id":3005,"state_code":"SH","state_name":"Schleswig-Holstein","country_id":82,"country_code":"DE","country_name":"Germany","latitude":"53.86667000","longitude":"10.05000000","wikiDataId":"Q8244"},{"id":29497,"Name":"Süderbrarup","state_id":3005,"state_code":"SH","state_name":"Schleswig-Holstein","country_id":82,"country_code":"DE","country_name":"Germany","latitude":"54.63333000","longitude":"9.78333000","wikiDataId":"Q559153"},{"id":29499,"Name":"Süderlügum","state_id":3005,"state_code":"SH","state_name":"Schleswig-Holstein","country_id":82,"country_code":"DE","country_name":"Germany","latitude":"54.87391000","longitude":"8.91111000","wikiDataId":"Q559482"},{"id":29500,"Name":"Süderstapel","state_id":3005,"state_code":"SH","state_name":"Schleswig-Holstein","country_id":82,"country_code":"DE","country_name":"Germany","latitude":"54.34967000","longitude":"9.21907000","wikiDataId":"Q556021"},{"id":29502,"Name":"Sülfeld","state_id":3005,"state_code":"SH","state_name":"Schleswig-Holstein","country_id":82,"country_code":"DE","country_name":"Germany","latitude":"53.80000000","longitude":"10.23333000","wikiDataId":"Q528761"},{"id":29507,"Name":"Süsel","state_id":3005,"state_code":"SH","state_name":"Schleswig-Holstein","country_id":82,"country_code":"DE","country_name":"Germany","latitude":"54.08135000","longitude":"10.70172000","wikiDataId":"Q554068"},{"id":29487,"Name":"Sylt-Ost","state_id":3005,"state_code":"SH","state_name":"Schleswig-Holstein","country_id":82,"country_code":"DE","country_name":"Germany","latitude":"54.86110000","longitude":"8.41141000","wikiDataId":"Q697215"},{"id":29519,"Name":"Tangstedt","state_id":3005,"state_code":"SH","state_name":"Schleswig-Holstein","country_id":82,"country_code":"DE","country_name":"Germany","latitude":"53.73333000","longitude":"10.08333000","wikiDataId":"Q498565"},{"id":29531,"Name":"Tarp","state_id":3005,"state_code":"SH","state_name":"Schleswig-Holstein","country_id":82,"country_code":"DE","country_name":"Germany","latitude":"54.66667000","longitude":"9.40000000","wikiDataId":"Q504760"},{"id":29532,"Name":"Tating","state_id":3005,"state_code":"SH","state_name":"Schleswig-Holstein","country_id":82,"country_code":"DE","country_name":"Germany","latitude":"54.32607000","longitude":"8.70802000","wikiDataId":"Q27313"},{"id":29553,"Name":"Tellingstedt","state_id":3005,"state_code":"SH","state_name":"Schleswig-Holstein","country_id":82,"country_code":"DE","country_name":"Germany","latitude":"54.21667000","longitude":"9.28333000","wikiDataId":"Q550433"},{"id":29613,"Name":"Timmaspe","state_id":3005,"state_code":"SH","state_name":"Schleswig-Holstein","country_id":82,"country_code":"DE","country_name":"Germany","latitude":"54.13967000","longitude":"9.89430000","wikiDataId":"Q328672"},{"id":29614,"Name":"Timmendorfer Strand","state_id":3005,"state_code":"SH","state_name":"Schleswig-Holstein","country_id":82,"country_code":"DE","country_name":"Germany","latitude":"53.99530000","longitude":"10.77676000","wikiDataId":"Q541750"},{"id":29616,"Name":"Tinnum","state_id":3005,"state_code":"SH","state_name":"Schleswig-Holstein","country_id":82,"country_code":"DE","country_name":"Germany","latitude":"54.89932000","longitude":"8.33476000","wikiDataId":"Q20646"},{"id":29623,"Name":"Todenbüttel","state_id":3005,"state_code":"SH","state_name":"Schleswig-Holstein","country_id":82,"country_code":"DE","country_name":"Germany","latitude":"54.13333000","longitude":"9.55000000","wikiDataId":"Q200076"},{"id":29624,"Name":"Todendorf","state_id":3005,"state_code":"SH","state_name":"Schleswig-Holstein","country_id":82,"country_code":"DE","country_name":"Germany","latitude":"53.69461000","longitude":"10.34781000","wikiDataId":"Q200076"},{"id":29625,"Name":"Todesfelde","state_id":3005,"state_code":"SH","state_name":"Schleswig-Holstein","country_id":82,"country_code":"DE","country_name":"Germany","latitude":"53.90000000","longitude":"10.18333000","wikiDataId":"Q200076"},{"id":29629,"Name":"Tolk","state_id":3005,"state_code":"SH","state_name":"Schleswig-Holstein","country_id":82,"country_code":"DE","country_name":"Germany","latitude":"54.57987000","longitude":"9.63844000","wikiDataId":"Q61665"},{"id":29702,"Name":"Tönning","state_id":3005,"state_code":"SH","state_name":"Schleswig-Holstein","country_id":82,"country_code":"DE","country_name":"Germany","latitude":"54.31879000","longitude":"8.94234000","wikiDataId":"Q21018"},{"id":29634,"Name":"Tornesch","state_id":3005,"state_code":"SH","state_name":"Schleswig-Holstein","country_id":82,"country_code":"DE","country_name":"Germany","latitude":"53.70000000","longitude":"9.71667000","wikiDataId":"Q504812"},{"id":29640,"Name":"Trappenkamp","state_id":3005,"state_code":"SH","state_name":"Schleswig-Holstein","country_id":82,"country_code":"DE","country_name":"Germany","latitude":"54.03988000","longitude":"10.21496000","wikiDataId":"Q549151"},{"id":29647,"Name":"Travemünde","state_id":3005,"state_code":"SH","state_name":"Schleswig-Holstein","country_id":82,"country_code":"DE","country_name":"Germany","latitude":"53.96304000","longitude":"10.87090000","wikiDataId":"Q321792"},{"id":29657,"Name":"Treia","state_id":3005,"state_code":"SH","state_name":"Schleswig-Holstein","country_id":82,"country_code":"DE","country_name":"Germany","latitude":"54.50000000","longitude":"9.31667000","wikiDataId":"Q546754"},{"id":29659,"Name":"Tremsbüttel","state_id":3005,"state_code":"SH","state_name":"Schleswig-Holstein","country_id":82,"country_code":"DE","country_name":"Germany","latitude":"53.74384000","longitude":"10.31024000","wikiDataId":"Q377818"},{"id":29674,"Name":"Trittau","state_id":3005,"state_code":"SH","state_name":"Schleswig-Holstein","country_id":82,"country_code":"DE","country_name":"Germany","latitude":"53.61667000","longitude":"10.40000000","wikiDataId":"Q511820"},{"id":29710,"Name":"Tüttendorf","state_id":3005,"state_code":"SH","state_name":"Schleswig-Holstein","country_id":82,"country_code":"DE","country_name":"Germany","latitude":"54.40000000","longitude":"10.00000000","wikiDataId":"Q2194016"},{"id":29727,"Name":"Uetersen","state_id":3005,"state_code":"SH","state_name":"Schleswig-Holstein","country_id":82,"country_code":"DE","country_name":"Germany","latitude":"53.68769000","longitude":"9.66394000","wikiDataId":"Q1404"},{"id":29806,"Name":"Vaale","state_id":3005,"state_code":"SH","state_name":"Schleswig-Holstein","country_id":82,"country_code":"DE","country_name":"Germany","latitude":"54.00000000","longitude":"9.38333000","wikiDataId":"Q518981"},{"id":29862,"Name":"Viöl","state_id":3005,"state_code":"SH","state_name":"Schleswig-Holstein","country_id":82,"country_code":"DE","country_name":"Germany","latitude":"54.56667000","longitude":"9.18333000","wikiDataId":"Q573073"},{"id":29895,"Name":"Waabs","state_id":3005,"state_code":"SH","state_name":"Schleswig-Holstein","country_id":82,"country_code":"DE","country_name":"Germany","latitude":"54.53333000","longitude":"9.98333000","wikiDataId":"Q180480"},{"id":29905,"Name":"Wacken","state_id":3005,"state_code":"SH","state_name":"Schleswig-Holstein","country_id":82,"country_code":"DE","country_name":"Germany","latitude":"54.02078000","longitude":"9.37597000","wikiDataId":"Q243139"},{"id":29919,"Name":"Wahlstedt","state_id":3005,"state_code":"SH","state_name":"Schleswig-Holstein","country_id":82,"country_code":"DE","country_name":"Germany","latitude":"53.95161000","longitude":"10.20626000","wikiDataId":"Q536506"},{"id":29998,"Name":"Wanderup","state_id":3005,"state_code":"SH","state_name":"Schleswig-Holstein","country_id":82,"country_code":"DE","country_name":"Germany","latitude":"54.68333000","longitude":"9.33333000","wikiDataId":"Q705011"},{"id":30003,"Name":"Wangels","state_id":3005,"state_code":"SH","state_name":"Schleswig-Holstein","country_id":82,"country_code":"DE","country_name":"Germany","latitude":"54.26667000","longitude":"10.76667000","wikiDataId":"Q526784"},{"id":30006,"Name":"Wankendorf","state_id":3005,"state_code":"SH","state_name":"Schleswig-Holstein","country_id":82,"country_code":"DE","country_name":"Germany","latitude":"54.11224000","longitude":"10.20546000","wikiDataId":"Q378474"},{"id":30028,"Name":"Wasbek","state_id":3005,"state_code":"SH","state_name":"Schleswig-Holstein","country_id":82,"country_code":"DE","country_name":"Germany","latitude":"54.07427000","longitude":"9.89738000","wikiDataId":"Q510064"},{"id":30040,"Name":"Wattenbek","state_id":3005,"state_code":"SH","state_name":"Schleswig-Holstein","country_id":82,"country_code":"DE","country_name":"Germany","latitude":"54.16667000","longitude":"10.05000000","wikiDataId":"Q557131"},{"id":30046,"Name":"Weddelbrook","state_id":3005,"state_code":"SH","state_name":"Schleswig-Holstein","country_id":82,"country_code":"DE","country_name":"Germany","latitude":"53.90000000","longitude":"9.83333000","wikiDataId":"Q71060"},{"id":30049,"Name":"Weddingstedt","state_id":3005,"state_code":"SH","state_name":"Schleswig-Holstein","country_id":82,"country_code":"DE","country_name":"Germany","latitude":"54.23428000","longitude":"9.09103000","wikiDataId":"Q222600"},{"id":30050,"Name":"Wedel","state_id":3005,"state_code":"SH","state_name":"Schleswig-Holstein","country_id":82,"country_code":"DE","country_name":"Germany","latitude":"53.58374000","longitude":"9.69835000","wikiDataId":"Q4356"},{"id":30052,"Name":"Wees","state_id":3005,"state_code":"SH","state_name":"Schleswig-Holstein","country_id":82,"country_code":"DE","country_name":"Germany","latitude":"54.80621000","longitude":"9.51695000","wikiDataId":"Q504533"},{"id":30160,"Name":"Wendtorf","state_id":3005,"state_code":"SH","state_name":"Schleswig-Holstein","country_id":82,"country_code":"DE","country_name":"Germany","latitude":"54.41212000","longitude":"10.28952000","wikiDataId":"Q638281"},{"id":30163,"Name":"Wentorf bei Hamburg","state_id":3005,"state_code":"SH","state_name":"Schleswig-Holstein","country_id":82,"country_code":"DE","country_name":"Germany","latitude":"53.50000000","longitude":"10.25000000","wikiDataId":"Q552545"},{"id":30195,"Name":"Wesselburen","state_id":3005,"state_code":"SH","state_name":"Schleswig-Holstein","country_id":82,"country_code":"DE","country_name":"Germany","latitude":"54.21217000","longitude":"8.92419000","wikiDataId":"Q518460"},{"id":30197,"Name":"Wesseln","state_id":3005,"state_code":"SH","state_name":"Schleswig-Holstein","country_id":82,"country_code":"DE","country_name":"Germany","latitude":"54.20985000","longitude":"9.07644000","wikiDataId":"Q14956"},{"id":30202,"Name":"Westensee","state_id":3005,"state_code":"SH","state_name":"Schleswig-Holstein","country_id":82,"country_code":"DE","country_name":"Germany","latitude":"54.27452000","longitude":"9.89584000","wikiDataId":"Q549052"},{"id":30203,"Name":"Wester-Ohrstedt","state_id":3005,"state_code":"SH","state_name":"Schleswig-Holstein","country_id":82,"country_code":"DE","country_name":"Germany","latitude":"54.50796000","longitude":"9.18574000","wikiDataId":"Q572982"},{"id":30211,"Name":"Westerhorn","state_id":3005,"state_code":"SH","state_name":"Schleswig-Holstein","country_id":82,"country_code":"DE","country_name":"Germany","latitude":"53.85711000","longitude":"9.67959000","wikiDataId":"Q676164"},{"id":30213,"Name":"Westerland","state_id":3005,"state_code":"SH","state_name":"Schleswig-Holstein","country_id":82,"country_code":"DE","country_name":"Germany","latitude":"54.90790000","longitude":"8.30326000","wikiDataId":"Q27998"},{"id":30214,"Name":"Westerrönfeld","state_id":3005,"state_code":"SH","state_name":"Schleswig-Holstein","country_id":82,"country_code":"DE","country_name":"Germany","latitude":"54.28333000","longitude":"9.65000000","wikiDataId":"Q632121"},{"id":30231,"Name":"Wewelsfleth","state_id":3005,"state_code":"SH","state_name":"Schleswig-Holstein","country_id":82,"country_code":"DE","country_name":"Germany","latitude":"53.85000000","longitude":"9.40000000","wikiDataId":"Q556213"},{"id":30248,"Name":"Wiemersdorf","state_id":3005,"state_code":"SH","state_name":"Schleswig-Holstein","country_id":82,"country_code":"DE","country_name":"Germany","latitude":"53.95815000","longitude":"9.90297000","wikiDataId":"Q11043"},{"id":30303,"Name":"Wilster","state_id":3005,"state_code":"SH","state_name":"Schleswig-Holstein","country_id":82,"country_code":"DE","country_name":"Germany","latitude":"53.92253000","longitude":"9.37465000","wikiDataId":"Q506560"},{"id":30312,"Name":"Windeby","state_id":3005,"state_code":"SH","state_name":"Schleswig-Holstein","country_id":82,"country_code":"DE","country_name":"Germany","latitude":"54.46667000","longitude":"9.81667000","wikiDataId":"Q552810"},{"id":30368,"Name":"Witzhave","state_id":3005,"state_code":"SH","state_name":"Schleswig-Holstein","country_id":82,"country_code":"DE","country_name":"Germany","latitude":"53.56667000","longitude":"10.33333000","wikiDataId":"Q564827"},{"id":30371,"Name":"Wohltorf","state_id":3005,"state_code":"SH","state_name":"Schleswig-Holstein","country_id":82,"country_code":"DE","country_name":"Germany","latitude":"53.51667000","longitude":"10.28333000","wikiDataId":"Q555867"},{"id":30438,"Name":"Wöhrden","state_id":3005,"state_code":"SH","state_name":"Schleswig-Holstein","country_id":82,"country_code":"DE","country_name":"Germany","latitude":"54.16667000","longitude":"9.00000000","wikiDataId":"Q549022"},{"id":30412,"Name":"Wrist","state_id":3005,"state_code":"SH","state_name":"Schleswig-Holstein","country_id":82,"country_code":"DE","country_name":"Germany","latitude":"53.93333000","longitude":"9.76667000","wikiDataId":"Q588598"},{"id":30435,"Name":"Wyk auf Föhr","state_id":3005,"state_code":"SH","state_name":"Schleswig-Holstein","country_id":82,"country_code":"DE","country_name":"Germany","latitude":"54.69140000","longitude":"8.56702000","wikiDataId":"Q20771"},{"id":30471,"Name":"Zarpen","state_id":3005,"state_code":"SH","state_name":"Schleswig-Holstein","country_id":82,"country_code":"DE","country_name":"Germany","latitude":"53.86667000","longitude":"10.51667000","wikiDataId":"Q148045"}]