[{"id":85819,"Name":"Baćkowice","state_id":1630,"state_code":"SK","state_name":"Świętokrzyskie Voivodeship","country_id":176,"country_code":"PL","country_name":"Poland","latitude":"50.79194000","longitude":"21.23211000","wikiDataId":"Q2185382"},{"id":85820,"Name":"Bałtów","state_id":1630,"state_code":"SK","state_name":"Świętokrzyskie Voivodeship","country_id":176,"country_code":"PL","country_name":"Poland","latitude":"51.01845000","longitude":"21.54385000","wikiDataId":"Q2185382"},{"id":85823,"Name":"Bejsce","state_id":1630,"state_code":"SK","state_name":"Świętokrzyskie Voivodeship","country_id":176,"country_code":"PL","country_name":"Poland","latitude":"50.23903000","longitude":"20.59834000","wikiDataId":"Q554433"},{"id":85858,"Name":"Bieliny","state_id":1630,"state_code":"SK","state_name":"Świętokrzyskie Voivodeship","country_id":176,"country_code":"PL","country_name":"Poland","latitude":"50.84947000","longitude":"20.94149000","wikiDataId":"Q553647"},{"id":85883,"Name":"Bliżyn","state_id":1630,"state_code":"SK","state_name":"Świętokrzyskie Voivodeship","country_id":176,"country_code":"PL","country_name":"Poland","latitude":"51.10778000","longitude":"20.75935000","wikiDataId":"Q3913984"},{"id":85894,"Name":"Bodzentyn","state_id":1630,"state_code":"SK","state_name":"Świętokrzyskie Voivodeship","country_id":176,"country_code":"PL","country_name":"Poland","latitude":"50.94115000","longitude":"20.95719000","wikiDataId":"Q890126"},{"id":85897,"Name":"Bogoria","state_id":1630,"state_code":"SK","state_name":"Świętokrzyskie Voivodeship","country_id":176,"country_code":"PL","country_name":"Poland","latitude":"50.65175000","longitude":"21.26000000","wikiDataId":"Q553664"},{"id":85945,"Name":"Brody","state_id":1630,"state_code":"SK","state_name":"Świętokrzyskie Voivodeship","country_id":176,"country_code":"PL","country_name":"Poland","latitude":"51.02466000","longitude":"21.22147000","wikiDataId":"Q554042"},{"id":85963,"Name":"Brzeziny","state_id":1630,"state_code":"SK","state_name":"Świętokrzyskie Voivodeship","country_id":176,"country_code":"PL","country_name":"Poland","latitude":"50.77273000","longitude":"20.57319000","wikiDataId":"Q4981351"},{"id":85996,"Name":"Busko-Zdrój","state_id":1630,"state_code":"SK","state_name":"Świętokrzyskie Voivodeship","country_id":176,"country_code":"PL","country_name":"Poland","latitude":"50.47078000","longitude":"20.71884000","wikiDataId":"Q256782"},{"id":86073,"Name":"Chęciny","state_id":1630,"state_code":"SK","state_name":"Świętokrzyskie Voivodeship","country_id":176,"country_code":"PL","country_name":"Poland","latitude":"50.80021000","longitude":"20.46229000","wikiDataId":"Q991924"},{"id":86034,"Name":"Chmielnik","state_id":1630,"state_code":"SK","state_name":"Świętokrzyskie Voivodeship","country_id":176,"country_code":"PL","country_name":"Poland","latitude":"50.61440000","longitude":"20.75206000","wikiDataId":"Q648400"},{"id":88754,"Name":"Ćmielów","state_id":1630,"state_code":"SK","state_name":"Świętokrzyskie Voivodeship","country_id":176,"country_code":"PL","country_name":"Poland","latitude":"50.89028000","longitude":"21.51426000","wikiDataId":"Q336448"},{"id":86113,"Name":"Czarnocin","state_id":1630,"state_code":"SK","state_name":"Świętokrzyskie Voivodeship","country_id":176,"country_code":"PL","country_name":"Poland","latitude":"50.34080000","longitude":"20.51620000","wikiDataId":"Q554687"},{"id":86154,"Name":"Daleszyce","state_id":1630,"state_code":"SK","state_name":"Świętokrzyskie Voivodeship","country_id":176,"country_code":"PL","country_name":"Poland","latitude":"50.80229000","longitude":"20.80791000","wikiDataId":"Q2507925"},{"id":86186,"Name":"Domaszowice","state_id":1630,"state_code":"SK","state_name":"Świętokrzyskie Voivodeship","country_id":176,"country_code":"PL","country_name":"Poland","latitude":"50.87488000","longitude":"20.68288000","wikiDataId":"Q5289946"},{"id":86210,"Name":"Dwikozy","state_id":1630,"state_code":"SK","state_name":"Świętokrzyskie Voivodeship","country_id":176,"country_code":"PL","country_name":"Poland","latitude":"50.73613000","longitude":"21.78864000","wikiDataId":"Q2500949"},{"id":86217,"Name":"Działoszyce","state_id":1630,"state_code":"SK","state_name":"Świętokrzyskie Voivodeship","country_id":176,"country_code":"PL","country_name":"Poland","latitude":"50.36534000","longitude":"20.35226000","wikiDataId":"Q571185"},{"id":86268,"Name":"Fałków","state_id":1630,"state_code":"SK","state_name":"Świętokrzyskie Voivodeship","country_id":176,"country_code":"PL","country_name":"Poland","latitude":"51.13606000","longitude":"20.10610000","wikiDataId":"Q2968453"},{"id":86316,"Name":"Gnojno","state_id":1630,"state_code":"SK","state_name":"Świętokrzyskie Voivodeship","country_id":176,"country_code":"PL","country_name":"Poland","latitude":"50.60263000","longitude":"20.84913000","wikiDataId":"Q553519"},{"id":86415,"Name":"Górno","state_id":1630,"state_code":"SK","state_name":"Świętokrzyskie Voivodeship","country_id":176,"country_code":"PL","country_name":"Poland","latitude":"50.84774000","longitude":"20.82501000","wikiDataId":"Q2350655"},{"id":86350,"Name":"Gowarczów","state_id":1630,"state_code":"SK","state_name":"Świętokrzyskie Voivodeship","country_id":176,"country_code":"PL","country_name":"Poland","latitude":"51.27845000","longitude":"20.43835000","wikiDataId":"Q1993160"},{"id":86396,"Name":"Grzybowa Góra","state_id":1630,"state_code":"SK","state_name":"Świętokrzyskie Voivodeship","country_id":176,"country_code":"PL","country_name":"Poland","latitude":"51.13326000","longitude":"20.96174000","wikiDataId":"Q2854775"},{"id":86458,"Name":"Imielno","state_id":1630,"state_code":"SK","state_name":"Świętokrzyskie Voivodeship","country_id":176,"country_code":"PL","country_name":"Poland","latitude":"50.58569000","longitude":"20.44813000","wikiDataId":"Q673431"},{"id":86463,"Name":"Iwaniska","state_id":1630,"state_code":"SK","state_name":"Świętokrzyskie Voivodeship","country_id":176,"country_code":"PL","country_name":"Poland","latitude":"50.73146000","longitude":"21.28060000","wikiDataId":"Q2781592"},{"id":86578,"Name":"Jędrzejów","state_id":1630,"state_code":"SK","state_name":"Świętokrzyskie Voivodeship","country_id":176,"country_code":"PL","country_name":"Poland","latitude":"50.63945000","longitude":"20.30454000","wikiDataId":"Q554427"},{"id":86607,"Name":"Kaniów","state_id":1630,"state_code":"SK","state_name":"Świętokrzyskie Voivodeship","country_id":176,"country_code":"PL","country_name":"Poland","latitude":"50.98577000","longitude":"20.66391000","wikiDataId":"Q642416"},{"id":86627,"Name":"Kazimierza Wielka","state_id":1630,"state_code":"SK","state_name":"Świętokrzyskie Voivodeship","country_id":176,"country_code":"PL","country_name":"Poland","latitude":"50.26564000","longitude":"20.49358000","wikiDataId":"Q1406641"},{"id":86633,"Name":"Kielce","state_id":1630,"state_code":"SK","state_name":"Świętokrzyskie Voivodeship","country_id":176,"country_code":"PL","country_name":"Poland","latitude":"50.87033000","longitude":"20.62752000","wikiDataId":"Q102317"},{"id":86638,"Name":"Kije","state_id":1630,"state_code":"SK","state_name":"Świętokrzyskie Voivodeship","country_id":176,"country_code":"PL","country_name":"Poland","latitude":"50.60721000","longitude":"20.57121000","wikiDataId":"Q553284"},{"id":86650,"Name":"Klimontów","state_id":1630,"state_code":"SK","state_name":"Świętokrzyskie Voivodeship","country_id":176,"country_code":"PL","country_name":"Poland","latitude":"50.65588000","longitude":"21.45587000","wikiDataId":"Q567380"},{"id":86750,"Name":"Końskie","state_id":1630,"state_code":"SK","state_name":"Świętokrzyskie Voivodeship","country_id":176,"country_code":"PL","country_name":"Poland","latitude":"51.19166000","longitude":"20.40607000","wikiDataId":"Q555607"},{"id":86699,"Name":"Koprzywnica","state_id":1630,"state_code":"SK","state_name":"Świętokrzyskie Voivodeship","country_id":176,"country_code":"PL","country_name":"Poland","latitude":"50.59340000","longitude":"21.58380000","wikiDataId":"Q991929"},{"id":86712,"Name":"Kostomłoty Drugie","state_id":1630,"state_code":"SK","state_name":"Świętokrzyskie Voivodeship","country_id":176,"country_code":"PL","country_name":"Poland","latitude":"50.92684000","longitude":"20.56529000","wikiDataId":"Q2196670"},{"id":86713,"Name":"Kostomłoty Pierwsze","state_id":1630,"state_code":"SK","state_name":"Świętokrzyskie Voivodeship","country_id":176,"country_code":"PL","country_name":"Poland","latitude":"50.92322000","longitude":"20.59490000","wikiDataId":"Q2788086"},{"id":86774,"Name":"Krasocin","state_id":1630,"state_code":"SK","state_name":"Świętokrzyskie Voivodeship","country_id":176,"country_code":"PL","country_name":"Poland","latitude":"50.88874000","longitude":"20.11863000","wikiDataId":"Q2833245"},{"id":86839,"Name":"Kunów","state_id":1630,"state_code":"SK","state_name":"Świętokrzyskie Voivodeship","country_id":176,"country_code":"PL","country_name":"Poland","latitude":"50.96156000","longitude":"21.28058000","wikiDataId":"Q1025311"},{"id":86916,"Name":"Lipnik","state_id":1630,"state_code":"SK","state_name":"Świętokrzyskie Voivodeship","country_id":176,"country_code":"PL","country_name":"Poland","latitude":"50.72977000","longitude":"21.49389000","wikiDataId":"Q1870708"},{"id":88814,"Name":"Łączna","state_id":1630,"state_code":"SK","state_name":"Świętokrzyskie Voivodeship","country_id":176,"country_code":"PL","country_name":"Poland","latitude":"51.00231000","longitude":"20.79712000","wikiDataId":"Q1921107"},{"id":88759,"Name":"Łagów","state_id":1630,"state_code":"SK","state_name":"Świętokrzyskie Voivodeship","country_id":176,"country_code":"PL","country_name":"Poland","latitude":"50.77517000","longitude":"21.08431000","wikiDataId":"Q2138970"},{"id":88787,"Name":"Łoniów","state_id":1630,"state_code":"SK","state_name":"Świętokrzyskie Voivodeship","country_id":176,"country_code":"PL","country_name":"Poland","latitude":"50.56443000","longitude":"21.52599000","wikiDataId":"Q2127392"},{"id":88791,"Name":"Łopuszno","state_id":1630,"state_code":"SK","state_name":"Świętokrzyskie Voivodeship","country_id":176,"country_code":"PL","country_name":"Poland","latitude":"50.94864000","longitude":"20.25081000","wikiDataId":"Q2475995"},{"id":88798,"Name":"Łubnice","state_id":1630,"state_code":"SK","state_name":"Świętokrzyskie Voivodeship","country_id":176,"country_code":"PL","country_name":"Poland","latitude":"50.41164000","longitude":"21.15014000","wikiDataId":"Q2290091"},{"id":87008,"Name":"Małogoszcz","state_id":1630,"state_code":"SK","state_name":"Świętokrzyskie Voivodeship","country_id":176,"country_code":"PL","country_name":"Poland","latitude":"50.81214000","longitude":"20.26407000","wikiDataId":"Q592809"},{"id":87003,"Name":"Masłów","state_id":1630,"state_code":"SK","state_name":"Świętokrzyskie Voivodeship","country_id":176,"country_code":"PL","country_name":"Poland","latitude":"50.90065000","longitude":"20.72322000","wikiDataId":"Q553392"},{"id":87023,"Name":"Michałów","state_id":1630,"state_code":"SK","state_name":"Świętokrzyskie Voivodeship","country_id":176,"country_code":"PL","country_name":"Poland","latitude":"50.49541000","longitude":"20.46178000","wikiDataId":"Q553593"},{"id":87028,"Name":"Miedziana Góra","state_id":1630,"state_code":"SK","state_name":"Świętokrzyskie Voivodeship","country_id":176,"country_code":"PL","country_name":"Poland","latitude":"50.93680000","longitude":"20.55096000","wikiDataId":"Q2673917"},{"id":87057,"Name":"Mirzec","state_id":1630,"state_code":"SK","state_name":"Świętokrzyskie Voivodeship","country_id":176,"country_code":"PL","country_name":"Poland","latitude":"51.13466000","longitude":"21.05710000","wikiDataId":"Q2619302"},{"id":87079,"Name":"Mniów","state_id":1630,"state_code":"SK","state_name":"Świętokrzyskie Voivodeship","country_id":176,"country_code":"PL","country_name":"Poland","latitude":"51.01224000","longitude":"20.48427000","wikiDataId":"Q2321379"},{"id":87090,"Name":"Morawica","state_id":1630,"state_code":"SK","state_name":"Świętokrzyskie Voivodeship","country_id":176,"country_code":"PL","country_name":"Poland","latitude":"50.74678000","longitude":"20.61756000","wikiDataId":"Q554619"},{"id":87132,"Name":"Nagłowice","state_id":1630,"state_code":"SK","state_name":"Świętokrzyskie Voivodeship","country_id":176,"country_code":"PL","country_name":"Poland","latitude":"50.67835000","longitude":"20.10661000","wikiDataId":"Q2707065"},{"id":87176,"Name":"Nowa Słupia","state_id":1630,"state_code":"SK","state_name":"Świętokrzyskie Voivodeship","country_id":176,"country_code":"PL","country_name":"Poland","latitude":"50.86432000","longitude":"21.09049000","wikiDataId":"Q157190"},{"id":87204,"Name":"Nowy Korczyn","state_id":1630,"state_code":"SK","state_name":"Świętokrzyskie Voivodeship","country_id":176,"country_code":"PL","country_name":"Poland","latitude":"50.30124000","longitude":"20.80759000","wikiDataId":"Q1008390"},{"id":87218,"Name":"Obrazów","state_id":1630,"state_code":"SK","state_name":"Świętokrzyskie Voivodeship","country_id":176,"country_code":"PL","country_name":"Poland","latitude":"50.69276000","longitude":"21.65045000","wikiDataId":"Q936101"},{"id":87235,"Name":"Oksa","state_id":1630,"state_code":"SK","state_name":"Świętokrzyskie Voivodeship","country_id":176,"country_code":"PL","country_name":"Poland","latitude":"50.72874000","longitude":"20.10086000","wikiDataId":"Q1021272"},{"id":87240,"Name":"Oleśnica","state_id":1630,"state_code":"SK","state_name":"Świętokrzyskie Voivodeship","country_id":176,"country_code":"PL","country_name":"Poland","latitude":"50.45357000","longitude":"21.06457000","wikiDataId":"Q2532403"},{"id":87256,"Name":"Opatów","state_id":1630,"state_code":"SK","state_name":"Świętokrzyskie Voivodeship","country_id":176,"country_code":"PL","country_name":"Poland","latitude":"50.80058000","longitude":"21.42538000","wikiDataId":"Q275694"},{"id":87255,"Name":"Opatowiec","state_id":1630,"state_code":"SK","state_name":"Świętokrzyskie Voivodeship","country_id":176,"country_code":"PL","country_name":"Poland","latitude":"50.24314000","longitude":"20.72348000","wikiDataId":"Q553741"},{"id":87282,"Name":"Osiedle-Nowiny","state_id":1630,"state_code":"SK","state_name":"Świętokrzyskie Voivodeship","country_id":176,"country_code":"PL","country_name":"Poland","latitude":"50.81770000","longitude":"20.54117000","wikiDataId":"Q382587"},{"id":87283,"Name":"Osiek","state_id":1630,"state_code":"SK","state_name":"Świętokrzyskie Voivodeship","country_id":176,"country_code":"PL","country_name":"Poland","latitude":"50.51996000","longitude":"21.44192000","wikiDataId":"Q553507"},{"id":87299,"Name":"Ostrowiec Świętokrzyski","state_id":1630,"state_code":"SK","state_name":"Świętokrzyskie Voivodeship","country_id":176,"country_code":"PL","country_name":"Poland","latitude":"50.92936000","longitude":"21.38525000","wikiDataId":"Q730929"},{"id":87327,"Name":"Ożarów","state_id":1630,"state_code":"SK","state_name":"Świętokrzyskie Voivodeship","country_id":176,"country_code":"PL","country_name":"Poland","latitude":"50.88798000","longitude":"21.66658000","wikiDataId":"Q1922317"},{"id":87331,"Name":"Pacanów","state_id":1630,"state_code":"SK","state_name":"Świętokrzyskie Voivodeship","country_id":176,"country_code":"PL","country_name":"Poland","latitude":"50.40031000","longitude":"21.04148000","wikiDataId":"Q455701"},{"id":87360,"Name":"Pawłów","state_id":1630,"state_code":"SK","state_name":"Świętokrzyskie Voivodeship","country_id":176,"country_code":"PL","country_name":"Poland","latitude":"50.96216000","longitude":"21.12062000","wikiDataId":"Q554621"},{"id":87378,"Name":"Piekoszów","state_id":1630,"state_code":"SK","state_name":"Świętokrzyskie Voivodeship","country_id":176,"country_code":"PL","country_name":"Poland","latitude":"50.88035000","longitude":"20.46418000","wikiDataId":"Q831183"},{"id":87381,"Name":"Pierzchnica","state_id":1630,"state_code":"SK","state_name":"Świętokrzyskie Voivodeship","country_id":176,"country_code":"PL","country_name":"Poland","latitude":"50.69754000","longitude":"20.75489000","wikiDataId":"Q554351"},{"id":87405,"Name":"Pińczów","state_id":1630,"state_code":"SK","state_name":"Świętokrzyskie Voivodeship","country_id":176,"country_code":"PL","country_name":"Poland","latitude":"50.52052000","longitude":"20.52649000","wikiDataId":"Q275592"},{"id":87776,"Name":"Połaniec","state_id":1630,"state_code":"SK","state_name":"Świętokrzyskie Voivodeship","country_id":176,"country_code":"PL","country_name":"Poland","latitude":"50.43324000","longitude":"21.28120000","wikiDataId":"Q553287"},{"id":87478,"Name":"Powiat buski","state_id":1630,"state_code":"SK","state_name":"Świętokrzyskie Voivodeship","country_id":176,"country_code":"PL","country_name":"Poland","latitude":"50.45583000","longitude":"20.87624000","wikiDataId":"Q1335648"},{"id":87532,"Name":"Powiat jędrzejowski","state_id":1630,"state_code":"SK","state_name":"Świętokrzyskie Voivodeship","country_id":176,"country_code":"PL","country_name":"Poland","latitude":"50.65676000","longitude":"20.18655000","wikiDataId":"Q1335675"},{"id":87537,"Name":"Powiat kazimierski","state_id":1630,"state_code":"SK","state_name":"Świętokrzyskie Voivodeship","country_id":176,"country_code":"PL","country_name":"Poland","latitude":"50.28811000","longitude":"20.53368000","wikiDataId":"Q1335664"},{"id":87538,"Name":"Powiat kielecki","state_id":1630,"state_code":"SK","state_name":"Świętokrzyskie Voivodeship","country_id":176,"country_code":"PL","country_name":"Poland","latitude":"50.80156000","longitude":"20.63322000","wikiDataId":"Q1335594"},{"id":87543,"Name":"Powiat konecki","state_id":1630,"state_code":"SK","state_name":"Świętokrzyskie Voivodeship","country_id":176,"country_code":"PL","country_name":"Poland","latitude":"51.15145000","longitude":"20.34186000","wikiDataId":"Q1335529"},{"id":87615,"Name":"Powiat opatowski","state_id":1630,"state_code":"SK","state_name":"Świętokrzyskie Voivodeship","country_id":176,"country_code":"PL","country_name":"Poland","latitude":"50.79639000","longitude":"21.44531000","wikiDataId":"Q1144129"},{"id":87619,"Name":"Powiat ostrowiecki","state_id":1630,"state_code":"SK","state_name":"Świętokrzyskie Voivodeship","country_id":176,"country_code":"PL","country_name":"Poland","latitude":"50.94232000","longitude":"21.40739000","wikiDataId":"Q654524"},{"id":87635,"Name":"Powiat pińczowski","state_id":1630,"state_code":"SK","state_name":"Świętokrzyskie Voivodeship","country_id":176,"country_code":"PL","country_name":"Poland","latitude":"50.49968000","longitude":"20.47253000","wikiDataId":"Q119729"},{"id":87667,"Name":"Powiat sandomierski","state_id":1630,"state_code":"SK","state_name":"Świętokrzyskie Voivodeship","country_id":176,"country_code":"PL","country_name":"Poland","latitude":"50.69508000","longitude":"21.60900000","wikiDataId":"Q1144074"},{"id":87674,"Name":"Powiat skarżyski","state_id":1630,"state_code":"SK","state_name":"Świętokrzyskie Voivodeship","country_id":176,"country_code":"PL","country_name":"Poland","latitude":"51.06496000","longitude":"20.79228000","wikiDataId":"Q1436158"},{"id":87680,"Name":"Powiat starachowicki","state_id":1630,"state_code":"SK","state_name":"Świętokrzyskie Voivodeship","country_id":176,"country_code":"PL","country_name":"Poland","latitude":"51.05365000","longitude":"21.14295000","wikiDataId":"Q1553070"},{"id":87683,"Name":"Powiat staszowski","state_id":1630,"state_code":"SK","state_name":"Świętokrzyskie Voivodeship","country_id":176,"country_code":"PL","country_name":"Poland","latitude":"50.51737000","longitude":"21.19594000","wikiDataId":"Q120033"},{"id":87735,"Name":"Powiat włoszczowski","state_id":1630,"state_code":"SK","state_name":"Świętokrzyskie Voivodeship","country_id":176,"country_code":"PL","country_name":"Poland","latitude":"50.83205000","longitude":"19.97696000","wikiDataId":"Q1335517"},{"id":87890,"Name":"Radoszyce","state_id":1630,"state_code":"SK","state_name":"Świętokrzyskie Voivodeship","country_id":176,"country_code":"PL","country_name":"Poland","latitude":"51.07392000","longitude":"20.25836000","wikiDataId":"Q3141156"},{"id":87911,"Name":"Raków","state_id":1630,"state_code":"SK","state_name":"Świętokrzyskie Voivodeship","country_id":176,"country_code":"PL","country_name":"Poland","latitude":"50.67427000","longitude":"21.04517000","wikiDataId":"Q1013344"},{"id":87947,"Name":"Rogów","state_id":1630,"state_code":"SK","state_name":"Świętokrzyskie Voivodeship","country_id":176,"country_code":"PL","country_name":"Poland","latitude":"51.20414000","longitude":"20.43483000","wikiDataId":"Q7359604"},{"id":87970,"Name":"Ruda Maleniecka","state_id":1630,"state_code":"SK","state_name":"Świętokrzyskie Voivodeship","country_id":176,"country_code":"PL","country_name":"Poland","latitude":"51.14592000","longitude":"20.22377000","wikiDataId":"Q557906"},{"id":88014,"Name":"Rytwiany","state_id":1630,"state_code":"SK","state_name":"Świętokrzyskie Voivodeship","country_id":176,"country_code":"PL","country_name":"Poland","latitude":"50.52920000","longitude":"21.20636000","wikiDataId":"Q3079755"},{"id":88043,"Name":"Sadowie","state_id":1630,"state_code":"SK","state_name":"Świętokrzyskie Voivodeship","country_id":176,"country_code":"PL","country_name":"Poland","latitude":"50.85261000","longitude":"21.36884000","wikiDataId":"Q554581"},{"id":88045,"Name":"Samborzec","state_id":1630,"state_code":"SK","state_name":"Świętokrzyskie Voivodeship","country_id":176,"country_code":"PL","country_name":"Poland","latitude":"50.64663000","longitude":"21.64822000","wikiDataId":"Q1861535"},{"id":88046,"Name":"Sandomierz","state_id":1630,"state_code":"SK","state_name":"Świętokrzyskie Voivodeship","country_id":176,"country_code":"PL","country_name":"Poland","latitude":"50.68265000","longitude":"21.74898000","wikiDataId":"Q193177"},{"id":88054,"Name":"Secemin","state_id":1630,"state_code":"SK","state_name":"Świętokrzyskie Voivodeship","country_id":176,"country_code":"PL","country_name":"Poland","latitude":"50.76676000","longitude":"19.83599000","wikiDataId":"Q2459599"},{"id":88328,"Name":"Sędziszów","state_id":1630,"state_code":"SK","state_name":"Świętokrzyskie Voivodeship","country_id":176,"country_code":"PL","country_name":"Poland","latitude":"50.56590000","longitude":"20.05563000","wikiDataId":"Q999607"},{"id":88095,"Name":"Skalbmierz","state_id":1630,"state_code":"SK","state_name":"Świętokrzyskie Voivodeship","country_id":176,"country_code":"PL","country_name":"Poland","latitude":"50.31993000","longitude":"20.39929000","wikiDataId":"Q1813609"},{"id":88100,"Name":"Skarżysko Kościelne","state_id":1630,"state_code":"SK","state_name":"Świętokrzyskie Voivodeship","country_id":176,"country_code":"PL","country_name":"Poland","latitude":"51.13822000","longitude":"20.91196000","wikiDataId":"Q2628735"},{"id":88101,"Name":"Skarżysko-Kamienna","state_id":1630,"state_code":"SK","state_name":"Świętokrzyskie Voivodeship","country_id":176,"country_code":"PL","country_name":"Poland","latitude":"51.11311000","longitude":"20.87162000","wikiDataId":"Q644002"},{"id":88348,"Name":"Słupia","state_id":1630,"state_code":"SK","state_name":"Świętokrzyskie Voivodeship","country_id":176,"country_code":"PL","country_name":"Poland","latitude":"50.60073000","longitude":"19.97435000","wikiDataId":"Q2337969"},{"id":88127,"Name":"Smyków","state_id":1630,"state_code":"SK","state_name":"Świętokrzyskie Voivodeship","country_id":176,"country_code":"PL","country_name":"Poland","latitude":"51.04442000","longitude":"20.40032000","wikiDataId":"Q553610"},{"id":88131,"Name":"Sobków","state_id":1630,"state_code":"SK","state_name":"Świętokrzyskie Voivodeship","country_id":176,"country_code":"PL","country_name":"Poland","latitude":"50.69999000","longitude":"20.45062000","wikiDataId":"Q1950652"},{"id":88144,"Name":"Solec-Zdrój","state_id":1630,"state_code":"SK","state_name":"Świętokrzyskie Voivodeship","country_id":176,"country_code":"PL","country_name":"Poland","latitude":"50.36594000","longitude":"20.88956000","wikiDataId":"Q986121"},{"id":88242,"Name":"Stąporków","state_id":1630,"state_code":"SK","state_name":"Świętokrzyskie Voivodeship","country_id":176,"country_code":"PL","country_name":"Poland","latitude":"51.13762000","longitude":"20.57173000","wikiDataId":"Q553633"},{"id":88179,"Name":"Starachowice","state_id":1630,"state_code":"SK","state_name":"Świętokrzyskie Voivodeship","country_id":176,"country_code":"PL","country_name":"Poland","latitude":"51.03740000","longitude":"21.07126000","wikiDataId":"Q751094"},{"id":88198,"Name":"Staszów","state_id":1630,"state_code":"SK","state_name":"Świętokrzyskie Voivodeship","country_id":176,"country_code":"PL","country_name":"Poland","latitude":"50.56307000","longitude":"21.16593000","wikiDataId":"Q324892"},{"id":88207,"Name":"Stopnica","state_id":1630,"state_code":"SK","state_name":"Świętokrzyskie Voivodeship","country_id":176,"country_code":"PL","country_name":"Poland","latitude":"50.44018000","longitude":"20.93780000","wikiDataId":"Q986052"},{"id":88214,"Name":"Strawczyn","state_id":1630,"state_code":"SK","state_name":"Świętokrzyskie Voivodeship","country_id":176,"country_code":"PL","country_name":"Poland","latitude":"50.94177000","longitude":"20.42135000","wikiDataId":"Q2665473"},{"id":88250,"Name":"Suchedniów","state_id":1630,"state_code":"SK","state_name":"Świętokrzyskie Voivodeship","country_id":176,"country_code":"PL","country_name":"Poland","latitude":"51.04776000","longitude":"20.82922000","wikiDataId":"Q1946041"},{"id":88322,"Name":"Szydłów","state_id":1630,"state_code":"SK","state_name":"Świętokrzyskie Voivodeship","country_id":176,"country_code":"PL","country_name":"Poland","latitude":"50.59114000","longitude":"21.00680000","wikiDataId":"Q553427"},{"id":88368,"Name":"Tarłów","state_id":1630,"state_code":"SK","state_name":"Świętokrzyskie Voivodeship","country_id":176,"country_code":"PL","country_name":"Poland","latitude":"51.00160000","longitude":"21.71474000","wikiDataId":"Q2195315"},{"id":88421,"Name":"Tuczępy","state_id":1630,"state_code":"SK","state_name":"Świętokrzyskie Voivodeship","country_id":176,"country_code":"PL","country_name":"Poland","latitude":"50.51676000","longitude":"20.99187000","wikiDataId":"Q553733"},{"id":88632,"Name":"Wąchock","state_id":1630,"state_code":"SK","state_name":"Świętokrzyskie Voivodeship","country_id":176,"country_code":"PL","country_name":"Poland","latitude":"51.07391000","longitude":"21.01243000","wikiDataId":"Q439"},{"id":88489,"Name":"Waśniów","state_id":1630,"state_code":"SK","state_name":"Świętokrzyskie Voivodeship","country_id":176,"country_code":"PL","country_name":"Poland","latitude":"50.89914000","longitude":"21.22301000","wikiDataId":"Q2420562"},{"id":88506,"Name":"Wielka Wieś","state_id":1630,"state_code":"SK","state_name":"Świętokrzyskie Voivodeship","country_id":176,"country_code":"PL","country_name":"Poland","latitude":"51.07107000","longitude":"20.96655000","wikiDataId":"Q641847"},{"id":88534,"Name":"Wilczyce","state_id":1630,"state_code":"SK","state_name":"Świętokrzyskie Voivodeship","country_id":176,"country_code":"PL","country_name":"Poland","latitude":"50.74694000","longitude":"21.65783000","wikiDataId":"Q554357"},{"id":88560,"Name":"Wiślica","state_id":1630,"state_code":"SK","state_name":"Świętokrzyskie Voivodeship","country_id":176,"country_code":"PL","country_name":"Poland","latitude":"50.34891000","longitude":"20.67438000","wikiDataId":"Q945288"},{"id":88654,"Name":"Włoszczowa","state_id":1630,"state_code":"SK","state_name":"Świętokrzyskie Voivodeship","country_id":176,"country_code":"PL","country_name":"Poland","latitude":"50.85256000","longitude":"19.96593000","wikiDataId":"Q611784"},{"id":88568,"Name":"Wodzisław","state_id":1630,"state_code":"SK","state_name":"Świętokrzyskie Voivodeship","country_id":176,"country_code":"PL","country_name":"Poland","latitude":"50.52047000","longitude":"20.19150000","wikiDataId":"Q553760"},{"id":88572,"Name":"Wojciechowice","state_id":1630,"state_code":"SK","state_name":"Świętokrzyskie Voivodeship","country_id":176,"country_code":"PL","country_name":"Poland","latitude":"50.84226000","longitude":"21.58942000","wikiDataId":"Q553422"},{"id":88585,"Name":"Wola Jachowa","state_id":1630,"state_code":"SK","state_name":"Świętokrzyskie Voivodeship","country_id":176,"country_code":"PL","country_name":"Poland","latitude":"50.84524000","longitude":"20.85814000","wikiDataId":"Q8029453"},{"id":88666,"Name":"Zagnańsk","state_id":1630,"state_code":"SK","state_name":"Świętokrzyskie Voivodeship","country_id":176,"country_code":"PL","country_name":"Poland","latitude":"50.98037000","longitude":"20.66314000","wikiDataId":"Q2800089"},{"id":88702,"Name":"Zawichost","state_id":1630,"state_code":"SK","state_name":"Świętokrzyskie Voivodeship","country_id":176,"country_code":"PL","country_name":"Poland","latitude":"50.80743000","longitude":"21.85408000","wikiDataId":"Q1922299"},{"id":88744,"Name":"Złota","state_id":1630,"state_code":"SK","state_name":"Świętokrzyskie Voivodeship","country_id":176,"country_code":"PL","country_name":"Poland","latitude":"50.38160000","longitude":"20.59361000","wikiDataId":"Q553416"}]