[{"id":86009,"Name":"Bąków","state_id":1623,"state_code":"SL","state_name":"Silesian Voivodeship","country_id":176,"country_code":"PL","country_name":"Poland","latitude":"49.89342000","longitude":"18.71495000","wikiDataId":"Q5005509"},{"id":85821,"Name":"Bażanowice","state_id":1623,"state_code":"SL","state_name":"Silesian Voivodeship","country_id":176,"country_code":"PL","country_name":"Poland","latitude":"49.73791000","longitude":"18.70345000","wikiDataId":"Q3491667"},{"id":86013,"Name":"Będzin","state_id":1623,"state_code":"SL","state_name":"Silesian Voivodeship","country_id":176,"country_code":"PL","country_name":"Poland","latitude":"50.32607000","longitude":"19.12565000","wikiDataId":"Q461513"},{"id":85829,"Name":"Bełk","state_id":1623,"state_code":"SL","state_name":"Silesian Voivodeship","country_id":176,"country_code":"PL","country_name":"Poland","latitude":"50.13048000","longitude":"18.71667000","wikiDataId":"Q4900423"},{"id":85830,"Name":"Bełsznica","state_id":1623,"state_code":"SL","state_name":"Silesian Voivodeship","country_id":176,"country_code":"PL","country_name":"Poland","latitude":"49.97811000","longitude":"18.36313000","wikiDataId":"Q2912201"},{"id":85826,"Name":"Bestwina","state_id":1623,"state_code":"SL","state_name":"Silesian Voivodeship","country_id":176,"country_code":"PL","country_name":"Poland","latitude":"49.89712000","longitude":"19.05776000","wikiDataId":"Q3872982"},{"id":85827,"Name":"Bestwinka","state_id":1623,"state_code":"SL","state_name":"Silesian Voivodeship","country_id":176,"country_code":"PL","country_name":"Poland","latitude":"49.93272000","longitude":"19.06694000","wikiDataId":"Q4897118"},{"id":85861,"Name":"Bielsko-Biala","state_id":1623,"state_code":"SL","state_name":"Silesian Voivodeship","country_id":176,"country_code":"PL","country_name":"Poland","latitude":"49.82245000","longitude":"19.04686000","wikiDataId":"Q106583"},{"id":85862,"Name":"Bielsko-Biała","state_id":1623,"state_code":"SL","state_name":"Silesian Voivodeship","country_id":176,"country_code":"PL","country_name":"Poland","latitude":"49.81204000","longitude":"19.03899000","wikiDataId":"Q106583"},{"id":85867,"Name":"Bieruń","state_id":1623,"state_code":"SL","state_name":"Silesian Voivodeship","country_id":176,"country_code":"PL","country_name":"Poland","latitude":"50.09000000","longitude":"19.09291000","wikiDataId":"Q325108"},{"id":85879,"Name":"Blachownia","state_id":1623,"state_code":"SL","state_name":"Silesian Voivodeship","country_id":176,"country_code":"PL","country_name":"Poland","latitude":"50.78015000","longitude":"18.96389000","wikiDataId":"Q1483871"},{"id":85890,"Name":"Bobrowniki","state_id":1623,"state_code":"SL","state_name":"Silesian Voivodeship","country_id":176,"country_code":"PL","country_name":"Poland","latitude":"50.37985000","longitude":"18.98661000","wikiDataId":"Q4935979"},{"id":85906,"Name":"Bojszowy","state_id":1623,"state_code":"SL","state_name":"Silesian Voivodeship","country_id":176,"country_code":"PL","country_name":"Poland","latitude":"50.05780000","longitude":"19.10145000","wikiDataId":"Q891194"},{"id":85907,"Name":"Bojszowy Nowe","state_id":1623,"state_code":"SL","state_name":"Silesian Voivodeship","country_id":176,"country_code":"PL","country_name":"Poland","latitude":"50.05284000","longitude":"19.05012000","wikiDataId":"Q4938693"},{"id":85923,"Name":"Boronów","state_id":1623,"state_code":"SL","state_name":"Silesian Voivodeship","country_id":176,"country_code":"PL","country_name":"Poland","latitude":"50.67460000","longitude":"18.90678000","wikiDataId":"Q894061"},{"id":85926,"Name":"Borowno","state_id":1623,"state_code":"SL","state_name":"Silesian Voivodeship","country_id":176,"country_code":"PL","country_name":"Poland","latitude":"50.93247000","longitude":"19.27380000","wikiDataId":"Q4946478"},{"id":85927,"Name":"Borucin","state_id":1623,"state_code":"SL","state_name":"Silesian Voivodeship","country_id":176,"country_code":"PL","country_name":"Poland","latitude":"50.00763000","longitude":"18.15748000","wikiDataId":"Q549001"},{"id":85940,"Name":"Brenna","state_id":1623,"state_code":"SL","state_name":"Silesian Voivodeship","country_id":176,"country_code":"PL","country_name":"Poland","latitude":"49.72576000","longitude":"18.90249000","wikiDataId":"Q903461"},{"id":85953,"Name":"Bronów","state_id":1623,"state_code":"SL","state_name":"Silesian Voivodeship","country_id":176,"country_code":"PL","country_name":"Poland","latitude":"49.87782000","longitude":"18.92103000","wikiDataId":"Q4974287"},{"id":85965,"Name":"Brzeziny Śląskie","state_id":1623,"state_code":"SL","state_name":"Silesian Voivodeship","country_id":176,"country_code":"PL","country_name":"Poland","latitude":"50.35439000","longitude":"18.98129000","wikiDataId":"Q324917"},{"id":85982,"Name":"Buczkowice","state_id":1623,"state_code":"SL","state_name":"Silesian Voivodeship","country_id":176,"country_code":"PL","country_name":"Poland","latitude":"49.72858000","longitude":"19.06908000","wikiDataId":"Q2723435"},{"id":85987,"Name":"Bujaków","state_id":1623,"state_code":"SL","state_name":"Silesian Voivodeship","country_id":176,"country_code":"PL","country_name":"Poland","latitude":"49.85182000","longitude":"19.19432000","wikiDataId":"Q3958231"},{"id":86001,"Name":"Bystra","state_id":1623,"state_code":"SL","state_name":"Silesian Voivodeship","country_id":176,"country_code":"PL","country_name":"Poland","latitude":"49.76042000","longitude":"19.05973000","wikiDataId":"Q640109"},{"id":86005,"Name":"Bytom","state_id":1623,"state_code":"SL","state_name":"Silesian Voivodeship","country_id":176,"country_code":"PL","country_name":"Poland","latitude":"50.34802000","longitude":"18.93282000","wikiDataId":"Q102350"},{"id":86026,"Name":"Chałupki","state_id":1623,"state_code":"SL","state_name":"Silesian Voivodeship","country_id":176,"country_code":"PL","country_name":"Poland","latitude":"49.92559000","longitude":"18.31730000","wikiDataId":"Q645005"},{"id":86028,"Name":"Chełm Śląski","state_id":1623,"state_code":"SL","state_name":"Silesian Voivodeship","country_id":176,"country_code":"PL","country_name":"Poland","latitude":"50.10825000","longitude":"19.19552000","wikiDataId":"Q12054760"},{"id":86053,"Name":"Choroń","state_id":1623,"state_code":"SL","state_name":"Silesian Voivodeship","country_id":176,"country_code":"PL","country_name":"Poland","latitude":"50.68178000","longitude":"19.26058000","wikiDataId":"Q5105230"},{"id":86055,"Name":"Chorzów","state_id":1623,"state_code":"SL","state_name":"Silesian Voivodeship","country_id":176,"country_code":"PL","country_name":"Poland","latitude":"50.30582000","longitude":"18.97420000","wikiDataId":"Q104302"},{"id":86060,"Name":"Chruszczobród","state_id":1623,"state_code":"SL","state_name":"Silesian Voivodeship","country_id":176,"country_code":"PL","country_name":"Poland","latitude":"50.41470000","longitude":"19.32718000","wikiDataId":"Q5115091"},{"id":86069,"Name":"Chybie","state_id":1623,"state_code":"SL","state_name":"Silesian Voivodeship","country_id":176,"country_code":"PL","country_name":"Poland","latitude":"49.90249000","longitude":"18.82756000","wikiDataId":"Q2967756"},{"id":86075,"Name":"Ciasna","state_id":1623,"state_code":"SL","state_name":"Silesian Voivodeship","country_id":176,"country_code":"PL","country_name":"Poland","latitude":"50.75427000","longitude":"18.60835000","wikiDataId":"Q2254322"},{"id":86093,"Name":"Cięcina","state_id":1623,"state_code":"SL","state_name":"Silesian Voivodeship","country_id":176,"country_code":"PL","country_name":"Poland","latitude":"49.60220000","longitude":"19.14102000","wikiDataId":"Q661313"},{"id":86081,"Name":"Cielmice","state_id":1623,"state_code":"SL","state_name":"Silesian Voivodeship","country_id":176,"country_code":"PL","country_name":"Poland","latitude":"50.08826000","longitude":"19.01896000","wikiDataId":"Q2184264"},{"id":86088,"Name":"Cieszyn","state_id":1623,"state_code":"SL","state_name":"Silesian Voivodeship","country_id":176,"country_code":"PL","country_name":"Poland","latitude":"49.75133000","longitude":"18.63213000","wikiDataId":"Q321197"},{"id":86090,"Name":"Cisiec","state_id":1623,"state_code":"SL","state_name":"Silesian Voivodeship","country_id":176,"country_code":"PL","country_name":"Poland","latitude":"49.59213000","longitude":"19.10540000","wikiDataId":"Q3543178"},{"id":86092,"Name":"Cisownica","state_id":1623,"state_code":"SL","state_name":"Silesian Voivodeship","country_id":176,"country_code":"PL","country_name":"Poland","latitude":"49.72276000","longitude":"18.76207000","wikiDataId":"Q2435825"},{"id":86098,"Name":"Cynków","state_id":1623,"state_code":"SL","state_name":"Silesian Voivodeship","country_id":176,"country_code":"PL","country_name":"Poland","latitude":"50.56203000","longitude":"19.11956000","wikiDataId":"Q34798227"},{"id":86100,"Name":"Czaniec","state_id":1623,"state_code":"SL","state_name":"Silesian Voivodeship","country_id":176,"country_code":"PL","country_name":"Poland","latitude":"49.85071000","longitude":"19.25354000","wikiDataId":"Q664930"},{"id":86103,"Name":"Czarków","state_id":1623,"state_code":"SL","state_name":"Silesian Voivodeship","country_id":176,"country_code":"PL","country_name":"Poland","latitude":"50.01833000","longitude":"18.90678000","wikiDataId":"Q5201528"},{"id":86122,"Name":"Czechowice-Dziedzice","state_id":1623,"state_code":"SL","state_name":"Silesian Voivodeship","country_id":176,"country_code":"PL","country_name":"Poland","latitude":"49.91342000","longitude":"19.00479000","wikiDataId":"Q263684"},{"id":86123,"Name":"Czeladź","state_id":1623,"state_code":"SL","state_name":"Silesian Voivodeship","country_id":176,"country_code":"PL","country_name":"Poland","latitude":"50.31542000","longitude":"19.07824000","wikiDataId":"Q263684"},{"id":86130,"Name":"Czernica","state_id":1623,"state_code":"SL","state_name":"Silesian Voivodeship","country_id":176,"country_code":"PL","country_name":"Poland","latitude":"50.08391000","longitude":"18.40068000","wikiDataId":"Q778980"},{"id":86132,"Name":"Czernichów","state_id":1623,"state_code":"SL","state_name":"Silesian Voivodeship","country_id":176,"country_code":"PL","country_name":"Poland","latitude":"49.75443000","longitude":"19.20947000","wikiDataId":"Q3009585"},{"id":86141,"Name":"Czerwionka-Leszczyny","state_id":1623,"state_code":"SL","state_name":"Silesian Voivodeship","country_id":176,"country_code":"PL","country_name":"Poland","latitude":"50.15007000","longitude":"18.67762000","wikiDataId":"Q1005538"},{"id":86150,"Name":"Częstochowa","state_id":1623,"state_code":"SL","state_name":"Silesian Voivodeship","country_id":176,"country_code":"PL","country_name":"Poland","latitude":"50.79646000","longitude":"19.12409000","wikiDataId":"Q103217"},{"id":86149,"Name":"Czyżowice","state_id":1623,"state_code":"SL","state_name":"Silesian Voivodeship","country_id":176,"country_code":"PL","country_name":"Poland","latitude":"49.98490000","longitude":"18.40433000","wikiDataId":"Q5202252"},{"id":86240,"Name":"Dąbrowa Górnicza","state_id":1623,"state_code":"SL","state_name":"Silesian Voivodeship","country_id":176,"country_code":"PL","country_name":"Poland","latitude":"50.33394000","longitude":"19.20479000","wikiDataId":"Q108672"},{"id":86242,"Name":"Dąbrowa Zielona","state_id":1623,"state_code":"SL","state_name":"Silesian Voivodeship","country_id":176,"country_code":"PL","country_name":"Poland","latitude":"50.84394000","longitude":"19.55652000","wikiDataId":"Q2689156"},{"id":86256,"Name":"Dębowiec","state_id":1623,"state_code":"SL","state_name":"Silesian Voivodeship","country_id":176,"country_code":"PL","country_name":"Poland","latitude":"49.81406000","longitude":"18.72062000","wikiDataId":"Q5321059"},{"id":86166,"Name":"Dobieszowice","state_id":1623,"state_code":"SL","state_name":"Silesian Voivodeship","country_id":176,"country_code":"PL","country_name":"Poland","latitude":"50.39697000","longitude":"19.01304000","wikiDataId":"Q5286608"},{"id":86199,"Name":"Drogomyśl","state_id":1623,"state_code":"SL","state_name":"Silesian Voivodeship","country_id":176,"country_code":"PL","country_name":"Poland","latitude":"49.86964000","longitude":"18.75727000","wikiDataId":"Q690771"},{"id":86231,"Name":"Dzięgielów","state_id":1623,"state_code":"SL","state_name":"Silesian Voivodeship","country_id":176,"country_code":"PL","country_name":"Poland","latitude":"49.72259000","longitude":"18.70491000","wikiDataId":"Q5319978"},{"id":86276,"Name":"Frydek","state_id":1623,"state_code":"SL","state_name":"Silesian Voivodeship","country_id":176,"country_code":"PL","country_name":"Poland","latitude":"49.99626000","longitude":"19.07278000","wikiDataId":"Q1987758"},{"id":86284,"Name":"Gardawice","state_id":1623,"state_code":"SL","state_name":"Silesian Voivodeship","country_id":176,"country_code":"PL","country_name":"Poland","latitude":"50.11667000","longitude":"18.80000000","wikiDataId":"Q2684288"},{"id":86287,"Name":"Gaszowice","state_id":1623,"state_code":"SL","state_name":"Silesian Voivodeship","country_id":176,"country_code":"PL","country_name":"Poland","latitude":"50.10858000","longitude":"18.43042000","wikiDataId":"Q2571627"},{"id":86299,"Name":"Gierałtowice","state_id":1623,"state_code":"SL","state_name":"Silesian Voivodeship","country_id":176,"country_code":"PL","country_name":"Poland","latitude":"50.22486000","longitude":"18.73384000","wikiDataId":"Q554585"},{"id":86303,"Name":"Gilowice","state_id":1623,"state_code":"SL","state_name":"Silesian Voivodeship","country_id":176,"country_code":"PL","country_name":"Poland","latitude":"49.99505000","longitude":"19.09613000","wikiDataId":"Q5562572"},{"id":86307,"Name":"Gliwice","state_id":1623,"state_code":"SL","state_name":"Silesian Voivodeship","country_id":176,"country_code":"PL","country_name":"Poland","latitude":"50.29761000","longitude":"18.67658000","wikiDataId":"Q105084"},{"id":86308,"Name":"Gniazdów","state_id":1623,"state_code":"SL","state_name":"Silesian Voivodeship","country_id":176,"country_code":"PL","country_name":"Poland","latitude":"50.59621000","longitude":"19.11132000","wikiDataId":"Q5574242"},{"id":86317,"Name":"Goczałkowice Zdrój","state_id":1623,"state_code":"SL","state_name":"Silesian Voivodeship","country_id":176,"country_code":"PL","country_name":"Poland","latitude":"49.94454000","longitude":"18.96927000","wikiDataId":"Q2714638"},{"id":86322,"Name":"Godów","state_id":1623,"state_code":"SL","state_name":"Silesian Voivodeship","country_id":176,"country_code":"PL","country_name":"Poland","latitude":"49.92481000","longitude":"18.47830000","wikiDataId":"Q1010583"},{"id":86319,"Name":"Godziszka","state_id":1623,"state_code":"SL","state_name":"Silesian Voivodeship","country_id":176,"country_code":"PL","country_name":"Poland","latitude":"49.71288000","longitude":"19.07587000","wikiDataId":"Q2117101"},{"id":86327,"Name":"Goleszów","state_id":1623,"state_code":"SL","state_name":"Silesian Voivodeship","country_id":176,"country_code":"PL","country_name":"Poland","latitude":"49.73580000","longitude":"18.73675000","wikiDataId":"Q329597"},{"id":86356,"Name":"Gołkowice","state_id":1623,"state_code":"SL","state_name":"Silesian Voivodeship","country_id":176,"country_code":"PL","country_name":"Poland","latitude":"49.91418000","longitude":"18.51419000","wikiDataId":"Q5590328"},{"id":86409,"Name":"Góra","state_id":1623,"state_code":"SL","state_name":"Silesian Voivodeship","country_id":176,"country_code":"PL","country_name":"Poland","latitude":"49.97971000","longitude":"19.10471000","wikiDataId":"Q5626122"},{"id":86414,"Name":"Górki Wielkie","state_id":1623,"state_code":"SL","state_name":"Silesian Voivodeship","country_id":176,"country_code":"PL","country_name":"Poland","latitude":"49.77971000","longitude":"18.83117000","wikiDataId":"Q998499"},{"id":86339,"Name":"Gorzyce","state_id":1623,"state_code":"SL","state_name":"Silesian Voivodeship","country_id":176,"country_code":"PL","country_name":"Poland","latitude":"49.95945000","longitude":"18.39884000","wikiDataId":"Q1900916"},{"id":86341,"Name":"Gorzyczki","state_id":1623,"state_code":"SL","state_name":"Silesian Voivodeship","country_id":176,"country_code":"PL","country_name":"Poland","latitude":"49.94912000","longitude":"18.40330000","wikiDataId":"Q9274671"},{"id":86346,"Name":"Gostyń","state_id":1623,"state_code":"SL","state_name":"Silesian Voivodeship","country_id":176,"country_code":"PL","country_name":"Poland","latitude":"50.10528000","longitude":"18.88241000","wikiDataId":"Q5587586"},{"id":86445,"Name":"Hażlach","state_id":1623,"state_code":"SL","state_name":"Silesian Voivodeship","country_id":176,"country_code":"PL","country_name":"Poland","latitude":"49.80714000","longitude":"18.65178000","wikiDataId":"Q3128947"},{"id":86448,"Name":"Herby","state_id":1623,"state_code":"SL","state_name":"Silesian Voivodeship","country_id":176,"country_code":"PL","country_name":"Poland","latitude":"50.75318000","longitude":"18.88756000","wikiDataId":"Q2443042"},{"id":86455,"Name":"Huta Stara B","state_id":1623,"state_code":"SL","state_name":"Silesian Voivodeship","country_id":176,"country_code":"PL","country_name":"Poland","latitude":"50.73792000","longitude":"19.13295000","wikiDataId":"Q5950454"},{"id":86457,"Name":"Imielin","state_id":1623,"state_code":"SL","state_name":"Silesian Voivodeship","country_id":176,"country_code":"PL","country_name":"Poland","latitude":"50.14534000","longitude":"19.18599000","wikiDataId":"Q185798"},{"id":86462,"Name":"Istebna","state_id":1623,"state_code":"SL","state_name":"Silesian Voivodeship","country_id":176,"country_code":"PL","country_name":"Poland","latitude":"49.56319000","longitude":"18.90567000","wikiDataId":"Q1472027"},{"id":86494,"Name":"Jankowice","state_id":1623,"state_code":"SL","state_name":"Silesian Voivodeship","country_id":176,"country_code":"PL","country_name":"Poland","latitude":"50.00090000","longitude":"18.98901000","wikiDataId":"Q6154921"},{"id":86495,"Name":"Jankowice Rybnickie","state_id":1623,"state_code":"SL","state_name":"Silesian Voivodeship","country_id":176,"country_code":"PL","country_name":"Poland","latitude":"50.04479000","longitude":"18.54707000","wikiDataId":"Q3078727"},{"id":86498,"Name":"Janowice","state_id":1623,"state_code":"SL","state_name":"Silesian Voivodeship","country_id":176,"country_code":"PL","country_name":"Poland","latitude":"49.88496000","longitude":"19.09376000","wikiDataId":"Q6155352"},{"id":86514,"Name":"Jasienica","state_id":1623,"state_code":"SL","state_name":"Silesian Voivodeship","country_id":176,"country_code":"PL","country_name":"Poland","latitude":"49.81312000","longitude":"18.92155000","wikiDataId":"Q554411"},{"id":86524,"Name":"Jastrząb","state_id":1623,"state_code":"SL","state_name":"Silesian Voivodeship","country_id":176,"country_code":"PL","country_name":"Poland","latitude":"50.67019000","longitude":"19.18170000","wikiDataId":"Q24821"},{"id":86528,"Name":"Jastrzębie Zdrój","state_id":1623,"state_code":"SL","state_name":"Silesian Voivodeship","country_id":176,"country_code":"PL","country_name":"Poland","latitude":"49.95542000","longitude":"18.57479000","wikiDataId":"Q107106"},{"id":86529,"Name":"Jastrzębie-Zdrój","state_id":1623,"state_code":"SL","state_name":"Silesian Voivodeship","country_id":176,"country_code":"PL","country_name":"Poland","latitude":"49.96063000","longitude":"18.60053000","wikiDataId":"Q107106"},{"id":86535,"Name":"Jaworze","state_id":1623,"state_code":"SL","state_name":"Silesian Voivodeship","country_id":176,"country_code":"PL","country_name":"Poland","latitude":"49.79351000","longitude":"18.94790000","wikiDataId":"Q1951471"},{"id":86536,"Name":"Jaworzno","state_id":1623,"state_code":"SL","state_name":"Silesian Voivodeship","country_id":176,"country_code":"PL","country_name":"Poland","latitude":"50.20528000","longitude":"19.27498000","wikiDataId":"Q158006"},{"id":86538,"Name":"Jaworzynka","state_id":1623,"state_code":"SL","state_name":"Silesian Voivodeship","country_id":176,"country_code":"PL","country_name":"Poland","latitude":"49.54019000","longitude":"18.86996000","wikiDataId":"Q1978580"},{"id":86547,"Name":"Jejkowice","state_id":1623,"state_code":"SL","state_name":"Silesian Voivodeship","country_id":176,"country_code":"PL","country_name":"Poland","latitude":"50.10814000","longitude":"18.46767000","wikiDataId":"Q2490850"},{"id":86551,"Name":"Jeleśnia","state_id":1623,"state_code":"SL","state_name":"Silesian Voivodeship","country_id":176,"country_code":"PL","country_name":"Poland","latitude":"49.64246000","longitude":"19.32701000","wikiDataId":"Q2607196"},{"id":86572,"Name":"Juszczyna","state_id":1623,"state_code":"SL","state_name":"Silesian Voivodeship","country_id":176,"country_code":"PL","country_name":"Poland","latitude":"49.62984000","longitude":"19.22032000","wikiDataId":"Q841790"},{"id":86581,"Name":"Kaczyce","state_id":1623,"state_code":"SL","state_name":"Silesian Voivodeship","country_id":176,"country_code":"PL","country_name":"Poland","latitude":"49.82752000","longitude":"18.59161000","wikiDataId":"Q6344894"},{"id":86583,"Name":"Kalej","state_id":1623,"state_code":"SL","state_name":"Silesian Voivodeship","country_id":176,"country_code":"PL","country_name":"Poland","latitude":"50.83662000","longitude":"18.98429000","wikiDataId":"Q3162936"},{"id":86584,"Name":"Kalety","state_id":1623,"state_code":"SL","state_name":"Silesian Voivodeship","country_id":176,"country_code":"PL","country_name":"Poland","latitude":"50.56270000","longitude":"18.89260000","wikiDataId":"Q1001239"},{"id":86589,"Name":"Kamesznica","state_id":1623,"state_code":"SL","state_name":"Silesian Voivodeship","country_id":176,"country_code":"PL","country_name":"Poland","latitude":"49.56469000","longitude":"19.02120000","wikiDataId":"Q751812"},{"id":86592,"Name":"Kamienica Polska","state_id":1623,"state_code":"SL","state_name":"Silesian Voivodeship","country_id":176,"country_code":"PL","country_name":"Poland","latitude":"50.67090000","longitude":"19.12265000","wikiDataId":"Q2464935"},{"id":86606,"Name":"Kamyk","state_id":1623,"state_code":"SL","state_name":"Silesian Voivodeship","country_id":176,"country_code":"PL","country_name":"Poland","latitude":"50.90179000","longitude":"19.02875000","wikiDataId":"Q11734700"},{"id":86608,"Name":"Kaniów","state_id":1623,"state_code":"SL","state_name":"Silesian Voivodeship","country_id":176,"country_code":"PL","country_name":"Poland","latitude":"49.94316000","longitude":"19.05098000","wikiDataId":"Q11734957"},{"id":86621,"Name":"Katowice","state_id":1623,"state_code":"SL","state_name":"Silesian Voivodeship","country_id":176,"country_code":"PL","country_name":"Poland","latitude":"50.25841000","longitude":"19.02754000","wikiDataId":"Q588"},{"id":86862,"Name":"Kłobuck","state_id":1623,"state_code":"SL","state_name":"Silesian Voivodeship","country_id":176,"country_code":"PL","country_name":"Poland","latitude":"50.90081000","longitude":"18.93674000","wikiDataId":"Q324934"},{"id":86867,"Name":"Kłomnice","state_id":1623,"state_code":"SL","state_name":"Silesian Voivodeship","country_id":176,"country_code":"PL","country_name":"Poland","latitude":"50.92165000","longitude":"19.35679000","wikiDataId":"Q2765369"},{"id":86658,"Name":"Knurów","state_id":1623,"state_code":"SL","state_name":"Silesian Voivodeship","country_id":176,"country_code":"PL","country_name":"Poland","latitude":"50.21971000","longitude":"18.65067000","wikiDataId":"Q667620"},{"id":86660,"Name":"Kobiernice","state_id":1623,"state_code":"SL","state_name":"Silesian Voivodeship","country_id":176,"country_code":"PL","country_name":"Poland","latitude":"49.85497000","longitude":"19.21646000","wikiDataId":"Q609660"},{"id":86662,"Name":"Kobiór","state_id":1623,"state_code":"SL","state_name":"Silesian Voivodeship","country_id":176,"country_code":"PL","country_name":"Poland","latitude":"50.06089000","longitude":"18.93468000","wikiDataId":"Q3141273"},{"id":86670,"Name":"Kochanowice","state_id":1623,"state_code":"SL","state_name":"Silesian Voivodeship","country_id":176,"country_code":"PL","country_name":"Poland","latitude":"50.70548000","longitude":"18.74911000","wikiDataId":"Q3056098"},{"id":86748,"Name":"Kończyce Małe","state_id":1623,"state_code":"SL","state_name":"Silesian Voivodeship","country_id":176,"country_code":"PL","country_name":"Poland","latitude":"49.85824000","longitude":"18.62964000","wikiDataId":"Q6435578"},{"id":86749,"Name":"Kończyce Wielkie","state_id":1623,"state_code":"SL","state_name":"Silesian Voivodeship","country_id":176,"country_code":"PL","country_name":"Poland","latitude":"49.83510000","longitude":"18.64474000","wikiDataId":"Q3486954"},{"id":86690,"Name":"Koniaków","state_id":1623,"state_code":"SL","state_name":"Silesian Voivodeship","country_id":176,"country_code":"PL","country_name":"Poland","latitude":"49.55066000","longitude":"18.94910000","wikiDataId":"Q2981932"},{"id":86691,"Name":"Koniecpol","state_id":1623,"state_code":"SL","state_name":"Silesian Voivodeship","country_id":176,"country_code":"PL","country_name":"Poland","latitude":"50.77468000","longitude":"19.68896000","wikiDataId":"Q1003267"},{"id":86694,"Name":"Konopiska","state_id":1623,"state_code":"SL","state_name":"Silesian Voivodeship","country_id":176,"country_code":"PL","country_name":"Poland","latitude":"50.72695000","longitude":"19.00781000","wikiDataId":"Q2426015"},{"id":86700,"Name":"Korbielów","state_id":1623,"state_code":"SL","state_name":"Silesian Voivodeship","country_id":176,"country_code":"PL","country_name":"Poland","latitude":"49.56820000","longitude":"19.35001000","wikiDataId":"Q2024269"},{"id":86704,"Name":"Kornowac","state_id":1623,"state_code":"SL","state_name":"Silesian Voivodeship","country_id":176,"country_code":"PL","country_name":"Poland","latitude":"50.07179000","longitude":"18.32846000","wikiDataId":"Q2124343"},{"id":86753,"Name":"Kościelec","state_id":1623,"state_code":"SL","state_name":"Silesian Voivodeship","country_id":176,"country_code":"PL","country_name":"Poland","latitude":"50.89713000","longitude":"19.21560000","wikiDataId":"Q6435596"},{"id":86717,"Name":"Koszarawa","state_id":1623,"state_code":"SL","state_name":"Silesian Voivodeship","country_id":176,"country_code":"PL","country_name":"Poland","latitude":"49.64462000","longitude":"19.40083000","wikiDataId":"Q62868"},{"id":86720,"Name":"Koszęcin","state_id":1623,"state_code":"SL","state_name":"Silesian Voivodeship","country_id":176,"country_code":"PL","country_name":"Poland","latitude":"50.63411000","longitude":"18.84130000","wikiDataId":"Q6433708"},{"id":86734,"Name":"Koziegłowy","state_id":1623,"state_code":"SL","state_name":"Silesian Voivodeship","country_id":176,"country_code":"PL","country_name":"Poland","latitude":"50.60035000","longitude":"19.16299000","wikiDataId":"Q555042"},{"id":86737,"Name":"Kozy","state_id":1623,"state_code":"SL","state_name":"Silesian Voivodeship","country_id":176,"country_code":"PL","country_name":"Poland","latitude":"49.84756000","longitude":"19.14891000","wikiDataId":"Q159573"},{"id":86780,"Name":"Kroczyce","state_id":1623,"state_code":"SL","state_name":"Silesian Voivodeship","country_id":176,"country_code":"PL","country_name":"Poland","latitude":"50.56176000","longitude":"19.57000000","wikiDataId":"Q726705"},{"id":86792,"Name":"Krupski Młyn","state_id":1623,"state_code":"SL","state_name":"Silesian Voivodeship","country_id":176,"country_code":"PL","country_name":"Poland","latitude":"50.57337000","longitude":"18.62251000","wikiDataId":"Q999644"},{"id":86798,"Name":"Kryry","state_id":1623,"state_code":"SL","state_name":"Silesian Voivodeship","country_id":176,"country_code":"PL","country_name":"Poland","latitude":"50.01667000","longitude":"18.80568000","wikiDataId":"Q6439731"},{"id":86800,"Name":"Krzanowice","state_id":1623,"state_code":"SL","state_name":"Silesian Voivodeship","country_id":176,"country_code":"PL","country_name":"Poland","latitude":"50.01822000","longitude":"18.12251000","wikiDataId":"Q924124"},{"id":86807,"Name":"Krzepice","state_id":1623,"state_code":"SL","state_name":"Silesian Voivodeship","country_id":176,"country_code":"PL","country_name":"Poland","latitude":"50.97059000","longitude":"18.72886000","wikiDataId":"Q1005511"},{"id":86822,"Name":"Krzyżanowice","state_id":1623,"state_code":"SL","state_name":"Silesian Voivodeship","country_id":176,"country_code":"PL","country_name":"Poland","latitude":"49.98247000","longitude":"18.26846000","wikiDataId":"Q554865"},{"id":86824,"Name":"Krzyżowa","state_id":1623,"state_code":"SL","state_name":"Silesian Voivodeship","country_id":176,"country_code":"PL","country_name":"Poland","latitude":"49.59235000","longitude":"19.34469000","wikiDataId":"Q11750050"},{"id":86825,"Name":"Krzyżowice","state_id":1623,"state_code":"SL","state_name":"Silesian Voivodeship","country_id":176,"country_code":"PL","country_name":"Poland","latitude":"49.98528000","longitude":"18.67281000","wikiDataId":"Q11750055"},{"id":86830,"Name":"Książenice","state_id":1623,"state_code":"SL","state_name":"Silesian Voivodeship","country_id":176,"country_code":"PL","country_name":"Poland","latitude":"50.15524000","longitude":"18.59925000","wikiDataId":"Q1007342"},{"id":86846,"Name":"Kuźnia Raciborska","state_id":1623,"state_code":"SL","state_name":"Silesian Voivodeship","country_id":176,"country_code":"PL","country_name":"Poland","latitude":"50.20058000","longitude":"18.31146000","wikiDataId":"Q554824"},{"id":86869,"Name":"Laliki","state_id":1623,"state_code":"SL","state_name":"Silesian Voivodeship","country_id":176,"country_code":"PL","country_name":"Poland","latitude":"49.53446000","longitude":"19.00549000","wikiDataId":"Q674258"},{"id":86979,"Name":"Lędziny","state_id":1623,"state_code":"SL","state_name":"Silesian Voivodeship","country_id":176,"country_code":"PL","country_name":"Poland","latitude":"50.14264000","longitude":"19.13149000","wikiDataId":"Q276858"},{"id":86880,"Name":"Lelów","state_id":1623,"state_code":"SL","state_name":"Silesian Voivodeship","country_id":176,"country_code":"PL","country_name":"Poland","latitude":"50.68335000","longitude":"19.62562000","wikiDataId":"Q2136259"},{"id":86888,"Name":"Leśna","state_id":1623,"state_code":"SL","state_name":"Silesian Voivodeship","country_id":176,"country_code":"PL","country_name":"Poland","latitude":"49.67041000","longitude":"19.12763000","wikiDataId":"Q6538278"},{"id":86901,"Name":"Ligota","state_id":1623,"state_code":"SL","state_name":"Silesian Voivodeship","country_id":176,"country_code":"PL","country_name":"Poland","latitude":"49.89856000","longitude":"18.95090000","wikiDataId":"Q11756736"},{"id":86907,"Name":"Lipie","state_id":1623,"state_code":"SL","state_name":"Silesian Voivodeship","country_id":176,"country_code":"PL","country_name":"Poland","latitude":"51.01257000","longitude":"18.79658000","wikiDataId":"Q963857"},{"id":86919,"Name":"Lipowa","state_id":1623,"state_code":"SL","state_name":"Silesian Voivodeship","country_id":176,"country_code":"PL","country_name":"Poland","latitude":"49.67574000","longitude":"19.09398000","wikiDataId":"Q555095"},{"id":86948,"Name":"Lubliniec","state_id":1623,"state_code":"SL","state_name":"Silesian Voivodeship","country_id":176,"country_code":"PL","country_name":"Poland","latitude":"50.66897000","longitude":"18.68440000","wikiDataId":"Q985238"},{"id":86951,"Name":"Lubomia","state_id":1623,"state_code":"SL","state_name":"Silesian Voivodeship","country_id":176,"country_code":"PL","country_name":"Poland","latitude":"50.03972000","longitude":"18.30820000","wikiDataId":"Q2543206"},{"id":86975,"Name":"Lyski","state_id":1623,"state_code":"SL","state_name":"Silesian Voivodeship","country_id":176,"country_code":"PL","country_name":"Poland","latitude":"50.11992000","longitude":"18.39146000","wikiDataId":"Q1002595"},{"id":88774,"Name":"Łaziska","state_id":1623,"state_code":"SL","state_name":"Silesian Voivodeship","country_id":176,"country_code":"PL","country_name":"Poland","latitude":"49.93570000","longitude":"18.44707000","wikiDataId":"Q3502984"},{"id":88775,"Name":"Łaziska Górne","state_id":1623,"state_code":"SL","state_name":"Silesian Voivodeship","country_id":176,"country_code":"PL","country_name":"Poland","latitude":"50.14952000","longitude":"18.84215000","wikiDataId":"Q345293"},{"id":88776,"Name":"Łazy","state_id":1623,"state_code":"SL","state_name":"Silesian Voivodeship","country_id":176,"country_code":"PL","country_name":"Poland","latitude":"50.42769000","longitude":"19.39465000","wikiDataId":"Q345293"},{"id":88821,"Name":"Łękawica","state_id":1623,"state_code":"SL","state_name":"Silesian Voivodeship","country_id":176,"country_code":"PL","country_name":"Poland","latitude":"49.72209000","longitude":"19.26496000","wikiDataId":"Q2181417"},{"id":88780,"Name":"Łobodno","state_id":1623,"state_code":"SL","state_name":"Silesian Voivodeship","country_id":176,"country_code":"PL","country_name":"Poland","latitude":"50.93079000","longitude":"18.99090000","wikiDataId":"Q8080639"},{"id":88783,"Name":"Łodygowice","state_id":1623,"state_code":"SL","state_name":"Silesian Voivodeship","country_id":176,"country_code":"PL","country_name":"Poland","latitude":"49.72992000","longitude":"19.13939000","wikiDataId":"Q3079106"},{"id":86997,"Name":"Markłowice","state_id":1623,"state_code":"SL","state_name":"Silesian Voivodeship","country_id":176,"country_code":"PL","country_name":"Poland","latitude":"50.01695000","longitude":"18.52098000","wikiDataId":"Q2865695"},{"id":87004,"Name":"Mazańcowice","state_id":1623,"state_code":"SL","state_name":"Silesian Voivodeship","country_id":176,"country_code":"PL","country_name":"Poland","latitude":"49.85802000","longitude":"18.97708000","wikiDataId":"Q3498426"},{"id":87016,"Name":"Miasteczko Śląskie","state_id":1623,"state_code":"SL","state_name":"Silesian Voivodeship","country_id":176,"country_code":"PL","country_name":"Poland","latitude":"50.50262000","longitude":"18.93949000","wikiDataId":"Q651788"},{"id":87032,"Name":"Miedźna","state_id":1623,"state_code":"SL","state_name":"Silesian Voivodeship","country_id":176,"country_code":"PL","country_name":"Poland","latitude":"49.98225000","longitude":"19.04883000","wikiDataId":"Q3079436"},{"id":87031,"Name":"Miedzno","state_id":1623,"state_code":"SL","state_name":"Silesian Voivodeship","country_id":176,"country_code":"PL","country_name":"Poland","latitude":"50.96994000","longitude":"18.98111000","wikiDataId":"Q2279568"},{"id":87059,"Name":"Międzybrodzie Bialskie","state_id":1623,"state_code":"SL","state_name":"Silesian Voivodeship","country_id":176,"country_code":"PL","country_name":"Poland","latitude":"49.78747000","longitude":"19.19741000","wikiDataId":"Q847518"},{"id":87039,"Name":"Mierzęcice","state_id":1623,"state_code":"SL","state_name":"Silesian Voivodeship","country_id":176,"country_code":"PL","country_name":"Poland","latitude":"50.44504000","longitude":"19.12934000","wikiDataId":"Q1002714"},{"id":87044,"Name":"Mikołów","state_id":1623,"state_code":"SL","state_name":"Silesian Voivodeship","country_id":176,"country_code":"PL","country_name":"Poland","latitude":"50.17103000","longitude":"18.90410000","wikiDataId":"Q659905"},{"id":87051,"Name":"Milówka","state_id":1623,"state_code":"SL","state_name":"Silesian Voivodeship","country_id":176,"country_code":"PL","country_name":"Poland","latitude":"49.55540000","longitude":"19.09072000","wikiDataId":"Q717933"},{"id":87076,"Name":"Mnich","state_id":1623,"state_code":"SL","state_name":"Silesian Voivodeship","country_id":176,"country_code":"PL","country_name":"Poland","latitude":"49.88944000","longitude":"18.80722000","wikiDataId":"Q11784242"},{"id":87107,"Name":"Mstów","state_id":1623,"state_code":"SL","state_name":"Silesian Voivodeship","country_id":176,"country_code":"PL","country_name":"Poland","latitude":"50.82969000","longitude":"19.28547000","wikiDataId":"Q2072590"},{"id":87108,"Name":"Mszana","state_id":1623,"state_code":"SL","state_name":"Silesian Voivodeship","country_id":176,"country_code":"PL","country_name":"Poland","latitude":"49.96939000","longitude":"18.52793000","wikiDataId":"Q553539"},{"id":87112,"Name":"Murcki","state_id":1623,"state_code":"SL","state_name":"Silesian Voivodeship","country_id":176,"country_code":"PL","country_name":"Poland","latitude":"50.20036000","longitude":"19.04351000","wikiDataId":"Q260340"},{"id":87116,"Name":"Mykanów","state_id":1623,"state_code":"SL","state_name":"Silesian Voivodeship","country_id":176,"country_code":"PL","country_name":"Poland","latitude":"50.92360000","longitude":"19.20050000","wikiDataId":"Q1642884"},{"id":87121,"Name":"Mysłowice","state_id":1623,"state_code":"SL","state_name":"Silesian Voivodeship","country_id":176,"country_code":"PL","country_name":"Poland","latitude":"50.20745000","longitude":"19.16668000","wikiDataId":"Q161595"},{"id":87118,"Name":"Myszków","state_id":1623,"state_code":"SL","state_name":"Silesian Voivodeship","country_id":176,"country_code":"PL","country_name":"Poland","latitude":"50.57520000","longitude":"19.32461000","wikiDataId":"Q731079"},{"id":87133,"Name":"Nakło","state_id":1623,"state_code":"SL","state_name":"Silesian Voivodeship","country_id":176,"country_code":"PL","country_name":"Poland","latitude":"50.43690000","longitude":"18.91056000","wikiDataId":"Q2707065"},{"id":87215,"Name":"Nędza","state_id":1623,"state_code":"SL","state_name":"Silesian Voivodeship","country_id":176,"country_code":"PL","country_name":"Poland","latitude":"50.16112000","longitude":"18.31103000","wikiDataId":"Q1000146"},{"id":87153,"Name":"Niedobczyce","state_id":1623,"state_code":"SL","state_name":"Silesian Voivodeship","country_id":176,"country_code":"PL","country_name":"Poland","latitude":"50.06540000","longitude":"18.49531000","wikiDataId":"Q377288"},{"id":87160,"Name":"Niegowonice","state_id":1623,"state_code":"SL","state_name":"Silesian Voivodeship","country_id":176,"country_code":"PL","country_name":"Poland","latitude":"50.38909000","longitude":"19.42263000","wikiDataId":"Q11791424"},{"id":87223,"Name":"Ochaby","state_id":1623,"state_code":"SL","state_name":"Silesian Voivodeship","country_id":176,"country_code":"PL","country_name":"Poland","latitude":"49.84252000","longitude":"18.76894000","wikiDataId":"Q7076294"},{"id":87231,"Name":"Ogrodzieniec","state_id":1623,"state_code":"SL","state_name":"Silesian Voivodeship","country_id":176,"country_code":"PL","country_name":"Poland","latitude":"50.45177000","longitude":"19.51987000","wikiDataId":"Q1006772"},{"id":87247,"Name":"Olsztyn","state_id":1623,"state_code":"SL","state_name":"Silesian Voivodeship","country_id":176,"country_code":"PL","country_name":"Poland","latitude":"50.75185000","longitude":"19.26737000","wikiDataId":"Q369699"},{"id":87253,"Name":"Olza","state_id":1623,"state_code":"SL","state_name":"Silesian Voivodeship","country_id":176,"country_code":"PL","country_name":"Poland","latitude":"49.95393000","longitude":"18.33910000","wikiDataId":"Q978872"},{"id":87258,"Name":"Opatów","state_id":1623,"state_code":"SL","state_name":"Silesian Voivodeship","country_id":176,"country_code":"PL","country_name":"Poland","latitude":"50.95567000","longitude":"18.81941000","wikiDataId":"Q2022417"},{"id":87269,"Name":"Ornontowice","state_id":1623,"state_code":"SL","state_name":"Silesian Voivodeship","country_id":176,"country_code":"PL","country_name":"Poland","latitude":"50.19377000","longitude":"18.75435000","wikiDataId":"Q290946"},{"id":87271,"Name":"Orzech","state_id":1623,"state_code":"SL","state_name":"Silesian Voivodeship","country_id":176,"country_code":"PL","country_name":"Poland","latitude":"50.42744000","longitude":"18.92275000","wikiDataId":"Q7105341"},{"id":87273,"Name":"Orzesze","state_id":1623,"state_code":"SL","state_name":"Silesian Voivodeship","country_id":176,"country_code":"PL","country_name":"Poland","latitude":"50.15595000","longitude":"18.77923000","wikiDataId":"Q1001207"},{"id":87304,"Name":"Ostrowy nad Okszą","state_id":1623,"state_code":"SL","state_name":"Silesian Voivodeship","country_id":176,"country_code":"PL","country_name":"Poland","latitude":"50.97799000","longitude":"19.05355000","wikiDataId":"Q7107859"},{"id":87326,"Name":"Ożarowice","state_id":1623,"state_code":"SL","state_name":"Silesian Voivodeship","country_id":176,"country_code":"PL","country_name":"Poland","latitude":"50.46182000","longitude":"19.04317000","wikiDataId":"Q7342"},{"id":87341,"Name":"Paniówki","state_id":1623,"state_code":"SL","state_name":"Silesian Voivodeship","country_id":176,"country_code":"PL","country_name":"Poland","latitude":"50.23139000","longitude":"18.78104000","wikiDataId":"Q1020495"},{"id":87342,"Name":"Panki","state_id":1623,"state_code":"SL","state_name":"Silesian Voivodeship","country_id":176,"country_code":"PL","country_name":"Poland","latitude":"50.88333000","longitude":"18.75160000","wikiDataId":"Q554133"},{"id":87357,"Name":"Pawłowice","state_id":1623,"state_code":"SL","state_name":"Silesian Voivodeship","country_id":176,"country_code":"PL","country_name":"Poland","latitude":"49.96127000","longitude":"18.71778000","wikiDataId":"Q555539"},{"id":87355,"Name":"Pawonków","state_id":1623,"state_code":"SL","state_name":"Silesian Voivodeship","country_id":176,"country_code":"PL","country_name":"Poland","latitude":"50.69499000","longitude":"18.58149000","wikiDataId":"Q2405047"},{"id":87366,"Name":"Pewel Ślemieńska","state_id":1623,"state_code":"SL","state_name":"Silesian Voivodeship","country_id":176,"country_code":"PL","country_name":"Poland","latitude":"49.68968000","longitude":"19.33431000","wikiDataId":"Q11816069"},{"id":87365,"Name":"Pewel Wielka","state_id":1623,"state_code":"SL","state_name":"Silesian Voivodeship","country_id":176,"country_code":"PL","country_name":"Poland","latitude":"49.67457000","longitude":"19.37482000","wikiDataId":"Q7179547"},{"id":87369,"Name":"Piasek","state_id":1623,"state_code":"SL","state_name":"Silesian Voivodeship","country_id":176,"country_code":"PL","country_name":"Poland","latitude":"50.01055000","longitude":"18.94807000","wikiDataId":"Q2720748"},{"id":87376,"Name":"Piekary Śląskie","state_id":1623,"state_code":"SL","state_name":"Silesian Voivodeship","country_id":176,"country_code":"PL","country_name":"Poland","latitude":"50.38017000","longitude":"18.92653000","wikiDataId":"Q158488"},{"id":87379,"Name":"Pielgrzymowice","state_id":1623,"state_code":"SL","state_name":"Silesian Voivodeship","country_id":176,"country_code":"PL","country_name":"Poland","latitude":"49.90547000","longitude":"18.64886000","wikiDataId":"Q7191656"},{"id":87382,"Name":"Pierściec","state_id":1623,"state_code":"SL","state_name":"Silesian Voivodeship","country_id":176,"country_code":"PL","country_name":"Poland","latitude":"49.83339000","longitude":"18.81409000","wikiDataId":"Q7192690"},{"id":87384,"Name":"Pietrowice Wielkie","state_id":1623,"state_code":"SL","state_name":"Silesian Voivodeship","country_id":176,"country_code":"PL","country_name":"Poland","latitude":"50.08452000","longitude":"18.09148000","wikiDataId":"Q1019816"},{"id":87385,"Name":"Pietrzykowice","state_id":1623,"state_code":"SL","state_name":"Silesian Voivodeship","country_id":176,"country_code":"PL","country_name":"Poland","latitude":"49.69634000","longitude":"19.15990000","wikiDataId":"Q596627"},{"id":87388,"Name":"Pilchowice","state_id":1623,"state_code":"SL","state_name":"Silesian Voivodeship","country_id":176,"country_code":"PL","country_name":"Poland","latitude":"50.21668000","longitude":"18.56132000","wikiDataId":"Q2325401"},{"id":87390,"Name":"Pilica","state_id":1623,"state_code":"SL","state_name":"Silesian Voivodeship","country_id":176,"country_code":"PL","country_name":"Poland","latitude":"50.46799000","longitude":"19.65729000","wikiDataId":"Q2325401"},{"id":87395,"Name":"Pisarzowice","state_id":1623,"state_code":"SL","state_name":"Silesian Voivodeship","country_id":176,"country_code":"PL","country_name":"Poland","latitude":"49.88363000","longitude":"19.14565000","wikiDataId":"Q7198203"},{"id":87426,"Name":"Pogórze","state_id":1623,"state_code":"SL","state_name":"Silesian Voivodeship","country_id":176,"country_code":"PL","country_name":"Poland","latitude":"49.79961000","longitude":"18.84327000","wikiDataId":"Q7207741"},{"id":87422,"Name":"Pogrzebień","state_id":1623,"state_code":"SL","state_name":"Silesian Voivodeship","country_id":176,"country_code":"PL","country_name":"Poland","latitude":"50.06722000","longitude":"18.29876000","wikiDataId":"Q11821101"},{"id":87423,"Name":"Pogwizdów","state_id":1623,"state_code":"SL","state_name":"Silesian Voivodeship","country_id":176,"country_code":"PL","country_name":"Poland","latitude":"49.80382000","longitude":"18.60106000","wikiDataId":"Q7207734"},{"id":87779,"Name":"Połomia","state_id":1623,"state_code":"SL","state_name":"Silesian Voivodeship","country_id":176,"country_code":"PL","country_name":"Poland","latitude":"49.99185000","longitude":"18.55102000","wikiDataId":"Q7237130"},{"id":87446,"Name":"Porąbka","state_id":1623,"state_code":"SL","state_name":"Silesian Voivodeship","country_id":176,"country_code":"PL","country_name":"Poland","latitude":"49.81716000","longitude":"19.21835000","wikiDataId":"Q2175884"},{"id":87443,"Name":"Poraj","state_id":1623,"state_code":"SL","state_name":"Silesian Voivodeship","country_id":176,"country_code":"PL","country_name":"Poland","latitude":"50.67797000","longitude":"19.21509000","wikiDataId":"Q1974096"},{"id":87449,"Name":"Poręba","state_id":1623,"state_code":"SL","state_name":"Silesian Voivodeship","country_id":176,"country_code":"PL","country_name":"Poland","latitude":"50.48831000","longitude":"19.33903000","wikiDataId":"Q149009"},{"id":87454,"Name":"Potok Złoty","state_id":1623,"state_code":"SL","state_name":"Silesian Voivodeship","country_id":176,"country_code":"PL","country_name":"Poland","latitude":"50.70676000","longitude":"19.43091000","wikiDataId":"Q1909200"},{"id":87481,"Name":"Powiat będziński","state_id":1623,"state_code":"SL","state_name":"Silesian Voivodeship","country_id":176,"country_code":"PL","country_name":"Poland","latitude":"50.32924000","longitude":"19.10419000","wikiDataId":"Q972886"},{"id":87465,"Name":"Powiat bielski","state_id":1623,"state_code":"SL","state_name":"Silesian Voivodeship","country_id":176,"country_code":"PL","country_name":"Poland","latitude":"49.76175000","longitude":"19.10660000","wikiDataId":"Q1340564"},{"id":87467,"Name":"Powiat bieruńsko-lędziński","state_id":1623,"state_code":"SL","state_name":"Silesian Voivodeship","country_id":176,"country_code":"PL","country_name":"Poland","latitude":"50.09356000","longitude":"19.14270000","wikiDataId":"Q1146888"},{"id":87489,"Name":"Powiat cieszyński","state_id":1623,"state_code":"SL","state_name":"Silesian Voivodeship","country_id":176,"country_code":"PL","country_name":"Poland","latitude":"49.72628000","longitude":"18.79147000","wikiDataId":"Q1140732"},{"id":87491,"Name":"Powiat częstochowski","state_id":1623,"state_code":"SL","state_name":"Silesian Voivodeship","country_id":176,"country_code":"PL","country_name":"Poland","latitude":"50.84118000","longitude":"19.34045000","wikiDataId":"Q1145567"},{"id":87503,"Name":"Powiat gliwicki","state_id":1623,"state_code":"SL","state_name":"Silesian Voivodeship","country_id":176,"country_code":"PL","country_name":"Poland","latitude":"50.36266000","longitude":"18.58107000","wikiDataId":"Q555048"},{"id":87562,"Name":"Powiat kłobucki","state_id":1623,"state_code":"SL","state_name":"Silesian Voivodeship","country_id":176,"country_code":"PL","country_name":"Poland","latitude":"50.93274000","longitude":"18.87005000","wikiDataId":"Q1145501"},{"id":87578,"Name":"Powiat lubliniecki","state_id":1623,"state_code":"SL","state_name":"Silesian Voivodeship","country_id":176,"country_code":"PL","country_name":"Poland","latitude":"50.67367000","longitude":"18.79378000","wikiDataId":"Q1145533"},{"id":87585,"Name":"Powiat mikołowski","state_id":1623,"state_code":"SL","state_name":"Silesian Voivodeship","country_id":176,"country_code":"PL","country_name":"Poland","latitude":"50.15133000","longitude":"18.83689000","wikiDataId":"Q1140489"},{"id":87593,"Name":"Powiat myszkowski","state_id":1623,"state_code":"SL","state_name":"Silesian Voivodeship","country_id":176,"country_code":"PL","country_name":"Poland","latitude":"50.60554000","longitude":"19.35125000","wikiDataId":"Q1340622"},{"id":87648,"Name":"Powiat pszczyński","state_id":1623,"state_code":"SL","state_name":"Silesian Voivodeship","country_id":176,"country_code":"PL","country_name":"Poland","latitude":"49.98987000","longitude":"18.88177000","wikiDataId":"Q554844"},{"id":87655,"Name":"Powiat raciborski","state_id":1623,"state_code":"SL","state_name":"Silesian Voivodeship","country_id":176,"country_code":"PL","country_name":"Poland","latitude":"50.08696000","longitude":"18.26916000","wikiDataId":"Q554313"},{"id":87663,"Name":"Powiat rybnicki","state_id":1623,"state_code":"SL","state_name":"Silesian Voivodeship","country_id":176,"country_code":"PL","country_name":"Poland","latitude":"50.10385000","longitude":"18.46527000","wikiDataId":"Q594084"},{"id":87702,"Name":"Powiat tarnogórski","state_id":1623,"state_code":"SL","state_name":"Silesian Voivodeship","country_id":176,"country_code":"PL","country_name":"Poland","latitude":"50.47264000","longitude":"18.86265000","wikiDataId":"Q1145560"},{"id":87720,"Name":"Powiat wodzisławski","state_id":1623,"state_code":"SL","state_name":"Silesian Voivodeship","country_id":176,"country_code":"PL","country_name":"Poland","latitude":"49.99323000","longitude":"18.42504000","wikiDataId":"Q773774"},{"id":87738,"Name":"Powiat zawierciański","state_id":1623,"state_code":"SL","state_name":"Silesian Voivodeship","country_id":176,"country_code":"PL","country_name":"Poland","latitude":"50.54225000","longitude":"19.61192000","wikiDataId":"Q1135372"},{"id":87769,"Name":"Powiat żywiecki","state_id":1623,"state_code":"SL","state_name":"Silesian Voivodeship","country_id":176,"country_code":"PL","country_name":"Poland","latitude":"49.61145000","longitude":"19.21367000","wikiDataId":"Q1134112"},{"id":87793,"Name":"Pruchna","state_id":1623,"state_code":"SL","state_name":"Silesian Voivodeship","country_id":176,"country_code":"PL","country_name":"Poland","latitude":"49.86527000","longitude":"18.68191000","wikiDataId":"Q7252943"},{"id":87821,"Name":"Przyborów","state_id":1623,"state_code":"SL","state_name":"Silesian Voivodeship","country_id":176,"country_code":"PL","country_name":"Poland","latitude":"49.62150000","longitude":"19.38701000","wikiDataId":"Q1998003"},{"id":87826,"Name":"Przyrów","state_id":1623,"state_code":"SL","state_name":"Silesian Voivodeship","country_id":176,"country_code":"PL","country_name":"Poland","latitude":"50.80051000","longitude":"19.52794000","wikiDataId":"Q2073620"},{"id":87827,"Name":"Przystajń","state_id":1623,"state_code":"SL","state_name":"Silesian Voivodeship","country_id":176,"country_code":"PL","country_name":"Poland","latitude":"50.88495000","longitude":"18.69169000","wikiDataId":"Q2073620"},{"id":87829,"Name":"Przyszowice","state_id":1623,"state_code":"SL","state_name":"Silesian Voivodeship","country_id":176,"country_code":"PL","country_name":"Poland","latitude":"50.24841000","longitude":"18.74594000","wikiDataId":"Q4704001"},{"id":87838,"Name":"Psary","state_id":1623,"state_code":"SL","state_name":"Silesian Voivodeship","country_id":176,"country_code":"PL","country_name":"Poland","latitude":"50.61470000","longitude":"18.96991000","wikiDataId":"Q602272"},{"id":87843,"Name":"Pszczyna","state_id":1623,"state_code":"SL","state_name":"Silesian Voivodeship","country_id":176,"country_code":"PL","country_name":"Poland","latitude":"49.98037000","longitude":"18.95382000","wikiDataId":"Q948304"},{"id":87845,"Name":"Pszów","state_id":1623,"state_code":"SL","state_name":"Silesian Voivodeship","country_id":176,"country_code":"PL","country_name":"Poland","latitude":"50.03994000","longitude":"18.39472000","wikiDataId":"Q1001243"},{"id":87853,"Name":"Puńców","state_id":1623,"state_code":"SL","state_name":"Silesian Voivodeship","country_id":176,"country_code":"PL","country_name":"Poland","latitude":"49.71842000","longitude":"18.66157000","wikiDataId":"Q2224817"},{"id":87856,"Name":"Pyskowice","state_id":1623,"state_code":"SL","state_name":"Silesian Voivodeship","country_id":176,"country_code":"PL","country_name":"Poland","latitude":"50.40000000","longitude":"18.63333000","wikiDataId":"Q1001326"},{"id":87872,"Name":"Racibórz","state_id":1623,"state_code":"SL","state_name":"Silesian Voivodeship","country_id":176,"country_code":"PL","country_name":"Poland","latitude":"50.09195000","longitude":"18.21928000","wikiDataId":"Q25302"},{"id":87882,"Name":"Radlin","state_id":1623,"state_code":"SL","state_name":"Silesian Voivodeship","country_id":176,"country_code":"PL","country_name":"Poland","latitude":"50.05020000","longitude":"18.47626000","wikiDataId":"Q995855"},{"id":87889,"Name":"Radostowice","state_id":1623,"state_code":"SL","state_name":"Silesian Voivodeship","country_id":176,"country_code":"PL","country_name":"Poland","latitude":"50.00311000","longitude":"18.88103000","wikiDataId":"Q7281611"},{"id":87896,"Name":"Radziechowy","state_id":1623,"state_code":"SL","state_name":"Silesian Voivodeship","country_id":176,"country_code":"PL","country_name":"Poland","latitude":"49.64651000","longitude":"19.13115000","wikiDataId":"Q1019490"},{"id":87899,"Name":"Radzionków","state_id":1623,"state_code":"SL","state_name":"Silesian Voivodeship","country_id":176,"country_code":"PL","country_name":"Poland","latitude":"50.40026000","longitude":"18.90232000","wikiDataId":"Q584055"},{"id":87906,"Name":"Rajcza","state_id":1623,"state_code":"SL","state_name":"Silesian Voivodeship","country_id":176,"country_code":"PL","country_name":"Poland","latitude":"49.50927000","longitude":"19.11278000","wikiDataId":"Q7766333"},{"id":87913,"Name":"Raszczyce","state_id":1623,"state_code":"SL","state_name":"Silesian Voivodeship","country_id":176,"country_code":"PL","country_name":"Poland","latitude":"50.12190000","longitude":"18.29962000","wikiDataId":"Q744285"},{"id":88038,"Name":"Rędziny","state_id":1623,"state_code":"SL","state_name":"Silesian Voivodeship","country_id":176,"country_code":"PL","country_name":"Poland","latitude":"50.85922000","longitude":"19.21620000","wikiDataId":"Q5173407"},{"id":87948,"Name":"Rogów","state_id":1623,"state_code":"SL","state_name":"Silesian Voivodeship","country_id":176,"country_code":"PL","country_name":"Poland","latitude":"49.99097000","longitude":"18.35077000","wikiDataId":"Q7359609"},{"id":87945,"Name":"Rogoźnik","state_id":1623,"state_code":"SL","state_name":"Silesian Voivodeship","country_id":176,"country_code":"PL","country_name":"Poland","latitude":"50.39106000","longitude":"19.03776000","wikiDataId":"Q7359483"},{"id":87959,"Name":"Rokitno Szlacheckie","state_id":1623,"state_code":"SL","state_name":"Silesian Voivodeship","country_id":176,"country_code":"PL","country_name":"Poland","latitude":"50.43195000","longitude":"19.43293000","wikiDataId":"Q9311984"},{"id":87971,"Name":"Ruda Śląska","state_id":1623,"state_code":"SL","state_name":"Silesian Voivodeship","country_id":176,"country_code":"PL","country_name":"Poland","latitude":"50.25840000","longitude":"18.85632000","wikiDataId":"Q108679"},{"id":87979,"Name":"Rudnik","state_id":1623,"state_code":"SL","state_name":"Silesian Voivodeship","country_id":176,"country_code":"PL","country_name":"Poland","latitude":"50.12729000","longitude":"18.18598000","wikiDataId":"Q606218"},{"id":87982,"Name":"Rudniki","state_id":1623,"state_code":"SL","state_name":"Silesian Voivodeship","country_id":176,"country_code":"PL","country_name":"Poland","latitude":"50.52134000","longitude":"19.43130000","wikiDataId":"Q7377105"},{"id":87983,"Name":"Rudy","state_id":1623,"state_code":"SL","state_name":"Silesian Voivodeship","country_id":176,"country_code":"PL","country_name":"Poland","latitude":"50.19003000","longitude":"18.45334000","wikiDataId":"Q985955"},{"id":87984,"Name":"Rudziczka","state_id":1623,"state_code":"SL","state_name":"Silesian Voivodeship","country_id":176,"country_code":"PL","country_name":"Poland","latitude":"50.03608000","longitude":"18.76225000","wikiDataId":"Q9323875"},{"id":87985,"Name":"Rudziniec","state_id":1623,"state_code":"SL","state_name":"Silesian Voivodeship","country_id":176,"country_code":"PL","country_name":"Poland","latitude":"50.35324000","longitude":"18.40914000","wikiDataId":"Q9323875"},{"id":87991,"Name":"Rybarzowice","state_id":1623,"state_code":"SL","state_name":"Silesian Voivodeship","country_id":176,"country_code":"PL","country_name":"Poland","latitude":"49.72956000","longitude":"19.10162000","wikiDataId":"Q7384724"},{"id":87994,"Name":"Rybnik","state_id":1623,"state_code":"SL","state_name":"Silesian Voivodeship","country_id":176,"country_code":"PL","country_name":"Poland","latitude":"50.09713000","longitude":"18.54179000","wikiDataId":"Q107094"},{"id":87997,"Name":"Rycerka Dolna","state_id":1623,"state_code":"SL","state_name":"Silesian Voivodeship","country_id":176,"country_code":"PL","country_name":"Poland","latitude":"49.47805000","longitude":"19.06162000","wikiDataId":"Q2178152"},{"id":87998,"Name":"Rycerka Górna","state_id":1623,"state_code":"SL","state_name":"Silesian Voivodeship","country_id":176,"country_code":"PL","country_name":"Poland","latitude":"49.44436000","longitude":"19.01596000","wikiDataId":"Q2178152"},{"id":88004,"Name":"Rydułtowy","state_id":1623,"state_code":"SL","state_name":"Silesian Voivodeship","country_id":176,"country_code":"PL","country_name":"Poland","latitude":"50.05857000","longitude":"18.41703000","wikiDataId":"Q948281"},{"id":88325,"Name":"Sączów","state_id":1623,"state_code":"SL","state_name":"Silesian Voivodeship","country_id":176,"country_code":"PL","country_name":"Poland","latitude":"50.43520000","longitude":"19.03038000","wikiDataId":"Q7666969"},{"id":88052,"Name":"Sarnów","state_id":1623,"state_code":"SL","state_name":"Silesian Voivodeship","country_id":176,"country_code":"PL","country_name":"Poland","latitude":"50.37380000","longitude":"19.15061000","wikiDataId":"Q7424390"},{"id":88071,"Name":"Siemianowice Śląskie","state_id":1623,"state_code":"SL","state_name":"Silesian Voivodeship","country_id":176,"country_code":"PL","country_name":"Poland","latitude":"50.32738000","longitude":"19.02901000","wikiDataId":"Q158485"},{"id":88089,"Name":"Sieraków Śląski","state_id":1623,"state_code":"SL","state_name":"Silesian Voivodeship","country_id":176,"country_code":"PL","country_name":"Poland","latitude":"50.80290000","longitude":"18.57548000","wikiDataId":"Q7511237"},{"id":88093,"Name":"Siewierz","state_id":1623,"state_code":"SL","state_name":"Silesian Voivodeship","country_id":176,"country_code":"PL","country_name":"Poland","latitude":"50.46657000","longitude":"19.23028000","wikiDataId":"Q989846"},{"id":88108,"Name":"Skoczów","state_id":1623,"state_code":"SL","state_name":"Silesian Voivodeship","country_id":176,"country_code":"PL","country_name":"Poland","latitude":"49.80089000","longitude":"18.78770000","wikiDataId":"Q987786"},{"id":88118,"Name":"Skrzyszów","state_id":1623,"state_code":"SL","state_name":"Silesian Voivodeship","country_id":176,"country_code":"PL","country_name":"Poland","latitude":"49.94873000","longitude":"18.48879000","wikiDataId":"Q7483901"},{"id":88830,"Name":"Ślemień","state_id":1623,"state_code":"SL","state_name":"Silesian Voivodeship","country_id":176,"country_code":"PL","country_name":"Poland","latitude":"49.71826000","longitude":"19.36735000","wikiDataId":"Q2477043"},{"id":88337,"Name":"Sławków","state_id":1623,"state_code":"SL","state_name":"Silesian Voivodeship","country_id":176,"country_code":"PL","country_name":"Poland","latitude":"50.29943000","longitude":"19.38967000","wikiDataId":"Q841380"},{"id":88324,"Name":"Sól","state_id":1623,"state_code":"SL","state_name":"Silesian Voivodeship","country_id":176,"country_code":"PL","country_name":"Poland","latitude":"49.48764000","longitude":"19.04171000","wikiDataId":"Q1646879"},{"id":88149,"Name":"Sopotnia Wielka","state_id":1623,"state_code":"SL","state_name":"Silesian Voivodeship","country_id":176,"country_code":"PL","country_name":"Poland","latitude":"49.56853000","longitude":"19.28289000","wikiDataId":"Q2801727"},{"id":88158,"Name":"Sośnicowice","state_id":1623,"state_code":"SL","state_name":"Silesian Voivodeship","country_id":176,"country_code":"PL","country_name":"Poland","latitude":"50.27214000","longitude":"18.52982000","wikiDataId":"Q553969"},{"id":88152,"Name":"Sosnowiec","state_id":1623,"state_code":"SL","state_name":"Silesian Voivodeship","country_id":176,"country_code":"PL","country_name":"Poland","latitude":"50.27119000","longitude":"19.19463000","wikiDataId":"Q105060"},{"id":88171,"Name":"Stanowice","state_id":1623,"state_code":"SL","state_name":"Silesian Voivodeship","country_id":176,"country_code":"PL","country_name":"Poland","latitude":"50.13037000","longitude":"18.67084000","wikiDataId":"Q2331901"},{"id":88180,"Name":"Starcza","state_id":1623,"state_code":"SL","state_name":"Silesian Voivodeship","country_id":176,"country_code":"PL","country_name":"Poland","latitude":"50.66421000","longitude":"19.04180000","wikiDataId":"Q737085"},{"id":88191,"Name":"Starokrzepice","state_id":1623,"state_code":"SL","state_name":"Silesian Voivodeship","country_id":176,"country_code":"PL","country_name":"Poland","latitude":"50.94859000","longitude":"18.65341000","wikiDataId":"Q3848205"},{"id":88218,"Name":"Strumień","state_id":1623,"state_code":"SL","state_name":"Silesian Voivodeship","country_id":176,"country_code":"PL","country_name":"Poland","latitude":"49.92103000","longitude":"18.76637000","wikiDataId":"Q1005359"},{"id":88223,"Name":"Strzebiń","state_id":1623,"state_code":"SL","state_name":"Silesian Voivodeship","country_id":176,"country_code":"PL","country_name":"Poland","latitude":"50.61647000","longitude":"18.89794000","wikiDataId":"Q2652889"},{"id":88235,"Name":"Strzyżowice","state_id":1623,"state_code":"SL","state_name":"Silesian Voivodeship","country_id":176,"country_code":"PL","country_name":"Poland","latitude":"50.38725000","longitude":"19.08038000","wikiDataId":"Q7625916"},{"id":88240,"Name":"Studzionka","state_id":1623,"state_code":"SL","state_name":"Silesian Voivodeship","country_id":176,"country_code":"PL","country_name":"Poland","latitude":"49.96232000","longitude":"18.77280000","wikiDataId":"Q7628493"},{"id":88268,"Name":"Suszec","state_id":1623,"state_code":"SL","state_name":"Silesian Voivodeship","country_id":176,"country_code":"PL","country_name":"Poland","latitude":"50.02958000","longitude":"18.79160000","wikiDataId":"Q2231613"},{"id":88854,"Name":"Świerklaniec","state_id":1623,"state_code":"SL","state_name":"Silesian Voivodeship","country_id":176,"country_code":"PL","country_name":"Poland","latitude":"50.44237000","longitude":"18.93734000","wikiDataId":"Q387571"},{"id":88855,"Name":"Świerklany Dolne","state_id":1623,"state_code":"SL","state_name":"Silesian Voivodeship","country_id":176,"country_code":"PL","country_name":"Poland","latitude":"50.01827000","longitude":"18.57702000","wikiDataId":"Q8082164"},{"id":88856,"Name":"Świerklany Górne","state_id":1623,"state_code":"SL","state_name":"Silesian Voivodeship","country_id":176,"country_code":"PL","country_name":"Poland","latitude":"50.02765000","longitude":"18.59050000","wikiDataId":"Q7483914"},{"id":88867,"Name":"Świętochłowice","state_id":1623,"state_code":"SL","state_name":"Silesian Voivodeship","country_id":176,"country_code":"PL","country_name":"Poland","latitude":"50.29636000","longitude":"18.91726000","wikiDataId":"Q45197"},{"id":88861,"Name":"Świnna","state_id":1623,"state_code":"SL","state_name":"Silesian Voivodeship","country_id":176,"country_code":"PL","country_name":"Poland","latitude":"49.65802000","longitude":"19.25406000","wikiDataId":"Q2051836"},{"id":88282,"Name":"Syrynia","state_id":1623,"state_code":"SL","state_name":"Silesian Voivodeship","country_id":176,"country_code":"PL","country_name":"Poland","latitude":"50.02004000","longitude":"18.34597000","wikiDataId":"Q578516"},{"id":88295,"Name":"Szczekociny","state_id":1623,"state_code":"SL","state_name":"Silesian Voivodeship","country_id":176,"country_code":"PL","country_name":"Poland","latitude":"50.62669000","longitude":"19.82500000","wikiDataId":"Q305154"},{"id":88297,"Name":"Szczerbice","state_id":1623,"state_code":"SL","state_name":"Silesian Voivodeship","country_id":176,"country_code":"PL","country_name":"Poland","latitude":"50.09416000","longitude":"18.44896000","wikiDataId":"Q1456199"},{"id":88303,"Name":"Szczyrk","state_id":1623,"state_code":"SL","state_name":"Silesian Voivodeship","country_id":176,"country_code":"PL","country_name":"Poland","latitude":"49.71724000","longitude":"19.03183000","wikiDataId":"Q581609"},{"id":88364,"Name":"Tarnowskie Góry","state_id":1623,"state_code":"SL","state_name":"Silesian Voivodeship","country_id":176,"country_code":"PL","country_name":"Poland","latitude":"50.44548000","longitude":"18.86147000","wikiDataId":"Q51807"},{"id":88386,"Name":"Toszek","state_id":1623,"state_code":"SL","state_name":"Silesian Voivodeship","country_id":176,"country_code":"PL","country_name":"Poland","latitude":"50.45442000","longitude":"18.52209000","wikiDataId":"Q1000938"},{"id":88392,"Name":"Truskolasy","state_id":1623,"state_code":"SL","state_name":"Silesian Voivodeship","country_id":176,"country_code":"PL","country_name":"Poland","latitude":"50.86692000","longitude":"18.82705000","wikiDataId":"Q1983326"},{"id":88406,"Name":"Trzebinia","state_id":1623,"state_code":"SL","state_name":"Silesian Voivodeship","country_id":176,"country_code":"PL","country_name":"Poland","latitude":"49.65024000","longitude":"19.22264000","wikiDataId":"Q7848983"},{"id":88427,"Name":"Turza Śląska","state_id":1623,"state_code":"SL","state_name":"Silesian Voivodeship","country_id":176,"country_code":"PL","country_name":"Poland","latitude":"49.97231000","longitude":"18.43781000","wikiDataId":"Q3051860"},{"id":88433,"Name":"Tworków","state_id":1623,"state_code":"SL","state_name":"Silesian Voivodeship","country_id":176,"country_code":"PL","country_name":"Poland","latitude":"50.00559000","longitude":"18.23576000","wikiDataId":"Q672733"},{"id":88434,"Name":"Tworóg","state_id":1623,"state_code":"SL","state_name":"Silesian Voivodeship","country_id":176,"country_code":"PL","country_name":"Poland","latitude":"50.53100000","longitude":"18.71572000","wikiDataId":"Q1000147"},{"id":88436,"Name":"Tychy","state_id":1623,"state_code":"SL","state_name":"Silesian Voivodeship","country_id":176,"country_code":"PL","country_name":"Poland","latitude":"50.13717000","longitude":"18.96641000","wikiDataId":"Q11977"},{"id":88451,"Name":"Ujsoły","state_id":1623,"state_code":"SL","state_name":"Silesian Voivodeship","country_id":176,"country_code":"PL","country_name":"Poland","latitude":"49.48290000","longitude":"19.13801000","wikiDataId":"Q2061795"},{"id":88464,"Name":"Ustroń","state_id":1623,"state_code":"SL","state_name":"Silesian Voivodeship","country_id":176,"country_code":"PL","country_name":"Poland","latitude":"49.72153000","longitude":"18.80198000","wikiDataId":"Q1001297"},{"id":88638,"Name":"Węgierska Górka","state_id":1623,"state_code":"SL","state_name":"Silesian Voivodeship","country_id":176,"country_code":"PL","country_name":"Poland","latitude":"49.60776000","longitude":"19.11638000","wikiDataId":"Q1018841"},{"id":88510,"Name":"Wielowieś","state_id":1623,"state_code":"SL","state_name":"Silesian Voivodeship","country_id":176,"country_code":"PL","country_name":"Poland","latitude":"50.50966000","longitude":"18.61608000","wikiDataId":"Q553468"},{"id":88513,"Name":"Wieprz","state_id":1623,"state_code":"SL","state_name":"Silesian Voivodeship","country_id":176,"country_code":"PL","country_name":"Poland","latitude":"49.64746000","longitude":"19.18007000","wikiDataId":"Q2633393"},{"id":88527,"Name":"Wieszowa","state_id":1623,"state_code":"SL","state_name":"Silesian Voivodeship","country_id":176,"country_code":"PL","country_name":"Poland","latitude":"50.38444000","longitude":"18.75924000","wikiDataId":"Q130108"},{"id":88530,"Name":"Wilamowice","state_id":1623,"state_code":"SL","state_name":"Silesian Voivodeship","country_id":176,"country_code":"PL","country_name":"Poland","latitude":"49.91701000","longitude":"19.15237000","wikiDataId":"Q948267"},{"id":88532,"Name":"Wilcza","state_id":1623,"state_code":"SL","state_name":"Silesian Voivodeship","country_id":176,"country_code":"PL","country_name":"Poland","latitude":"50.18899000","longitude":"18.59668000","wikiDataId":"Q1570938"},{"id":88538,"Name":"Wilkowice","state_id":1623,"state_code":"SL","state_name":"Silesian Voivodeship","country_id":176,"country_code":"PL","country_name":"Poland","latitude":"49.76282000","longitude":"19.08973000","wikiDataId":"Q553957"},{"id":88547,"Name":"Wisła","state_id":1623,"state_code":"SL","state_name":"Silesian Voivodeship","country_id":176,"country_code":"PL","country_name":"Poland","latitude":"49.65629000","longitude":"18.85910000","wikiDataId":"Q655956"},{"id":88651,"Name":"Włodowice","state_id":1623,"state_code":"SL","state_name":"Silesian Voivodeship","country_id":176,"country_code":"PL","country_name":"Poland","latitude":"50.55560000","longitude":"19.45155000","wikiDataId":"Q2405929"},{"id":88569,"Name":"Wodzisław Śląski","state_id":1623,"state_code":"SL","state_name":"Silesian Voivodeship","country_id":176,"country_code":"PL","country_name":"Poland","latitude":"50.00377000","longitude":"18.47205000","wikiDataId":"Q500260"},{"id":88576,"Name":"Wojkowice","state_id":1623,"state_code":"SL","state_name":"Silesian Voivodeship","country_id":176,"country_code":"PL","country_name":"Poland","latitude":"50.36509000","longitude":"19.03652000","wikiDataId":"Q985640"},{"id":88581,"Name":"Wola","state_id":1623,"state_code":"SL","state_name":"Silesian Voivodeship","country_id":176,"country_code":"PL","country_name":"Poland","latitude":"50.01745000","longitude":"19.12333000","wikiDataId":"Q8029372"},{"id":88603,"Name":"Wożniki","state_id":1623,"state_code":"SL","state_name":"Silesian Voivodeship","country_id":176,"country_code":"PL","country_name":"Poland","latitude":"50.58934000","longitude":"19.05991000","wikiDataId":"Q554829"},{"id":88609,"Name":"Wręczyca Wielka","state_id":1623,"state_code":"SL","state_name":"Silesian Voivodeship","country_id":176,"country_code":"PL","country_name":"Poland","latitude":"50.84589000","longitude":"18.92086000","wikiDataId":"Q922279"},{"id":88613,"Name":"Wyry","state_id":1623,"state_code":"SL","state_name":"Silesian Voivodeship","country_id":176,"country_code":"PL","country_name":"Poland","latitude":"50.13296000","longitude":"18.90052000","wikiDataId":"Q1809663"},{"id":88618,"Name":"Wysoka","state_id":1623,"state_code":"SL","state_name":"Silesian Voivodeship","country_id":176,"country_code":"PL","country_name":"Poland","latitude":"50.42989000","longitude":"19.35368000","wikiDataId":"Q556344"},{"id":88662,"Name":"Zabłocie","state_id":1623,"state_code":"SL","state_name":"Silesian Voivodeship","country_id":176,"country_code":"PL","country_name":"Poland","latitude":"49.90282000","longitude":"18.78147000","wikiDataId":"Q8063676"},{"id":88870,"Name":"Żabnica","state_id":1623,"state_code":"SL","state_name":"Silesian Voivodeship","country_id":176,"country_code":"PL","country_name":"Poland","latitude":"49.58139000","longitude":"19.15621000","wikiDataId":"Q8083013"},{"id":88658,"Name":"Zaborze","state_id":1623,"state_code":"SL","state_name":"Silesian Voivodeship","country_id":176,"country_code":"PL","country_name":"Poland","latitude":"49.87279000","longitude":"18.80370000","wikiDataId":"Q8063561"},{"id":88659,"Name":"Zabrze","state_id":1623,"state_code":"SL","state_name":"Silesian Voivodeship","country_id":176,"country_code":"PL","country_name":"Poland","latitude":"50.32492000","longitude":"18.78576000","wikiDataId":"Q103892"},{"id":88660,"Name":"Zabrzeg","state_id":1623,"state_code":"SL","state_name":"Silesian Voivodeship","country_id":176,"country_code":"PL","country_name":"Poland","latitude":"49.91619000","longitude":"18.94292000","wikiDataId":"Q8063632"},{"id":88689,"Name":"Zamarski","state_id":1623,"state_code":"SL","state_name":"Silesian Voivodeship","country_id":176,"country_code":"PL","country_name":"Poland","latitude":"49.78254000","longitude":"18.66972000","wikiDataId":"Q3497494"},{"id":88873,"Name":"Żarki","state_id":1623,"state_code":"SL","state_name":"Silesian Voivodeship","country_id":176,"country_code":"PL","country_name":"Poland","latitude":"50.62518000","longitude":"19.36357000","wikiDataId":"Q149411"},{"id":88875,"Name":"Żarki-Letnisko","state_id":1623,"state_code":"SL","state_name":"Silesian Voivodeship","country_id":176,"country_code":"PL","country_name":"Poland","latitude":"50.62295000","longitude":"19.27508000","wikiDataId":"Q8083087"},{"id":88697,"Name":"Zarzecze","state_id":1623,"state_code":"SL","state_name":"Silesian Voivodeship","country_id":176,"country_code":"PL","country_name":"Poland","latitude":"49.71932000","longitude":"19.17526000","wikiDataId":"Q8066983"},{"id":88704,"Name":"Zawidów","state_id":1623,"state_code":"SL","state_name":"Silesian Voivodeship","country_id":176,"country_code":"PL","country_name":"Poland","latitude":"51.02546000","longitude":"15.06213000","wikiDataId":"Q167756"},{"id":88705,"Name":"Zawiercie","state_id":1623,"state_code":"SL","state_name":"Silesian Voivodeship","country_id":176,"country_code":"PL","country_name":"Poland","latitude":"50.48766000","longitude":"19.41679000","wikiDataId":"Q148827"},{"id":88709,"Name":"Zbrosławice","state_id":1623,"state_code":"SL","state_name":"Silesian Voivodeship","country_id":176,"country_code":"PL","country_name":"Poland","latitude":"50.41612000","longitude":"18.75443000","wikiDataId":"Q168231"},{"id":88711,"Name":"Zbytków","state_id":1623,"state_code":"SL","state_name":"Silesian Voivodeship","country_id":176,"country_code":"PL","country_name":"Poland","latitude":"49.92288000","longitude":"18.72697000","wikiDataId":"Q8067893"},{"id":88721,"Name":"Zebrzydowice","state_id":1623,"state_code":"SL","state_name":"Silesian Voivodeship","country_id":176,"country_code":"PL","country_name":"Poland","latitude":"49.87793000","longitude":"18.61127000","wikiDataId":"Q553629"},{"id":88885,"Name":"Żernica","state_id":1623,"state_code":"SL","state_name":"Silesian Voivodeship","country_id":176,"country_code":"PL","country_name":"Poland","latitude":"50.24770000","longitude":"18.61547000","wikiDataId":"Q8083272"},{"id":88890,"Name":"Żory","state_id":1623,"state_code":"SL","state_name":"Silesian Voivodeship","country_id":176,"country_code":"PL","country_name":"Poland","latitude":"50.04523000","longitude":"18.70062000","wikiDataId":"Q393171"},{"id":88901,"Name":"Żywiec","state_id":1623,"state_code":"SL","state_name":"Silesian Voivodeship","country_id":176,"country_code":"PL","country_name":"Poland","latitude":"49.68529000","longitude":"19.19243000","wikiDataId":"Q373059"}]