[{"id":53443,"Name":"Catarina","state_id":3667,"state_code":"SM","state_name":"San Marcos Department","country_id":90,"country_code":"GT","country_name":"Guatemala","latitude":"14.85354000","longitude":"-92.07682000","wikiDataId":"Q1748875"},{"id":53459,"Name":"Ciudad Tecún Umán","state_id":3667,"state_code":"SM","state_name":"San Marcos Department","country_id":90,"country_code":"GT","country_name":"Guatemala","latitude":"14.67737000","longitude":"-92.14039000","wikiDataId":"Q2305570"},{"id":53467,"Name":"Comitancillo","state_id":3667,"state_code":"SM","state_name":"San Marcos Department","country_id":90,"country_code":"GT","country_name":"Guatemala","latitude":"15.08937000","longitude":"-91.74971000","wikiDataId":"Q2716941"},{"id":53472,"Name":"Concepción Tutuapa","state_id":3667,"state_code":"SM","state_name":"San Marcos Department","country_id":90,"country_code":"GT","country_name":"Guatemala","latitude":"15.23940000","longitude":"-91.84460000","wikiDataId":"Q1748770"},{"id":53487,"Name":"El Quetzal","state_id":3667,"state_code":"SM","state_name":"San Marcos Department","country_id":90,"country_code":"GT","country_name":"Guatemala","latitude":"14.76865000","longitude":"-91.81757000","wikiDataId":"Q1748870"},{"id":53488,"Name":"El Rodeo","state_id":3667,"state_code":"SM","state_name":"San Marcos Department","country_id":90,"country_code":"GT","country_name":"Guatemala","latitude":"14.91447000","longitude":"-91.97631000","wikiDataId":"Q579733"},{"id":53490,"Name":"El Tumbador","state_id":3667,"state_code":"SM","state_name":"San Marcos Department","country_id":90,"country_code":"GT","country_name":"Guatemala","latitude":"14.86375000","longitude":"-91.93416000","wikiDataId":"Q2422887"},{"id":53493,"Name":"Esquipulas Palo Gordo","state_id":3667,"state_code":"SM","state_name":"San Marcos Department","country_id":90,"country_code":"GT","country_name":"Guatemala","latitude":"14.94135000","longitude":"-91.82564000","wikiDataId":"Q1748873"},{"id":53506,"Name":"Ixchiguán","state_id":3667,"state_code":"SM","state_name":"San Marcos Department","country_id":90,"country_code":"GT","country_name":"Guatemala","latitude":"15.16375000","longitude":"-91.93256000","wikiDataId":"Q2609056"},{"id":53522,"Name":"La Reforma","state_id":3667,"state_code":"SM","state_name":"San Marcos Department","country_id":90,"country_code":"GT","country_name":"Guatemala","latitude":"14.80104000","longitude":"-91.82233000","wikiDataId":"Q1748856"},{"id":53529,"Name":"Malacatán","state_id":3667,"state_code":"SM","state_name":"San Marcos Department","country_id":90,"country_code":"GT","country_name":"Guatemala","latitude":"14.91132000","longitude":"-92.05788000","wikiDataId":"Q539311"},{"id":53558,"Name":"Municipio de Concepción Tutuapa","state_id":3667,"state_code":"SM","state_name":"San Marcos Department","country_id":90,"country_code":"GT","country_name":"Guatemala","latitude":"15.28795000","longitude":"-91.86738000","wikiDataId":"Q2403612"},{"id":53568,"Name":"Municipio de Malacatán","state_id":3667,"state_code":"SM","state_name":"San Marcos Department","country_id":90,"country_code":"GT","country_name":"Guatemala","latitude":"14.91829000","longitude":"-92.10548000","wikiDataId":"Q2403612"},{"id":53597,"Name":"Municipio de Sipacapa","state_id":3667,"state_code":"SM","state_name":"San Marcos Department","country_id":90,"country_code":"GT","country_name":"Guatemala","latitude":"15.19243000","longitude":"-91.65541000","wikiDataId":"Q119252"},{"id":53598,"Name":"Municipio de Tejutla","state_id":3667,"state_code":"SM","state_name":"San Marcos Department","country_id":90,"country_code":"GT","country_name":"Guatemala","latitude":"15.15638000","longitude":"-91.82457000","wikiDataId":"Q119252"},{"id":53607,"Name":"Nuevo Progreso","state_id":3667,"state_code":"SM","state_name":"San Marcos Department","country_id":90,"country_code":"GT","country_name":"Guatemala","latitude":"14.79174000","longitude":"-91.91946000","wikiDataId":"Q3879296"},{"id":53609,"Name":"Ocós","state_id":3667,"state_code":"SM","state_name":"San Marcos Department","country_id":90,"country_code":"GT","country_name":"Guatemala","latitude":"14.50998000","longitude":"-92.19298000","wikiDataId":"Q1748759"},{"id":53615,"Name":"Pajapita","state_id":3667,"state_code":"SM","state_name":"San Marcos Department","country_id":90,"country_code":"GT","country_name":"Guatemala","latitude":"14.72152000","longitude":"-92.03521000","wikiDataId":"Q2402391"},{"id":53642,"Name":"Río Blanco","state_id":3667,"state_code":"SM","state_name":"San Marcos Department","country_id":90,"country_code":"GT","country_name":"Guatemala","latitude":"15.03820000","longitude":"-91.68463000","wikiDataId":"Q3943212"},{"id":53660,"Name":"San Antonio Sacatepéquez","state_id":3667,"state_code":"SM","state_name":"San Marcos Department","country_id":90,"country_code":"GT","country_name":"Guatemala","latitude":"14.96060000","longitude":"-91.73154000","wikiDataId":"Q3946742"},{"id":53669,"Name":"San Cristóbal Cucho","state_id":3667,"state_code":"SM","state_name":"San Marcos Department","country_id":90,"country_code":"GT","country_name":"Guatemala","latitude":"14.90505000","longitude":"-91.78123000","wikiDataId":"Q1748857"},{"id":53686,"Name":"San José Ojetenam","state_id":3667,"state_code":"SM","state_name":"San Marcos Department","country_id":90,"country_code":"GT","country_name":"Guatemala","latitude":"15.23443000","longitude":"-91.97317000","wikiDataId":"Q1748795"},{"id":53687,"Name":"San José Ojetenán","state_id":3667,"state_code":"SM","state_name":"San Marcos Department","country_id":90,"country_code":"GT","country_name":"Guatemala","latitude":"15.21667000","longitude":"-91.96667000","wikiDataId":"Q1748795"},{"id":53700,"Name":"San Lorenzo","state_id":3667,"state_code":"SM","state_name":"San Marcos Department","country_id":90,"country_code":"GT","country_name":"Guatemala","latitude":"15.03087000","longitude":"-91.73534000","wikiDataId":"Q845976"},{"id":53708,"Name":"San Marcos","state_id":3667,"state_code":"SM","state_name":"San Marcos Department","country_id":90,"country_code":"GT","country_name":"Guatemala","latitude":"14.96389000","longitude":"-91.79444000","wikiDataId":"Q1023981"},{"id":53718,"Name":"San Miguel Ixtahuacán","state_id":3667,"state_code":"SM","state_name":"San Marcos Department","country_id":90,"country_code":"GT","country_name":"Guatemala","latitude":"15.27247000","longitude":"-91.74785000","wikiDataId":"Q2402417"},{"id":53721,"Name":"San Pablo","state_id":3667,"state_code":"SM","state_name":"San Marcos Department","country_id":90,"country_code":"GT","country_name":"Guatemala","latitude":"14.93269000","longitude":"-92.00415000","wikiDataId":"Q3306697"},{"id":53729,"Name":"San Pedro Sacatepéquez","state_id":3667,"state_code":"SM","state_name":"San Marcos Department","country_id":90,"country_code":"GT","country_name":"Guatemala","latitude":"14.96807000","longitude":"-91.76172000","wikiDataId":"Q2608367"},{"id":53735,"Name":"San Rafael Pie de la Cuesta","state_id":3667,"state_code":"SM","state_name":"San Marcos Department","country_id":90,"country_code":"GT","country_name":"Guatemala","latitude":"14.93052000","longitude":"-91.91388000","wikiDataId":"Q2402778"},{"id":53779,"Name":"Sibinal","state_id":3667,"state_code":"SM","state_name":"San Marcos Department","country_id":90,"country_code":"GT","country_name":"Guatemala","latitude":"15.14963000","longitude":"-92.04892000","wikiDataId":"Q1748820"},{"id":53780,"Name":"Sipacapa","state_id":3667,"state_code":"SM","state_name":"San Marcos Department","country_id":90,"country_code":"GT","country_name":"Guatemala","latitude":"15.21246000","longitude":"-91.63416000","wikiDataId":"Q1748824"},{"id":53785,"Name":"Tacaná","state_id":3667,"state_code":"SM","state_name":"San Marcos Department","country_id":90,"country_code":"GT","country_name":"Guatemala","latitude":"15.24058000","longitude":"-92.06721000","wikiDataId":"Q2401748"},{"id":53787,"Name":"Tajumulco","state_id":3667,"state_code":"SM","state_name":"San Marcos Department","country_id":90,"country_code":"GT","country_name":"Guatemala","latitude":"15.08349000","longitude":"-91.92225000","wikiDataId":"Q1748863"},{"id":53792,"Name":"Tejutla","state_id":3667,"state_code":"SM","state_name":"San Marcos Department","country_id":90,"country_code":"GT","country_name":"Guatemala","latitude":"15.12254000","longitude":"-91.80635000","wikiDataId":"Q1748860"}]