[{"id":56509,"Name":"Kabupaten Majene","state_id":1817,"state_code":"SR","state_name":"Sulawesi Barat","country_id":102,"country_code":"ID","country_name":"Indonesia","latitude":"-3.15000000","longitude":"118.86667000","wikiDataId":"Q15344"},{"id":56517,"Name":"Kabupaten Mamasa","state_id":1817,"state_code":"SR","state_name":"Sulawesi Barat","country_id":102,"country_code":"ID","country_name":"Indonesia","latitude":"-2.96492000","longitude":"119.30631000","wikiDataId":"Q15347"},{"id":56520,"Name":"Kabupaten Mamuju","state_id":1817,"state_code":"SR","state_name":"Sulawesi Barat","country_id":102,"country_code":"ID","country_name":"Indonesia","latitude":"-2.50000000","longitude":"119.41667000","wikiDataId":"Q15349"},{"id":56521,"Name":"Kabupaten Mamuju Tengah","state_id":1817,"state_code":"SR","state_name":"Sulawesi Barat","country_id":102,"country_code":"ID","country_name":"Indonesia","latitude":"-2.82120000","longitude":"119.26620000","wikiDataId":"Q12488349"},{"id":56522,"Name":"Kabupaten Mamuju Utara","state_id":1817,"state_code":"SR","state_name":"Sulawesi Barat","country_id":102,"country_code":"ID","country_name":"Indonesia","latitude":"-1.51639000","longitude":"119.42139000","wikiDataId":"Q15350"},{"id":56596,"Name":"Kabupaten Polewali Mandar","state_id":1817,"state_code":"SR","state_name":"Sulawesi Barat","country_id":102,"country_code":"ID","country_name":"Indonesia","latitude":"-3.30000000","longitude":"119.16667000","wikiDataId":"Q15353"},{"id":56854,"Name":"Majene","state_id":1817,"state_code":"SR","state_name":"Sulawesi Barat","country_id":102,"country_code":"ID","country_name":"Indonesia","latitude":"-3.54030000","longitude":"118.97070000","wikiDataId":"Q11017"},{"id":56857,"Name":"Mamuju","state_id":1817,"state_code":"SR","state_name":"Sulawesi Barat","country_id":102,"country_code":"ID","country_name":"Indonesia","latitude":"-2.68056000","longitude":"118.88611000","wikiDataId":"Q1070920"},{"id":56935,"Name":"Polewali","state_id":1817,"state_code":"SR","state_name":"Sulawesi Barat","country_id":102,"country_code":"ID","country_name":"Indonesia","latitude":"-3.43240000","longitude":"119.34350000","wikiDataId":"Q24847469"}]