[{"id":53434,"Name":"Barberena","state_id":3665,"state_code":"SR","state_name":"Santa Rosa Department","country_id":90,"country_code":"GT","country_name":"Guatemala","latitude":"14.30739000","longitude":"-90.36156000","wikiDataId":"Q2718316"},{"id":53442,"Name":"Casillas","state_id":3665,"state_code":"SR","state_name":"Santa Rosa Department","country_id":90,"country_code":"GT","country_name":"Guatemala","latitude":"14.42222000","longitude":"-90.24417000","wikiDataId":"Q1748683"},{"id":53456,"Name":"Chiquimulilla","state_id":3665,"state_code":"SR","state_name":"Santa Rosa Department","country_id":90,"country_code":"GT","country_name":"Guatemala","latitude":"14.08380000","longitude":"-90.38547000","wikiDataId":"Q202128"},{"id":53475,"Name":"Cuilapa","state_id":3665,"state_code":"SR","state_name":"Santa Rosa Department","country_id":90,"country_code":"GT","country_name":"Guatemala","latitude":"14.27639000","longitude":"-90.29889000","wikiDataId":"Q1015941"},{"id":53501,"Name":"Guazacapán","state_id":3665,"state_code":"SR","state_name":"Santa Rosa Department","country_id":90,"country_code":"GT","country_name":"Guatemala","latitude":"14.07417000","longitude":"-90.41667000","wikiDataId":"Q2401701"},{"id":53547,"Name":"Municipio de Casillas","state_id":3665,"state_code":"SR","state_name":"Santa Rosa Department","country_id":90,"country_code":"GT","country_name":"Guatemala","latitude":"14.37854000","longitude":"-90.17260000","wikiDataId":"Q2403612"},{"id":53553,"Name":"Municipio de Chiquimulilla","state_id":3665,"state_code":"SR","state_name":"Santa Rosa Department","country_id":90,"country_code":"GT","country_name":"Guatemala","latitude":"14.09716000","longitude":"-90.37903000","wikiDataId":"Q2403612"},{"id":53562,"Name":"Municipio de Guazacapán","state_id":3665,"state_code":"SR","state_name":"Santa Rosa Department","country_id":90,"country_code":"GT","country_name":"Guatemala","latitude":"14.01786000","longitude":"-90.43400000","wikiDataId":"Q2403612"},{"id":53606,"Name":"Nueva Santa Rosa","state_id":3665,"state_code":"SR","state_name":"Santa Rosa Department","country_id":90,"country_code":"GT","country_name":"Guatemala","latitude":"14.38111000","longitude":"-90.27611000","wikiDataId":"Q2402348"},{"id":53612,"Name":"Oratorio","state_id":3665,"state_code":"SR","state_name":"Santa Rosa Department","country_id":90,"country_code":"GT","country_name":"Guatemala","latitude":"14.22806000","longitude":"-90.17583000","wikiDataId":"Q3884406"},{"id":53633,"Name":"Pueblo Nuevo Viñas","state_id":3665,"state_code":"SR","state_name":"Santa Rosa Department","country_id":90,"country_code":"GT","country_name":"Guatemala","latitude":"14.22576000","longitude":"-90.47613000","wikiDataId":"Q2402134"},{"id":53699,"Name":"San Juan Tecuaco","state_id":3665,"state_code":"SR","state_name":"Santa Rosa Department","country_id":90,"country_code":"GT","country_name":"Guatemala","latitude":"14.08361000","longitude":"-90.26649000","wikiDataId":"Q2372941"},{"id":53733,"Name":"San Rafael Las Flores","state_id":3665,"state_code":"SR","state_name":"Santa Rosa Department","country_id":90,"country_code":"GT","country_name":"Guatemala","latitude":"14.48139000","longitude":"-90.17333000","wikiDataId":"Q1748669"},{"id":53757,"Name":"Santa Cruz Naranjo","state_id":3665,"state_code":"SR","state_name":"Santa Rosa Department","country_id":90,"country_code":"GT","country_name":"Guatemala","latitude":"14.38806000","longitude":"-90.36972000","wikiDataId":"Q979193"},{"id":53766,"Name":"Santa María Ixhuatán","state_id":3665,"state_code":"SR","state_name":"Santa Rosa Department","country_id":90,"country_code":"GT","country_name":"Guatemala","latitude":"14.19000000","longitude":"-90.27472000","wikiDataId":"Q1748654"},{"id":53769,"Name":"Santa Rosa de Lima","state_id":3665,"state_code":"SR","state_name":"Santa Rosa Department","country_id":90,"country_code":"GT","country_name":"Guatemala","latitude":"14.38806000","longitude":"-90.29556000","wikiDataId":"Q3949243"},{"id":53789,"Name":"Taxisco","state_id":3665,"state_code":"SR","state_name":"Santa Rosa Department","country_id":90,"country_code":"GT","country_name":"Guatemala","latitude":"14.06719000","longitude":"-90.46791000","wikiDataId":"Q2402116"}]