[{"id":56177,"Name":"Ambarita","state_id":1792,"state_code":"SU","state_name":"Sumatera Utara","country_id":102,"country_code":"ID","country_name":"Indonesia","latitude":"2.68140000","longitude":"98.83110000","wikiDataId":"Q25017837"},{"id":56194,"Name":"Bandar","state_id":1792,"state_code":"SU","state_name":"Sumatera Utara","country_id":102,"country_code":"ID","country_name":"Indonesia","latitude":"2.05000000","longitude":"99.75000000","wikiDataId":"Q24821695"},{"id":56216,"Name":"Belawan","state_id":1792,"state_code":"SU","state_name":"Sumatera Utara","country_id":102,"country_code":"ID","country_name":"Indonesia","latitude":"3.77550000","longitude":"98.68320000","wikiDataId":"Q682657"},{"id":56218,"Name":"Berastagi","state_id":1792,"state_code":"SU","state_name":"Sumatera Utara","country_id":102,"country_code":"ID","country_name":"Indonesia","latitude":"3.19468000","longitude":"98.50889000","wikiDataId":"Q8042"},{"id":56222,"Name":"Binjai","state_id":1792,"state_code":"SU","state_name":"Sumatera Utara","country_id":102,"country_code":"ID","country_name":"Indonesia","latitude":"3.60010000","longitude":"98.48540000","wikiDataId":"Q5954"},{"id":56261,"Name":"Deli Tua","state_id":1792,"state_code":"SU","state_name":"Sumatera Utara","country_id":102,"country_code":"ID","country_name":"Indonesia","latitude":"3.50780000","longitude":"98.68390000","wikiDataId":"Q24821924"},{"id":56290,"Name":"Gunungsitoli","state_id":1792,"state_code":"SU","state_name":"Sumatera Utara","country_id":102,"country_code":"ID","country_name":"Indonesia","latitude":"1.28880000","longitude":"97.61430000","wikiDataId":"Q5967"},{"id":56306,"Name":"Kabanjahe","state_id":1792,"state_code":"SU","state_name":"Sumatera Utara","country_id":102,"country_code":"ID","country_name":"Indonesia","latitude":"3.10010000","longitude":"98.49080000","wikiDataId":"Q24920614"},{"id":56320,"Name":"Kabupaten Asahan","state_id":1792,"state_code":"SU","state_name":"Sumatera Utara","country_id":102,"country_code":"ID","country_name":"Indonesia","latitude":"2.78333000","longitude":"99.55000000","wikiDataId":"Q1795"},{"id":56348,"Name":"Kabupaten Batu Bara","state_id":1792,"state_code":"SU","state_name":"Sumatera Utara","country_id":102,"country_code":"ID","country_name":"Indonesia","latitude":"3.16166000","longitude":"99.52652000","wikiDataId":"Q5797"},{"id":56394,"Name":"Kabupaten Dairi","state_id":1792,"state_code":"SU","state_name":"Sumatera Utara","country_id":102,"country_code":"ID","country_name":"Indonesia","latitude":"2.86667000","longitude":"98.23333000","wikiDataId":"Q5801"},{"id":56396,"Name":"Kabupaten Deli Serdang","state_id":1792,"state_code":"SU","state_name":"Sumatera Utara","country_id":102,"country_code":"ID","country_name":"Indonesia","latitude":"3.41667000","longitude":"98.66667000","wikiDataId":"Q5804"},{"id":56423,"Name":"Kabupaten Humbang Hasundutan","state_id":1792,"state_code":"SU","state_name":"Sumatera Utara","country_id":102,"country_code":"ID","country_name":"Indonesia","latitude":"2.26551000","longitude":"98.50376000","wikiDataId":"Q5808"},{"id":56442,"Name":"Kabupaten Karo","state_id":1792,"state_code":"SU","state_name":"Sumatera Utara","country_id":102,"country_code":"ID","country_name":"Indonesia","latitude":"3.11667000","longitude":"98.30000000","wikiDataId":"Q5810"},{"id":56479,"Name":"Kabupaten Labuhan Batu","state_id":1792,"state_code":"SU","state_name":"Sumatera Utara","country_id":102,"country_code":"ID","country_name":"Indonesia","latitude":"2.26667000","longitude":"100.10000000","wikiDataId":"Q5814"},{"id":56480,"Name":"Kabupaten Labuhan Batu Selatan","state_id":1792,"state_code":"SU","state_name":"Sumatera Utara","country_id":102,"country_code":"ID","country_name":"Indonesia","latitude":"1.98300000","longitude":"100.09760000","wikiDataId":"Q5905"},{"id":56481,"Name":"Kabupaten Labuhan Batu Utara","state_id":1792,"state_code":"SU","state_name":"Sumatera Utara","country_id":102,"country_code":"ID","country_name":"Indonesia","latitude":"2.33349000","longitude":"99.63776000","wikiDataId":"Q5842"},{"id":56489,"Name":"Kabupaten Langkat","state_id":1792,"state_code":"SU","state_name":"Sumatera Utara","country_id":102,"country_code":"ID","country_name":"Indonesia","latitude":"3.71667000","longitude":"98.21667000","wikiDataId":"Q5833"},{"id":56523,"Name":"Kabupaten Mandailing Natal","state_id":1792,"state_code":"SU","state_name":"Sumatera Utara","country_id":102,"country_code":"ID","country_name":"Indonesia","latitude":"0.78378000","longitude":"99.25495000","wikiDataId":"Q5837"},{"id":56559,"Name":"Kabupaten Nias","state_id":1792,"state_code":"SU","state_name":"Sumatera Utara","country_id":102,"country_code":"ID","country_name":"Indonesia","latitude":"1.03333000","longitude":"97.76667000","wikiDataId":"Q5841"},{"id":56560,"Name":"Kabupaten Nias Barat","state_id":1792,"state_code":"SU","state_name":"Sumatera Utara","country_id":102,"country_code":"ID","country_name":"Indonesia","latitude":"1.05966000","longitude":"97.58606000","wikiDataId":"Q5909"},{"id":56561,"Name":"Kabupaten Nias Utara","state_id":1792,"state_code":"SU","state_name":"Sumatera Utara","country_id":102,"country_code":"ID","country_name":"Indonesia","latitude":"1.33037000","longitude":"97.31964000","wikiDataId":"Q5853"},{"id":56569,"Name":"Kabupaten Padang Lawas","state_id":1792,"state_code":"SU","state_name":"Sumatera Utara","country_id":102,"country_code":"ID","country_name":"Indonesia","latitude":"1.44684000","longitude":"99.99207000","wikiDataId":"Q5866"},{"id":56570,"Name":"Kabupaten Padang Lawas Utara","state_id":1792,"state_code":"SU","state_name":"Sumatera Utara","country_id":102,"country_code":"ID","country_name":"Indonesia","latitude":"1.46011000","longitude":"99.67346000","wikiDataId":"Q5857"},{"id":56572,"Name":"Kabupaten Pakpak Bharat","state_id":1792,"state_code":"SU","state_name":"Sumatera Utara","country_id":102,"country_code":"ID","country_name":"Indonesia","latitude":"2.56667000","longitude":"98.28333000","wikiDataId":"Q5872"},{"id":56615,"Name":"Kabupaten Samosir","state_id":1792,"state_code":"SU","state_name":"Sumatera Utara","country_id":102,"country_code":"ID","country_name":"Indonesia","latitude":"2.64025000","longitude":"98.71525000","wikiDataId":"Q5888"},{"id":56624,"Name":"Kabupaten Serdang Bedagai","state_id":1792,"state_code":"SU","state_name":"Sumatera Utara","country_id":102,"country_code":"ID","country_name":"Indonesia","latitude":"3.36667000","longitude":"99.03333000","wikiDataId":"Q5899"},{"id":56633,"Name":"Kabupaten Simalungun","state_id":1792,"state_code":"SU","state_name":"Sumatera Utara","country_id":102,"country_code":"ID","country_name":"Indonesia","latitude":"2.90000000","longitude":"99.00000000","wikiDataId":"Q5903"},{"id":56670,"Name":"Kabupaten Tapanuli Selatan","state_id":1792,"state_code":"SU","state_name":"Sumatera Utara","country_id":102,"country_code":"ID","country_name":"Indonesia","latitude":"1.51667000","longitude":"99.25000000","wikiDataId":"Q5914"},{"id":56671,"Name":"Kabupaten Tapanuli Tengah","state_id":1792,"state_code":"SU","state_name":"Sumatera Utara","country_id":102,"country_code":"ID","country_name":"Indonesia","latitude":"1.90000000","longitude":"98.66667000","wikiDataId":"Q5800"},{"id":56672,"Name":"Kabupaten Tapanuli Utara","state_id":1792,"state_code":"SU","state_name":"Sumatera Utara","country_id":102,"country_code":"ID","country_name":"Indonesia","latitude":"2.00280000","longitude":"99.07070000","wikiDataId":"Q5863"},{"id":56717,"Name":"Kisaran","state_id":1792,"state_code":"SU","state_name":"Sumatera Utara","country_id":102,"country_code":"ID","country_name":"Indonesia","latitude":"2.98450000","longitude":"99.61580000","wikiDataId":"Q24884538"},{"id":56741,"Name":"Kota Binjai","state_id":1792,"state_code":"SU","state_name":"Sumatera Utara","country_id":102,"country_code":"ID","country_name":"Indonesia","latitude":"3.80000000","longitude":"108.23333000","wikiDataId":"Q14182"},{"id":56754,"Name":"Kota Gunungsitoli","state_id":1792,"state_code":"SU","state_name":"Sumatera Utara","country_id":102,"country_code":"ID","country_name":"Indonesia","latitude":"1.32731000","longitude":"97.55018000","wikiDataId":"Q10396"},{"id":56770,"Name":"Kota Medan","state_id":1792,"state_code":"SU","state_name":"Sumatera Utara","country_id":102,"country_code":"ID","country_name":"Indonesia","latitude":"3.65000000","longitude":"98.66667000","wikiDataId":"Q14126"},{"id":56775,"Name":"Kota Padangsidimpuan","state_id":1792,"state_code":"SU","state_name":"Sumatera Utara","country_id":102,"country_code":"ID","country_name":"Indonesia","latitude":"1.37375000","longitude":"99.26843000","wikiDataId":"Q14126"},{"id":56788,"Name":"Kota Pematang Siantar","state_id":1792,"state_code":"SU","state_name":"Sumatera Utara","country_id":102,"country_code":"ID","country_name":"Indonesia","latitude":"2.96667000","longitude":"99.05000000","wikiDataId":"Q14636"},{"id":56797,"Name":"Kota Sibolga","state_id":1792,"state_code":"SU","state_name":"Sumatera Utara","country_id":102,"country_code":"ID","country_name":"Indonesia","latitude":"1.73333000","longitude":"98.80000000","wikiDataId":"Q14636"},{"id":56807,"Name":"Kota Tanjung Balai","state_id":1792,"state_code":"SU","state_name":"Sumatera Utara","country_id":102,"country_code":"ID","country_name":"Indonesia","latitude":"2.95833000","longitude":"99.79167000","wikiDataId":"Q5987"},{"id":56810,"Name":"Kota Tebing Tinggi","state_id":1792,"state_code":"SU","state_name":"Sumatera Utara","country_id":102,"country_code":"ID","country_name":"Indonesia","latitude":"3.32500000","longitude":"99.14167000","wikiDataId":"Q5987"},{"id":56832,"Name":"Labuhan Deli","state_id":1792,"state_code":"SU","state_name":"Sumatera Utara","country_id":102,"country_code":"ID","country_name":"Indonesia","latitude":"3.72780000","longitude":"98.67380000","wikiDataId":"Q24822162"},{"id":56867,"Name":"Medan","state_id":1792,"state_code":"SU","state_name":"Sumatera Utara","country_id":102,"country_code":"ID","country_name":"Indonesia","latitude":"3.58333000","longitude":"98.66667000","wikiDataId":"Q5972"},{"id":56894,"Name":"Padangsidempuan","state_id":1792,"state_code":"SU","state_name":"Sumatera Utara","country_id":102,"country_code":"ID","country_name":"Indonesia","latitude":"1.37952000","longitude":"99.27146000","wikiDataId":"Q5974"},{"id":56910,"Name":"Pangkalan Brandan","state_id":1792,"state_code":"SU","state_name":"Sumatera Utara","country_id":102,"country_code":"ID","country_name":"Indonesia","latitude":"4.02380000","longitude":"98.27820000","wikiDataId":"Q7130959"},{"id":56914,"Name":"Parapat","state_id":1792,"state_code":"SU","state_name":"Sumatera Utara","country_id":102,"country_code":"ID","country_name":"Indonesia","latitude":"2.66300000","longitude":"98.93490000","wikiDataId":"Q2271788"},{"id":56926,"Name":"Pekan Bahapal","state_id":1792,"state_code":"SU","state_name":"Sumatera Utara","country_id":102,"country_code":"ID","country_name":"Indonesia","latitude":"3.11313000","longitude":"99.17352000","wikiDataId":"Q11026"},{"id":56930,"Name":"Pematangsiantar","state_id":1792,"state_code":"SU","state_name":"Sumatera Utara","country_id":102,"country_code":"ID","country_name":"Indonesia","latitude":"2.95950000","longitude":"99.06870000","wikiDataId":"Q5979"},{"id":56932,"Name":"Perbaungan","state_id":1792,"state_code":"SU","state_name":"Sumatera Utara","country_id":102,"country_code":"ID","country_name":"Indonesia","latitude":"3.56790000","longitude":"98.95600000","wikiDataId":"Q24819339"},{"id":56933,"Name":"Percut","state_id":1792,"state_code":"SU","state_name":"Sumatera Utara","country_id":102,"country_code":"ID","country_name":"Indonesia","latitude":"3.62530000","longitude":"98.86400000","wikiDataId":"Q12504901"},{"id":56951,"Name":"Rantauprapat","state_id":1792,"state_code":"SU","state_name":"Sumatera Utara","country_id":102,"country_code":"ID","country_name":"Indonesia","latitude":"2.10000000","longitude":"99.83333000","wikiDataId":"Q4899310"},{"id":56973,"Name":"Sibolga","state_id":1792,"state_code":"SU","state_name":"Sumatera Utara","country_id":102,"country_code":"ID","country_name":"Indonesia","latitude":"1.74016000","longitude":"98.78117000","wikiDataId":"Q5984"},{"id":57000,"Name":"Stabat","state_id":1792,"state_code":"SU","state_name":"Sumatera Utara","country_id":102,"country_code":"ID","country_name":"Indonesia","latitude":"3.73335000","longitude":"98.45025000","wikiDataId":"Q24831080"},{"id":57010,"Name":"Sunggal","state_id":1792,"state_code":"SU","state_name":"Sumatera Utara","country_id":102,"country_code":"ID","country_name":"Indonesia","latitude":"3.57650000","longitude":"98.61510000","wikiDataId":"Q12518013"},{"id":57021,"Name":"Tanjungbalai","state_id":1792,"state_code":"SU","state_name":"Sumatera Utara","country_id":102,"country_code":"ID","country_name":"Indonesia","latitude":"2.96667000","longitude":"99.80000000","wikiDataId":"Q5987"},{"id":57022,"Name":"Tanjungtiram","state_id":1792,"state_code":"SU","state_name":"Sumatera Utara","country_id":102,"country_code":"ID","country_name":"Indonesia","latitude":"4.06130000","longitude":"98.36990000","wikiDataId":"Q24818428"},{"id":57027,"Name":"Tebingtinggi","state_id":1792,"state_code":"SU","state_name":"Sumatera Utara","country_id":102,"country_code":"ID","country_name":"Indonesia","latitude":"3.32850000","longitude":"99.16250000","wikiDataId":"Q24818438"},{"id":57029,"Name":"Teluk Nibung","state_id":1792,"state_code":"SU","state_name":"Sumatera Utara","country_id":102,"country_code":"ID","country_name":"Indonesia","latitude":"3.00100000","longitude":"99.81640000","wikiDataId":"Q24818441"},{"id":57036,"Name":"Tomok Bolon","state_id":1792,"state_code":"SU","state_name":"Sumatera Utara","country_id":102,"country_code":"ID","country_name":"Indonesia","latitude":"2.65210000","longitude":"98.86080000","wikiDataId":"Q15848"},{"id":57038,"Name":"Tongging","state_id":1792,"state_code":"SU","state_name":"Sumatera Utara","country_id":102,"country_code":"ID","country_name":"Indonesia","latitude":"2.89850000","longitude":"98.52310000","wikiDataId":"Q12522046"},{"id":57043,"Name":"Tuktuk Sonak","state_id":1792,"state_code":"SU","state_name":"Sumatera Utara","country_id":102,"country_code":"ID","country_name":"Indonesia","latitude":"2.66890000","longitude":"98.85760000","wikiDataId":"Q17058459"}]