[{"id":104977,"Name":"As-Suwayda","state_id":2936,"state_code":"SU","state_name":"As-Suwayda Governorate","country_id":215,"country_code":"SY","country_name":"Syria","latitude":"32.70896000","longitude":"36.56951000","wikiDataId":"Q311099"},{"id":104978,"Name":"As-Suwayda District","state_id":2936,"state_code":"SU","state_name":"As-Suwayda Governorate","country_id":215,"country_code":"SY","country_name":"Syria","latitude":"32.78127000","longitude":"36.86502000","wikiDataId":"Q3266216"},{"id":105069,"Name":"Şalākhid","state_id":2936,"state_code":"SU","state_name":"As-Suwayda Governorate","country_id":215,"country_code":"SY","country_name":"Syria","latitude":"32.87271000","longitude":"36.57271000","wikiDataId":"Q24343"},{"id":105068,"Name":"Şalkhad","state_id":2936,"state_code":"SU","state_name":"As-Suwayda Governorate","country_id":215,"country_code":"SY","country_name":"Syria","latitude":"32.49200000","longitude":"36.71114000","wikiDataId":"Q24343"},{"id":105043,"Name":"Salkhad District","state_id":2936,"state_code":"SU","state_name":"As-Suwayda Governorate","country_id":215,"country_code":"SY","country_name":"Syria","latitude":"32.51779000","longitude":"36.91954000","wikiDataId":"Q3265272"},{"id":105049,"Name":"Shahbā","state_id":2936,"state_code":"SU","state_name":"As-Suwayda Governorate","country_id":215,"country_code":"SY","country_name":"Syria","latitude":"32.85514000","longitude":"36.62896000","wikiDataId":"Q926336"},{"id":105048,"Name":"Shahba District","state_id":2936,"state_code":"SU","state_name":"As-Suwayda Governorate","country_id":215,"country_code":"SY","country_name":"Syria","latitude":"33.04282000","longitude":"36.72034000","wikiDataId":"Q3265263"}]