[{"id":104017,"Name":"Åsbro","state_id":1539,"state_code":"T","state_name":"Örebro County","country_id":213,"country_code":"SE","country_name":"Sweden","latitude":"59.00000000","longitude":"15.05000000","wikiDataId":"Q2573758"},{"id":103019,"Name":"Askersund","state_id":1539,"state_code":"T","state_name":"Örebro County","country_id":213,"country_code":"SE","country_name":"Sweden","latitude":"58.87988000","longitude":"14.90230000","wikiDataId":"Q731441"},{"id":103115,"Name":"Degerfors","state_id":1539,"state_code":"T","state_name":"Örebro County","country_id":213,"country_code":"SE","country_name":"Sweden","latitude":"59.23797000","longitude":"14.43077000","wikiDataId":"Q1019101"},{"id":103131,"Name":"Ekeby-Almby","state_id":1539,"state_code":"T","state_name":"Örebro County","country_id":213,"country_code":"SE","country_name":"Sweden","latitude":"59.26000000","longitude":"15.33000000","wikiDataId":"Q2912955"},{"id":103163,"Name":"Fellingsbro","state_id":1539,"state_code":"T","state_name":"Örebro County","country_id":213,"country_code":"SE","country_name":"Sweden","latitude":"59.43333000","longitude":"15.58333000","wikiDataId":"Q2575078"},{"id":103170,"Name":"Fjugesta","state_id":1539,"state_code":"T","state_name":"Örebro County","country_id":213,"country_code":"SE","country_name":"Sweden","latitude":"59.17375000","longitude":"14.87227000","wikiDataId":"Q1422463"},{"id":103187,"Name":"Frövi","state_id":1539,"state_code":"T","state_name":"Örebro County","country_id":213,"country_code":"SE","country_name":"Sweden","latitude":"59.46667000","longitude":"15.36667000","wikiDataId":"Q2654133"},{"id":103204,"Name":"Garphyttan","state_id":1539,"state_code":"T","state_name":"Örebro County","country_id":213,"country_code":"SE","country_name":"Sweden","latitude":"59.30429000","longitude":"14.94623000","wikiDataId":"Q3098445"},{"id":103316,"Name":"Hällabrottet","state_id":1539,"state_code":"T","state_name":"Örebro County","country_id":213,"country_code":"SE","country_name":"Sweden","latitude":"59.11667000","longitude":"15.20000000","wikiDataId":"Q3353925"},{"id":103318,"Name":"Hällefors","state_id":1539,"state_code":"T","state_name":"Örebro County","country_id":213,"country_code":"SE","country_name":"Sweden","latitude":"59.78388000","longitude":"14.52197000","wikiDataId":"Q305380"},{"id":103253,"Name":"Hallsberg","state_id":1539,"state_code":"T","state_name":"Örebro County","country_id":213,"country_code":"SE","country_name":"Sweden","latitude":"59.06463000","longitude":"15.10993000","wikiDataId":"Q1001505"},{"id":103302,"Name":"Hovsta","state_id":1539,"state_code":"T","state_name":"Örebro County","country_id":213,"country_code":"SE","country_name":"Sweden","latitude":"59.35000000","longitude":"15.21667000","wikiDataId":"Q3055207"},{"id":103379,"Name":"Karlskoga","state_id":1539,"state_code":"T","state_name":"Örebro County","country_id":213,"country_code":"SE","country_name":"Sweden","latitude":"59.32667000","longitude":"14.52386000","wikiDataId":"Q54732"},{"id":103409,"Name":"Kopparberg","state_id":1539,"state_code":"T","state_name":"Örebro County","country_id":213,"country_code":"SE","country_name":"Sweden","latitude":"59.87597000","longitude":"14.99436000","wikiDataId":"Q1018719"},{"id":103420,"Name":"Kumla","state_id":1539,"state_code":"T","state_name":"Örebro County","country_id":213,"country_code":"SE","country_name":"Sweden","latitude":"59.12770000","longitude":"15.14341000","wikiDataId":"Q725826"},{"id":103453,"Name":"Laxå","state_id":1539,"state_code":"T","state_name":"Örebro County","country_id":213,"country_code":"SE","country_name":"Sweden","latitude":"58.98630000","longitude":"14.61904000","wikiDataId":"Q1076290"},{"id":103469,"Name":"Lindesberg","state_id":1539,"state_code":"T","state_name":"Örebro County","country_id":213,"country_code":"SE","country_name":"Sweden","latitude":"59.59202000","longitude":"15.23040000","wikiDataId":"Q656562"},{"id":103577,"Name":"Nora","state_id":1539,"state_code":"T","state_name":"Örebro County","country_id":213,"country_code":"SE","country_name":"Sweden","latitude":"59.51926000","longitude":"15.03979000","wikiDataId":"Q83679"},{"id":103609,"Name":"Odensbacken","state_id":1539,"state_code":"T","state_name":"Örebro County","country_id":213,"country_code":"SE","country_name":"Sweden","latitude":"59.16667000","longitude":"15.53333000","wikiDataId":"Q2381684"},{"id":104034,"Name":"Örebro","state_id":1539,"state_code":"T","state_name":"Örebro County","country_id":213,"country_code":"SE","country_name":"Sweden","latitude":"59.27412000","longitude":"15.20660000","wikiDataId":"Q25732"},{"id":103640,"Name":"Pålsboda","state_id":1539,"state_code":"T","state_name":"Örebro County","country_id":213,"country_code":"SE","country_name":"Sweden","latitude":"59.06565000","longitude":"15.33747000","wikiDataId":"Q1963133"},{"id":103723,"Name":"Sköllersta","state_id":1539,"state_code":"T","state_name":"Örebro County","country_id":213,"country_code":"SE","country_name":"Sweden","latitude":"59.13738000","longitude":"15.33940000","wikiDataId":"Q649659"},{"id":103770,"Name":"Storå","state_id":1539,"state_code":"T","state_name":"Örebro County","country_id":213,"country_code":"SE","country_name":"Sweden","latitude":"59.71409000","longitude":"15.13169000","wikiDataId":"Q261808"},{"id":103955,"Name":"Vintrosa","state_id":1539,"state_code":"T","state_name":"Örebro County","country_id":213,"country_code":"SE","country_name":"Sweden","latitude":"59.25000000","longitude":"14.95000000","wikiDataId":"Q2887103"}]