[{"id":97522,"Name":"Agryz","state_id":1861,"state_code":"TA","state_name":"Republic of Tatarstan","country_id":182,"country_code":"RU","country_name":"Russia","latitude":"56.52034000","longitude":"52.99422000","wikiDataId":"Q102746"},{"id":97523,"Name":"Agryzskiy Rayon","state_id":1861,"state_code":"TA","state_name":"Republic of Tatarstan","country_id":182,"country_code":"RU","country_name":"Russia","latitude":"56.25000000","longitude":"52.83333000","wikiDataId":"Q518958"},{"id":97545,"Name":"Aksubayevskiy Rayon","state_id":1861,"state_code":"TA","state_name":"Republic of Tatarstan","country_id":182,"country_code":"RU","country_name":"Russia","latitude":"54.83333000","longitude":"50.83333000","wikiDataId":"Q594218"},{"id":97546,"Name":"Aktanysh","state_id":1861,"state_code":"TA","state_name":"Republic of Tatarstan","country_id":182,"country_code":"RU","country_name":"Russia","latitude":"55.72156000","longitude":"54.08293000","wikiDataId":"Q2045264"},{"id":97547,"Name":"Aktanyshskiy Rayon","state_id":1861,"state_code":"TA","state_name":"Republic of Tatarstan","country_id":182,"country_code":"RU","country_name":"Russia","latitude":"55.75000000","longitude":"53.83333000","wikiDataId":"Q621068"},{"id":97549,"Name":"Aktyubinskiy","state_id":1861,"state_code":"TA","state_name":"Republic of Tatarstan","country_id":182,"country_code":"RU","country_name":"Russia","latitude":"54.81372000","longitude":"52.80559000","wikiDataId":"Q2045425"},{"id":97607,"Name":"Al’keyevskiy Rayon","state_id":1861,"state_code":"TA","state_name":"Republic of Tatarstan","country_id":182,"country_code":"RU","country_name":"Russia","latitude":"54.91667000","longitude":"50.00000000","wikiDataId":"Q2988077"},{"id":97608,"Name":"Al’met’yevsk","state_id":1861,"state_code":"TA","state_name":"Republic of Tatarstan","country_id":182,"country_code":"RU","country_name":"Russia","latitude":"54.90442000","longitude":"52.31540000","wikiDataId":"Q103483"},{"id":97609,"Name":"Al’met’yevskiy Rayon","state_id":1861,"state_code":"TA","state_name":"Republic of Tatarstan","country_id":182,"country_code":"RU","country_name":"Russia","latitude":"54.91667000","longitude":"52.41667000","wikiDataId":"Q2723449"},{"id":97581,"Name":"Alekseyevskiy Rayon","state_id":1861,"state_code":"TA","state_name":"Republic of Tatarstan","country_id":182,"country_code":"RU","country_name":"Russia","latitude":"55.16667000","longitude":"50.00000000","wikiDataId":"Q2603517"},{"id":97582,"Name":"Alekseyevskoye","state_id":1861,"state_code":"TA","state_name":"Republic of Tatarstan","country_id":182,"country_code":"RU","country_name":"Russia","latitude":"55.30706000","longitude":"50.11353000","wikiDataId":"Q287401"},{"id":97647,"Name":"Apastovo","state_id":1861,"state_code":"TA","state_name":"Republic of Tatarstan","country_id":182,"country_code":"RU","country_name":"Russia","latitude":"55.20293000","longitude":"48.51091000","wikiDataId":"Q2627359"},{"id":97648,"Name":"Apastovskiy Rayon","state_id":1861,"state_code":"TA","state_name":"Republic of Tatarstan","country_id":182,"country_code":"RU","country_name":"Russia","latitude":"55.25000000","longitude":"48.50000000","wikiDataId":"Q2220531"},{"id":97681,"Name":"Arsk","state_id":1861,"state_code":"TA","state_name":"Republic of Tatarstan","country_id":182,"country_code":"RU","country_name":"Russia","latitude":"56.09151000","longitude":"49.87783000","wikiDataId":"Q103985"},{"id":97682,"Name":"Arskiy Rayon","state_id":1861,"state_code":"TA","state_name":"Republic of Tatarstan","country_id":182,"country_code":"RU","country_name":"Russia","latitude":"56.16667000","longitude":"49.91667000","wikiDataId":"Q375561"},{"id":97716,"Name":"Atninskiy Rayon","state_id":1861,"state_code":"TA","state_name":"Republic of Tatarstan","country_id":182,"country_code":"RU","country_name":"Russia","latitude":"56.25000000","longitude":"49.41667000","wikiDataId":"Q2220478"},{"id":97730,"Name":"Aysha","state_id":1861,"state_code":"TA","state_name":"Republic of Tatarstan","country_id":182,"country_code":"RU","country_name":"Russia","latitude":"55.87035000","longitude":"48.63187000","wikiDataId":"Q4059047"},{"id":97733,"Name":"Aznakayevskiy Rayon","state_id":1861,"state_code":"TA","state_name":"Republic of Tatarstan","country_id":182,"country_code":"RU","country_name":"Russia","latitude":"54.91667000","longitude":"53.00000000","wikiDataId":"Q2988097"},{"id":97780,"Name":"Baltasi","state_id":1861,"state_code":"TA","state_name":"Republic of Tatarstan","country_id":182,"country_code":"RU","country_name":"Russia","latitude":"56.34620000","longitude":"50.20620000","wikiDataId":"Q2012710"},{"id":97781,"Name":"Baltasinskiy Rayon","state_id":1861,"state_code":"TA","state_name":"Republic of Tatarstan","country_id":182,"country_code":"RU","country_name":"Russia","latitude":"56.33333000","longitude":"50.25000000","wikiDataId":"Q2670313"},{"id":97818,"Name":"Bavlinskiy Rayon","state_id":1861,"state_code":"TA","state_name":"Republic of Tatarstan","country_id":182,"country_code":"RU","country_name":"Russia","latitude":"54.25000000","longitude":"53.25000000","wikiDataId":"Q2220393"},{"id":97819,"Name":"Bavly","state_id":1861,"state_code":"TA","state_name":"Republic of Tatarstan","country_id":182,"country_code":"RU","country_name":"Russia","latitude":"54.39304000","longitude":"53.26023000","wikiDataId":"Q104345"},{"id":97831,"Name":"Bazarnyye Mataki","state_id":1861,"state_code":"TA","state_name":"Republic of Tatarstan","country_id":182,"country_code":"RU","country_name":"Russia","latitude":"54.88333000","longitude":"49.93333000","wikiDataId":"Q3739755"},{"id":97930,"Name":"Bilyarsk","state_id":1861,"state_code":"TA","state_name":"Republic of Tatarstan","country_id":182,"country_code":"RU","country_name":"Russia","latitude":"54.98358000","longitude":"50.38671000","wikiDataId":"Q7303382"},{"id":97964,"Name":"Bogatyye Saby","state_id":1861,"state_code":"TA","state_name":"Republic of Tatarstan","country_id":182,"country_code":"RU","country_name":"Russia","latitude":"56.01020000","longitude":"50.44830000","wikiDataId":"Q4089064"},{"id":97990,"Name":"Bolgar","state_id":1861,"state_code":"TA","state_name":"Republic of Tatarstan","country_id":182,"country_code":"RU","country_name":"Russia","latitude":"54.95000000","longitude":"49.06667000","wikiDataId":"Q105284"},{"id":98067,"Name":"Bugul’ma","state_id":1861,"state_code":"TA","state_name":"Republic of Tatarstan","country_id":182,"country_code":"RU","country_name":"Russia","latitude":"54.53780000","longitude":"52.79850000","wikiDataId":"Q132806"},{"id":98068,"Name":"Bugul’minskiy Rayon","state_id":1861,"state_code":"TA","state_name":"Republic of Tatarstan","country_id":182,"country_code":"RU","country_name":"Russia","latitude":"54.58333000","longitude":"52.91667000","wikiDataId":"Q2220427"},{"id":98071,"Name":"Buinsk","state_id":1861,"state_code":"TA","state_name":"Republic of Tatarstan","country_id":182,"country_code":"RU","country_name":"Russia","latitude":"54.97119000","longitude":"48.29184000","wikiDataId":"Q132846"},{"id":98072,"Name":"Buinskiy Rayon","state_id":1861,"state_code":"TA","state_name":"Republic of Tatarstan","country_id":182,"country_code":"RU","country_name":"Russia","latitude":"55.00000000","longitude":"48.25000000","wikiDataId":"Q2664289"},{"id":98150,"Name":"Cheremshan","state_id":1861,"state_code":"TA","state_name":"Republic of Tatarstan","country_id":182,"country_code":"RU","country_name":"Russia","latitude":"54.66667000","longitude":"51.50000000","wikiDataId":"Q3740264"},{"id":98152,"Name":"Cheremshanskiy Rayon","state_id":1861,"state_code":"TA","state_name":"Republic of Tatarstan","country_id":182,"country_code":"RU","country_name":"Russia","latitude":"54.75000000","longitude":"51.50000000","wikiDataId":"Q2990354"},{"id":98200,"Name":"Chistopol’","state_id":1861,"state_code":"TA","state_name":"Republic of Tatarstan","country_id":182,"country_code":"RU","country_name":"Russia","latitude":"55.36311000","longitude":"50.64244000","wikiDataId":"Q198102"},{"id":98201,"Name":"Chistopol’skiy Rayon","state_id":1861,"state_code":"TA","state_name":"Republic of Tatarstan","country_id":182,"country_code":"RU","country_name":"Russia","latitude":"55.33333000","longitude":"50.75000000","wikiDataId":"Q2670318"},{"id":98327,"Name":"Drozhzhanovskiy Rayon","state_id":1861,"state_code":"TA","state_name":"Republic of Tatarstan","country_id":182,"country_code":"RU","country_name":"Russia","latitude":"54.75000000","longitude":"47.58333000","wikiDataId":"Q2640728"},{"id":98372,"Name":"Dzhalil’","state_id":1861,"state_code":"TA","state_name":"Republic of Tatarstan","country_id":182,"country_code":"RU","country_name":"Russia","latitude":"55.02390000","longitude":"52.73580000","wikiDataId":"Q695191"},{"id":98548,"Name":"Gorod Buinsk","state_id":1861,"state_code":"TA","state_name":"Republic of Tatarstan","country_id":182,"country_code":"RU","country_name":"Russia","latitude":"54.96694000","longitude":"48.28500000","wikiDataId":"Q23898732"},{"id":98551,"Name":"Gorod Kazan’","state_id":1861,"state_code":"TA","state_name":"Republic of Tatarstan","country_id":182,"country_code":"RU","country_name":"Russia","latitude":"55.75000000","longitude":"49.13333000","wikiDataId":"Q4172539"},{"id":98553,"Name":"Gorod Nizhnekamsk","state_id":1861,"state_code":"TA","state_name":"Republic of Tatarstan","country_id":182,"country_code":"RU","country_name":"Russia","latitude":"55.63333000","longitude":"51.81667000","wikiDataId":"Q23898772"},{"id":98555,"Name":"Gorod Yelabuga","state_id":1861,"state_code":"TA","state_name":"Republic of Tatarstan","country_id":182,"country_code":"RU","country_name":"Russia","latitude":"55.75000000","longitude":"52.06667000","wikiDataId":"Q23898751"},{"id":98556,"Name":"Gorod Zainsk","state_id":1861,"state_code":"TA","state_name":"Republic of Tatarstan","country_id":182,"country_code":"RU","country_name":"Russia","latitude":"55.31667000","longitude":"52.05000000","wikiDataId":"Q23898752"},{"id":98557,"Name":"Gorod Zelënodol’sk","state_id":1861,"state_code":"TA","state_name":"Republic of Tatarstan","country_id":182,"country_code":"RU","country_name":"Russia","latitude":"55.83333000","longitude":"48.50000000","wikiDataId":"Q21639766"},{"id":98827,"Name":"Kamsko-Ust’inskiy Rayon","state_id":1861,"state_code":"TA","state_name":"Republic of Tatarstan","country_id":182,"country_code":"RU","country_name":"Russia","latitude":"55.16667000","longitude":"49.00000000","wikiDataId":"Q2219934"},{"id":98852,"Name":"Karabash","state_id":1861,"state_code":"TA","state_name":"Republic of Tatarstan","country_id":182,"country_code":"RU","country_name":"Russia","latitude":"54.69300000","longitude":"52.58359000","wikiDataId":"Q2045268"},{"id":98918,"Name":"Kaybitskiy Rayon","state_id":1861,"state_code":"TA","state_name":"Republic of Tatarstan","country_id":182,"country_code":"RU","country_name":"Russia","latitude":"55.41667000","longitude":"48.16667000","wikiDataId":"Q517512"},{"id":98926,"Name":"Kazan","state_id":1861,"state_code":"TA","state_name":"Republic of Tatarstan","country_id":182,"country_code":"RU","country_name":"Russia","latitude":"55.78874000","longitude":"49.12214000","wikiDataId":"Q900"},{"id":99425,"Name":"Kukmor","state_id":1861,"state_code":"TA","state_name":"Republic of Tatarstan","country_id":182,"country_code":"RU","country_name":"Russia","latitude":"56.18550000","longitude":"50.89440000","wikiDataId":"Q1274263"},{"id":99426,"Name":"Kukmorskiy Rayon","state_id":1861,"state_code":"TA","state_name":"Republic of Tatarstan","country_id":182,"country_code":"RU","country_name":"Russia","latitude":"56.25000000","longitude":"50.66667000","wikiDataId":"Q2670304"},{"id":99496,"Name":"Kuybyshevskiy Zaton","state_id":1861,"state_code":"TA","state_name":"Republic of Tatarstan","country_id":182,"country_code":"RU","country_name":"Russia","latitude":"55.15930000","longitude":"49.17010000","wikiDataId":"Q1791307"},{"id":99535,"Name":"Laishevo","state_id":1861,"state_code":"TA","state_name":"Republic of Tatarstan","country_id":182,"country_code":"RU","country_name":"Russia","latitude":"55.40464000","longitude":"49.55037000","wikiDataId":"Q156648"},{"id":99536,"Name":"Laishevskiy Rayon","state_id":1861,"state_code":"TA","state_name":"Republic of Tatarstan","country_id":182,"country_code":"RU","country_name":"Russia","latitude":"55.50000000","longitude":"49.58333000","wikiDataId":"Q2219922"},{"id":99566,"Name":"Leninogorsk","state_id":1861,"state_code":"TA","state_name":"Republic of Tatarstan","country_id":182,"country_code":"RU","country_name":"Russia","latitude":"54.60256000","longitude":"52.46087000","wikiDataId":"Q157458"},{"id":99567,"Name":"Leninogorskiy Rayon","state_id":1861,"state_code":"TA","state_name":"Republic of Tatarstan","country_id":182,"country_code":"RU","country_name":"Russia","latitude":"54.58333000","longitude":"52.08333000","wikiDataId":"Q2220365"},{"id":99677,"Name":"Lubyany","state_id":1861,"state_code":"TA","state_name":"Republic of Tatarstan","country_id":182,"country_code":"RU","country_name":"Russia","latitude":"56.03780000","longitude":"51.40001000","wikiDataId":"Q4267841"},{"id":99774,"Name":"Mamadysh","state_id":1861,"state_code":"TA","state_name":"Republic of Tatarstan","country_id":182,"country_code":"RU","country_name":"Russia","latitude":"55.71525000","longitude":"51.40797000","wikiDataId":"Q158010"},{"id":99775,"Name":"Mamadyshskiy Rayon","state_id":1861,"state_code":"TA","state_name":"Republic of Tatarstan","country_id":182,"country_code":"RU","country_name":"Russia","latitude":"55.66667000","longitude":"51.25000000","wikiDataId":"Q158071"},{"id":99863,"Name":"Mendeleyevsk","state_id":1861,"state_code":"TA","state_name":"Republic of Tatarstan","country_id":182,"country_code":"RU","country_name":"Russia","latitude":"55.90819000","longitude":"52.29047000","wikiDataId":"Q158816"},{"id":99865,"Name":"Mendeleyevskiy Rayon","state_id":1861,"state_code":"TA","state_name":"Republic of Tatarstan","country_id":182,"country_code":"RU","country_name":"Russia","latitude":"55.91667000","longitude":"52.33333000","wikiDataId":"Q620746"},{"id":99866,"Name":"Menzelinsk","state_id":1861,"state_code":"TA","state_name":"Republic of Tatarstan","country_id":182,"country_code":"RU","country_name":"Russia","latitude":"55.72706000","longitude":"53.10258000","wikiDataId":"Q158830"},{"id":99867,"Name":"Menzelinskiy Rayon","state_id":1861,"state_code":"TA","state_name":"Republic of Tatarstan","country_id":182,"country_code":"RU","country_name":"Russia","latitude":"55.75000000","longitude":"53.00000000","wikiDataId":"Q2220351"},{"id":100019,"Name":"Muslyumovo","state_id":1861,"state_code":"TA","state_name":"Republic of Tatarstan","country_id":182,"country_code":"RU","country_name":"Russia","latitude":"55.30333000","longitude":"53.19472000","wikiDataId":"Q4308449"},{"id":100021,"Name":"Muslyumovskiy Rayon","state_id":1861,"state_code":"TA","state_name":"Republic of Tatarstan","country_id":182,"country_code":"RU","country_name":"Russia","latitude":"55.25000000","longitude":"53.25000000","wikiDataId":"Q2220496"},{"id":100037,"Name":"Naberezhnyye Chelny","state_id":1861,"state_code":"TA","state_name":"Republic of Tatarstan","country_id":182,"country_code":"RU","country_name":"Russia","latitude":"55.72545000","longitude":"52.41122000","wikiDataId":"Q95041"},{"id":100155,"Name":"Nizhnekamsk","state_id":1861,"state_code":"TA","state_name":"Republic of Tatarstan","country_id":182,"country_code":"RU","country_name":"Russia","latitude":"55.63657000","longitude":"51.82447000","wikiDataId":"Q172657"},{"id":100156,"Name":"Nizhnekamskiy Rayon","state_id":1861,"state_code":"TA","state_name":"Republic of Tatarstan","country_id":182,"country_code":"RU","country_name":"Russia","latitude":"55.41667000","longitude":"51.58333000","wikiDataId":"Q2220488"},{"id":100180,"Name":"Nizhniye Vyazovyye","state_id":1861,"state_code":"TA","state_name":"Republic of Tatarstan","country_id":182,"country_code":"RU","country_name":"Russia","latitude":"55.79877000","longitude":"48.52476000","wikiDataId":"Q4319000"},{"id":100183,"Name":"Nizhnyaya Maktama","state_id":1861,"state_code":"TA","state_name":"Republic of Tatarstan","country_id":182,"country_code":"RU","country_name":"Russia","latitude":"54.86356000","longitude":"52.42810000","wikiDataId":"Q4319337"},{"id":100300,"Name":"Novosheshminsk","state_id":1861,"state_code":"TA","state_name":"Republic of Tatarstan","country_id":182,"country_code":"RU","country_name":"Russia","latitude":"55.06513000","longitude":"51.23376000","wikiDataId":"Q4326249"},{"id":100301,"Name":"Novosheshminskiy Rayon","state_id":1861,"state_code":"TA","state_name":"Republic of Tatarstan","country_id":182,"country_code":"RU","country_name":"Russia","latitude":"55.08333000","longitude":"51.25000000","wikiDataId":"Q2220384"},{"id":100370,"Name":"Nurlat","state_id":1861,"state_code":"TA","state_name":"Republic of Tatarstan","country_id":182,"country_code":"RU","country_name":"Russia","latitude":"54.42766000","longitude":"50.80511000","wikiDataId":"Q175533"},{"id":100371,"Name":"Nurlatskiy rayon","state_id":1861,"state_code":"TA","state_name":"Republic of Tatarstan","country_id":182,"country_code":"RU","country_name":"Russia","latitude":"54.50000000","longitude":"50.75000000","wikiDataId":"Q2990363"},{"id":100488,"Name":"Osinovo","state_id":1861,"state_code":"TA","state_name":"Republic of Tatarstan","country_id":182,"country_code":"RU","country_name":"Russia","latitude":"55.88090000","longitude":"48.88100000","wikiDataId":"Q19638186"},{"id":100641,"Name":"Pestrechinskiy Rayon","state_id":1861,"state_code":"TA","state_name":"Republic of Tatarstan","country_id":182,"country_code":"RU","country_name":"Russia","latitude":"55.75000000","longitude":"49.75000000","wikiDataId":"Q2657859"},{"id":100642,"Name":"Pestretsy","state_id":1861,"state_code":"TA","state_name":"Republic of Tatarstan","country_id":182,"country_code":"RU","country_name":"Russia","latitude":"55.75313000","longitude":"49.65454000","wikiDataId":"Q4359969"},{"id":101032,"Name":"Russkiy Aktash","state_id":1861,"state_code":"TA","state_name":"Republic of Tatarstan","country_id":182,"country_code":"RU","country_name":"Russia","latitude":"55.03840000","longitude":"52.12140000","wikiDataId":"Q4400689"},{"id":101050,"Name":"Rybnaya Sloboda","state_id":1861,"state_code":"TA","state_name":"Republic of Tatarstan","country_id":182,"country_code":"RU","country_name":"Russia","latitude":"55.46129000","longitude":"50.14090000","wikiDataId":"Q4401600"},{"id":101051,"Name":"Rybno-Slobodskiy Rayon","state_id":1861,"state_code":"TA","state_name":"Republic of Tatarstan","country_id":182,"country_code":"RU","country_name":"Russia","latitude":"55.58333000","longitude":"50.16667000","wikiDataId":"Q2220342"},{"id":101061,"Name":"Sabinskiy Rayon","state_id":1861,"state_code":"TA","state_name":"Republic of Tatarstan","country_id":182,"country_code":"RU","country_name":"Russia","latitude":"56.00000000","longitude":"50.50000000","wikiDataId":"Q2220508"},{"id":101120,"Name":"Sarmanovo","state_id":1861,"state_code":"TA","state_name":"Republic of Tatarstan","country_id":182,"country_code":"RU","country_name":"Russia","latitude":"55.25529000","longitude":"52.58907000","wikiDataId":"Q4845420"},{"id":101121,"Name":"Sarmanovskiy Rayon","state_id":1861,"state_code":"TA","state_name":"Republic of Tatarstan","country_id":182,"country_code":"RU","country_name":"Russia","latitude":"55.25000000","longitude":"52.58333000","wikiDataId":"Q2219972"},{"id":101295,"Name":"Shemordan","state_id":1861,"state_code":"TA","state_name":"Republic of Tatarstan","country_id":182,"country_code":"RU","country_name":"Russia","latitude":"56.18560000","longitude":"50.39720000","wikiDataId":"Q4522802"},{"id":101344,"Name":"Shugurovo","state_id":1861,"state_code":"TA","state_name":"Republic of Tatarstan","country_id":182,"country_code":"RU","country_name":"Russia","latitude":"54.50828000","longitude":"52.13265000","wikiDataId":"Q3626662"},{"id":101531,"Name":"Spasskiy Rayon","state_id":1861,"state_code":"TA","state_name":"Republic of Tatarstan","country_id":182,"country_code":"RU","country_name":"Russia","latitude":"55.00000000","longitude":"49.50000000","wikiDataId":"Q2631562"},{"id":101600,"Name":"Staroye Arakchino","state_id":1861,"state_code":"TA","state_name":"Republic of Tatarstan","country_id":182,"country_code":"RU","country_name":"Russia","latitude":"55.80410000","longitude":"48.97090000","wikiDataId":"Q37967125"},{"id":101601,"Name":"Staroye Drozhzhanoye","state_id":1861,"state_code":"TA","state_name":"Republic of Tatarstan","country_id":182,"country_code":"RU","country_name":"Russia","latitude":"54.72657000","longitude":"47.56766000","wikiDataId":"Q3740270"},{"id":101621,"Name":"Stolbishchi","state_id":1861,"state_code":"TA","state_name":"Republic of Tatarstan","country_id":182,"country_code":"RU","country_name":"Russia","latitude":"55.64679000","longitude":"49.21595000","wikiDataId":"Q4442825"},{"id":101711,"Name":"Sviyazhsk","state_id":1861,"state_code":"TA","state_name":"Republic of Tatarstan","country_id":182,"country_code":"RU","country_name":"Russia","latitude":"55.77329000","longitude":"48.66051000","wikiDataId":"Q1717770"},{"id":101842,"Name":"Tetyushi","state_id":1861,"state_code":"TA","state_name":"Republic of Tatarstan","country_id":182,"country_code":"RU","country_name":"Russia","latitude":"54.93821000","longitude":"48.83656000","wikiDataId":"Q196651"},{"id":101843,"Name":"Tetyushskiy Rayon","state_id":1861,"state_code":"TA","state_name":"Republic of Tatarstan","country_id":182,"country_code":"RU","country_name":"Russia","latitude":"55.00000000","longitude":"48.75000000","wikiDataId":"Q2670322"},{"id":101965,"Name":"Tukayevskiy Rayon","state_id":1861,"state_code":"TA","state_name":"Republic of Tatarstan","country_id":182,"country_code":"RU","country_name":"Russia","latitude":"55.66667000","longitude":"52.25000000","wikiDataId":"Q2627322"},{"id":102002,"Name":"Tyulyachi","state_id":1861,"state_code":"TA","state_name":"Republic of Tatarstan","country_id":182,"country_code":"RU","country_name":"Russia","latitude":"55.89125000","longitude":"50.23992000","wikiDataId":"Q3626673"},{"id":102003,"Name":"Tyulyachinskiy Rayon","state_id":1861,"state_code":"TA","state_name":"Republic of Tatarstan","country_id":182,"country_code":"RU","country_name":"Russia","latitude":"55.91667000","longitude":"50.25000000","wikiDataId":"Q2220375"},{"id":102090,"Name":"Urussu","state_id":1861,"state_code":"TA","state_name":"Republic of Tatarstan","country_id":182,"country_code":"RU","country_name":"Russia","latitude":"54.59812000","longitude":"53.46313000","wikiDataId":"Q4477419"},{"id":102198,"Name":"Vasil’yevo","state_id":1861,"state_code":"TA","state_name":"Republic of Tatarstan","country_id":182,"country_code":"RU","country_name":"Russia","latitude":"55.83595000","longitude":"48.65820000","wikiDataId":"Q1015741"},{"id":102243,"Name":"Verkhneuslonskiy Rayon","state_id":1861,"state_code":"TA","state_name":"Republic of Tatarstan","country_id":182,"country_code":"RU","country_name":"Russia","latitude":"55.66667000","longitude":"48.75000000","wikiDataId":"Q2220436"},{"id":102259,"Name":"Verkhniy Uslon","state_id":1861,"state_code":"TA","state_name":"Republic of Tatarstan","country_id":182,"country_code":"RU","country_name":"Russia","latitude":"55.77010000","longitude":"48.98230000","wikiDataId":"Q4108751"},{"id":102444,"Name":"Vysokaya Gora","state_id":1861,"state_code":"TA","state_name":"Republic of Tatarstan","country_id":182,"country_code":"RU","country_name":"Russia","latitude":"55.91278000","longitude":"49.30167000","wikiDataId":"Q4129255"},{"id":102448,"Name":"Vysokogorskiy Rayon","state_id":1861,"state_code":"TA","state_name":"Republic of Tatarstan","country_id":182,"country_code":"RU","country_name":"Russia","latitude":"55.90000000","longitude":"49.31667000","wikiDataId":"Q2220459"},{"id":102532,"Name":"Yelabuga","state_id":1861,"state_code":"TA","state_name":"Republic of Tatarstan","country_id":182,"country_code":"RU","country_name":"Russia","latitude":"55.76127000","longitude":"52.06493000","wikiDataId":"Q135650"},{"id":102533,"Name":"Yelabuzhskiy Rayon","state_id":1861,"state_code":"TA","state_name":"Republic of Tatarstan","country_id":182,"country_code":"RU","country_name":"Russia","latitude":"55.83333000","longitude":"51.83333000","wikiDataId":"Q2220404"},{"id":102610,"Name":"Yutazinskiy Rayon","state_id":1861,"state_code":"TA","state_name":"Republic of Tatarstan","country_id":182,"country_code":"RU","country_name":"Russia","latitude":"54.66667000","longitude":"53.50000000","wikiDataId":"Q2988024"},{"id":102631,"Name":"Zainsk","state_id":1861,"state_code":"TA","state_name":"Republic of Tatarstan","country_id":182,"country_code":"RU","country_name":"Russia","latitude":"55.31950000","longitude":"52.06942000","wikiDataId":"Q136576"},{"id":102632,"Name":"Zainskiy Rayon","state_id":1861,"state_code":"TA","state_name":"Republic of Tatarstan","country_id":182,"country_code":"RU","country_name":"Russia","latitude":"55.30000000","longitude":"52.00000000","wikiDataId":"Q2719249"},{"id":102694,"Name":"Zelenodol’skiy Rayon","state_id":1861,"state_code":"TA","state_name":"Republic of Tatarstan","country_id":182,"country_code":"RU","country_name":"Russia","latitude":"55.91667000","longitude":"48.75000000","wikiDataId":"Q2220520"},{"id":102693,"Name":"Zelenodolsk","state_id":1861,"state_code":"TA","state_name":"Republic of Tatarstan","country_id":182,"country_code":"RU","country_name":"Russia","latitude":"55.84376000","longitude":"48.51784000","wikiDataId":"Q139743"}]