[{"id":57441,"Name":"Azor","state_id":1371,"state_code":"TA","state_name":"Tel Aviv District","country_id":106,"country_code":"IL","country_name":"Israel","latitude":"32.02430000","longitude":"34.80632000","wikiDataId":"Q952186"},{"id":57443,"Name":"Bat Yam","state_id":1371,"state_code":"TA","state_name":"Tel Aviv District","country_id":106,"country_code":"IL","country_name":"Israel","latitude":"32.02379000","longitude":"34.75185000","wikiDataId":"Q208725"},{"id":57451,"Name":"Bnei Brak","state_id":1371,"state_code":"TA","state_name":"Tel Aviv District","country_id":106,"country_code":"IL","country_name":"Israel","latitude":"32.08074000","longitude":"34.83380000","wikiDataId":"Q152467"},{"id":57471,"Name":"Giv'at Shmuel","state_id":1371,"state_code":"TA","state_name":"Tel Aviv District","country_id":106,"country_code":"IL","country_name":"Israel","latitude":"32.07817000","longitude":"34.84858000","wikiDataId":"Q152641"},{"id":57472,"Name":"Givatayim","state_id":1371,"state_code":"TA","state_name":"Tel Aviv District","country_id":106,"country_code":"IL","country_name":"Israel","latitude":"32.07225000","longitude":"34.81253000","wikiDataId":"Q152413"},{"id":57476,"Name":"Herzliya","state_id":1371,"state_code":"TA","state_name":"Tel Aviv District","country_id":106,"country_code":"IL","country_name":"Israel","latitude":"32.16627000","longitude":"34.82536000","wikiDataId":"Q152491"},{"id":57477,"Name":"Herzliya Pituah","state_id":1371,"state_code":"TA","state_name":"Tel Aviv District","country_id":106,"country_code":"IL","country_name":"Israel","latitude":"32.17409000","longitude":"34.80280000","wikiDataId":"Q152491"},{"id":57479,"Name":"HÌ±olon","state_id":1371,"state_code":"TA","state_name":"Tel Aviv District","country_id":106,"country_code":"IL","country_name":"Israel","latitude":"32.01034000","longitude":"34.77918000","wikiDataId":"Q192213"},{"id":57482,"Name":"Jaffa","state_id":1371,"state_code":"TA","state_name":"Tel Aviv District","country_id":106,"country_code":"IL","country_name":"Israel","latitude":"32.05043000","longitude":"34.75224000","wikiDataId":"Q180294"},{"id":57496,"Name":"Kefar Shemaryahu","state_id":1371,"state_code":"TA","state_name":"Tel Aviv District","country_id":106,"country_code":"IL","country_name":"Israel","latitude":"32.18529000","longitude":"34.82082000","wikiDataId":"Q2389508"},{"id":57530,"Name":"Or Yehuda","state_id":1371,"state_code":"TA","state_name":"Tel Aviv District","country_id":106,"country_code":"IL","country_name":"Israel","latitude":"32.02923000","longitude":"34.85788000","wikiDataId":"Q950347"},{"id":57543,"Name":"Ramat Gan","state_id":1371,"state_code":"TA","state_name":"Tel Aviv District","country_id":106,"country_code":"IL","country_name":"Israel","latitude":"32.08227000","longitude":"34.81065000","wikiDataId":"Q192807"},{"id":57544,"Name":"Ramat HaSharon","state_id":1371,"state_code":"TA","state_name":"Tel Aviv District","country_id":106,"country_code":"IL","country_name":"Israel","latitude":"32.14613000","longitude":"34.83940000","wikiDataId":"Q845866"},{"id":57564,"Name":"Tel Aviv","state_id":1371,"state_code":"TA","state_name":"Tel Aviv District","country_id":106,"country_code":"IL","country_name":"Israel","latitude":"32.08088000","longitude":"34.78057000","wikiDataId":"Q33935"},{"id":57575,"Name":"Yehud-Monosson","state_id":1371,"state_code":"TA","state_name":"Tel Aviv District","country_id":106,"country_code":"IL","country_name":"Israel","latitude":"32.02840000","longitude":"34.87960000","wikiDataId":"Q1000887"}]