[{"id":76792,"Name":"Baissa","state_id":319,"state_code":"TA","state_name":"Taraba","country_id":161,"country_code":"NG","country_name":"Nigeria","latitude":"7.23087000","longitude":"10.62444000","wikiDataId":"Q793588"},{"id":76797,"Name":"Beli","state_id":319,"state_code":"TA","state_name":"Taraba","country_id":161,"country_code":"NG","country_name":"Nigeria","latitude":"7.85868000","longitude":"10.97187000","wikiDataId":"Q811144"},{"id":76879,"Name":"Gassol","state_id":319,"state_code":"TA","state_name":"Taraba","country_id":161,"country_code":"NG","country_name":"Nigeria","latitude":"8.53535000","longitude":"10.44615000","wikiDataId":"Q5526456"},{"id":76883,"Name":"Gembu","state_id":319,"state_code":"TA","state_name":"Taraba","country_id":161,"country_code":"NG","country_name":"Nigeria","latitude":"6.72556000","longitude":"11.25652000","wikiDataId":"Q5530585"},{"id":76908,"Name":"Ibi","state_id":319,"state_code":"TA","state_name":"Taraba","country_id":161,"country_code":"NG","country_name":"Nigeria","latitude":"8.18122000","longitude":"9.74431000","wikiDataId":"Q183298"},{"id":76957,"Name":"Jalingo","state_id":319,"state_code":"TA","state_name":"Taraba","country_id":161,"country_code":"NG","country_name":"Nigeria","latitude":"8.89367000","longitude":"11.35960000","wikiDataId":"Q3140630"},{"id":77008,"Name":"Lau","state_id":319,"state_code":"TA","state_name":"Taraba","country_id":161,"country_code":"NG","country_name":"Nigeria","latitude":"9.20827000","longitude":"11.27541000","wikiDataId":"Q8673"},{"id":77036,"Name":"Mutum Biyu","state_id":319,"state_code":"TA","state_name":"Taraba","country_id":161,"country_code":"NG","country_name":"Nigeria","latitude":"8.64138000","longitude":"10.77355000","wikiDataId":"Q1951627"},{"id":77092,"Name":"Riti","state_id":319,"state_code":"TA","state_name":"Taraba","country_id":161,"country_code":"NG","country_name":"Nigeria","latitude":"7.90844000","longitude":"9.61688000","wikiDataId":"Q1023703"},{"id":77136,"Name":"Wukari","state_id":319,"state_code":"TA","state_name":"Taraba","country_id":161,"country_code":"NG","country_name":"Nigeria","latitude":"7.87139000","longitude":"9.77786000","wikiDataId":"Q574593"}]