[{"id":68066,"Name":"Acopinalco del Peñón","state_id":3458,"state_code":"TLA","state_name":"Tlaxcala","country_id":142,"country_code":"MX","country_name":"Mexico","latitude":"19.65929000","longitude":"-98.16299000","wikiDataId":"Q20199700"},{"id":68075,"Name":"Acuamanala","state_id":3458,"state_code":"TLA","state_name":"Tlaxcala","country_id":142,"country_code":"MX","country_name":"Mexico","latitude":"19.22361000","longitude":"-98.20056000","wikiDataId":"Q20250635"},{"id":68078,"Name":"Acuitlapilco","state_id":3458,"state_code":"TLA","state_name":"Tlaxcala","country_id":142,"country_code":"MX","country_name":"Mexico","latitude":"19.27333000","longitude":"-98.23542000","wikiDataId":"Q20232045"},{"id":68085,"Name":"Acxotla del Monte","state_id":3458,"state_code":"TLA","state_name":"Tlaxcala","country_id":142,"country_code":"MX","country_name":"Mexico","latitude":"19.25208000","longitude":"-98.16777000","wikiDataId":"Q4677871"},{"id":68086,"Name":"Acxotla del Río","state_id":3458,"state_code":"TLA","state_name":"Tlaxcala","country_id":142,"country_code":"MX","country_name":"Mexico","latitude":"19.32417000","longitude":"-98.23750000","wikiDataId":"Q20224304"},{"id":68229,"Name":"Altzayanca","state_id":3458,"state_code":"TLA","state_name":"Tlaxcala","country_id":142,"country_code":"MX","country_name":"Mexico","latitude":"19.43121000","longitude":"-97.79555000","wikiDataId":"Q4737061"},{"id":68248,"Name":"Amaxac de Guerrero","state_id":3458,"state_code":"TLA","state_name":"Tlaxcala","country_id":142,"country_code":"MX","country_name":"Mexico","latitude":"19.34661000","longitude":"-98.17057000","wikiDataId":"Q4740701"},{"id":68306,"Name":"Apetatitlán Antonio Carbajal","state_id":3458,"state_code":"TLA","state_name":"Tlaxcala","country_id":142,"country_code":"MX","country_name":"Mexico","latitude":"19.33622000","longitude":"-98.17912000","wikiDataId":"Q20224318"},{"id":68308,"Name":"Apizaco","state_id":3458,"state_code":"TLA","state_name":"Tlaxcala","country_id":142,"country_code":"MX","country_name":"Mexico","latitude":"19.41333000","longitude":"-98.14358000","wikiDataId":"Q618693"},{"id":68403,"Name":"Atexcatzingo","state_id":3458,"state_code":"TLA","state_name":"Tlaxcala","country_id":142,"country_code":"MX","country_name":"Mexico","latitude":"19.46882000","longitude":"-98.14716000","wikiDataId":"Q20224326"},{"id":68415,"Name":"Atlangatepec","state_id":3458,"state_code":"TLA","state_name":"Tlaxcala","country_id":142,"country_code":"MX","country_name":"Mexico","latitude":"19.53220000","longitude":"-98.20888000","wikiDataId":"Q4815955"},{"id":68424,"Name":"Atlzayanca","state_id":3458,"state_code":"TLA","state_name":"Tlaxcala","country_id":142,"country_code":"MX","country_name":"Mexico","latitude":"19.43111000","longitude":"-97.79556000","wikiDataId":"Q20139342"},{"id":68462,"Name":"Ayometitla","state_id":3458,"state_code":"TLA","state_name":"Tlaxcala","country_id":142,"country_code":"MX","country_name":"Mexico","latitude":"19.20722000","longitude":"-98.19306000","wikiDataId":"Q20139822"},{"id":68583,"Name":"Belén Atzitzimititlán","state_id":3458,"state_code":"TLA","state_name":"Tlaxcala","country_id":142,"country_code":"MX","country_name":"Mexico","latitude":"19.34694000","longitude":"-98.19000000","wikiDataId":"Q20224335"},{"id":68589,"Name":"Benito Juárez","state_id":3458,"state_code":"TLA","state_name":"Tlaxcala","country_id":142,"country_code":"MX","country_name":"Mexico","latitude":"19.37391000","longitude":"-97.90900000","wikiDataId":"Q20254040"},{"id":68747,"Name":"Calpulalpan","state_id":3458,"state_code":"TLA","state_name":"Tlaxcala","country_id":142,"country_code":"MX","country_name":"Mexico","latitude":"19.58867000","longitude":"-98.56972000","wikiDataId":"Q1997497"},{"id":68809,"Name":"Capula","state_id":3458,"state_code":"TLA","state_name":"Tlaxcala","country_id":142,"country_code":"MX","country_name":"Mexico","latitude":"19.53642000","longitude":"-98.04219000","wikiDataId":"Q20256434"},{"id":69191,"Name":"Ciudad de Nanacamilpa","state_id":3458,"state_code":"TLA","state_name":"Tlaxcala","country_id":142,"country_code":"MX","country_name":"Mexico","latitude":"19.49339000","longitude":"-98.53665000","wikiDataId":"Q20487448"},{"id":69289,"Name":"Colonia Cuauhtémoc","state_id":3458,"state_code":"TLA","state_name":"Tlaxcala","country_id":142,"country_code":"MX","country_name":"Mexico","latitude":"19.33182000","longitude":"-97.96487000","wikiDataId":"Q20224364"},{"id":69312,"Name":"Colonia Ignacio Allende","state_id":3458,"state_code":"TLA","state_name":"Tlaxcala","country_id":142,"country_code":"MX","country_name":"Mexico","latitude":"19.35667000","longitude":"-97.78389000","wikiDataId":"Q20129500"},{"id":69364,"Name":"Colonia San Isidro","state_id":3458,"state_code":"TLA","state_name":"Tlaxcala","country_id":142,"country_code":"MX","country_name":"Mexico","latitude":"19.41167000","longitude":"-98.11278000","wikiDataId":"Q20739874"},{"id":69375,"Name":"Colonia Venustiano Carranza","state_id":3458,"state_code":"TLA","state_name":"Tlaxcala","country_id":142,"country_code":"MX","country_name":"Mexico","latitude":"19.40005000","longitude":"-98.05822000","wikiDataId":"Q20264049"},{"id":69435,"Name":"Concepción Chimalpa","state_id":3458,"state_code":"TLA","state_name":"Tlaxcala","country_id":142,"country_code":"MX","country_name":"Mexico","latitude":"19.21639000","longitude":"-98.19806000","wikiDataId":"Q20133258"},{"id":69437,"Name":"Concepción Hidalgo","state_id":3458,"state_code":"TLA","state_name":"Tlaxcala","country_id":142,"country_code":"MX","country_name":"Mexico","latitude":"19.39810000","longitude":"-97.81951000","wikiDataId":"Q20133258"},{"id":69468,"Name":"Contla","state_id":3458,"state_code":"TLA","state_name":"Tlaxcala","country_id":142,"country_code":"MX","country_name":"Mexico","latitude":"19.32932000","longitude":"-98.16640000","wikiDataId":"Q5165559"},{"id":69561,"Name":"Cuapiaxtla","state_id":3458,"state_code":"TLA","state_name":"Tlaxcala","country_id":142,"country_code":"MX","country_name":"Mexico","latitude":"19.29588000","longitude":"-97.76880000","wikiDataId":"Q20136919"},{"id":69597,"Name":"Cuaxomulco","state_id":3458,"state_code":"TLA","state_name":"Tlaxcala","country_id":142,"country_code":"MX","country_name":"Mexico","latitude":"19.35264000","longitude":"-98.09670000","wikiDataId":"Q5191900"},{"id":69877,"Name":"El Carmen Aztama","state_id":3458,"state_code":"TLA","state_name":"Tlaxcala","country_id":142,"country_code":"MX","country_name":"Mexico","latitude":"19.22972000","longitude":"-98.21944000","wikiDataId":"Q20148737"},{"id":69879,"Name":"El Carmen Xalpatlahuaya","state_id":3458,"state_code":"TLA","state_name":"Tlaxcala","country_id":142,"country_code":"MX","country_name":"Mexico","latitude":"19.39193000","longitude":"-97.98167000","wikiDataId":"Q20277649"},{"id":70173,"Name":"El Rosario","state_id":3458,"state_code":"TLA","state_name":"Tlaxcala","country_id":142,"country_code":"MX","country_name":"Mexico","latitude":"19.66109000","longitude":"-98.22892000","wikiDataId":"Q50011692"},{"id":70279,"Name":"Emiliano Zapata","state_id":3458,"state_code":"TLA","state_name":"Tlaxcala","country_id":142,"country_code":"MX","country_name":"Mexico","latitude":"19.55861000","longitude":"-97.91667000","wikiDataId":"Q27777391"},{"id":70395,"Name":"Felipe Carrillo Puerto","state_id":3458,"state_code":"TLA","state_name":"Tlaxcala","country_id":142,"country_code":"MX","country_name":"Mexico","latitude":"19.39922000","longitude":"-97.85520000","wikiDataId":"Q1403187"},{"id":70454,"Name":"Fraccionamiento la Virgen","state_id":3458,"state_code":"TLA","state_name":"Tlaxcala","country_id":142,"country_code":"MX","country_name":"Mexico","latitude":"19.32306000","longitude":"-98.27389000","wikiDataId":"Q20139091"},{"id":70463,"Name":"Francisco I. Madero","state_id":3458,"state_code":"TLA","state_name":"Tlaxcala","country_id":142,"country_code":"MX","country_name":"Mexico","latitude":"19.52096000","longitude":"-98.49052000","wikiDataId":"Q20138761"},{"id":70479,"Name":"Francisco Villa","state_id":3458,"state_code":"TLA","state_name":"Tlaxcala","country_id":142,"country_code":"MX","country_name":"Mexico","latitude":"19.58630000","longitude":"-98.46225000","wikiDataId":"Q20139849"},{"id":70585,"Name":"Guadalupe Hidalgo","state_id":3458,"state_code":"TLA","state_name":"Tlaxcala","country_id":142,"country_code":"MX","country_name":"Mexico","latitude":"19.22611000","longitude":"-98.18750000","wikiDataId":"Q20264177"},{"id":70592,"Name":"Guadalupe Texcalac","state_id":3458,"state_code":"TLA","state_name":"Tlaxcala","country_id":142,"country_code":"MX","country_name":"Mexico","latitude":"19.43839000","longitude":"-98.07806000","wikiDataId":"Q20282787"},{"id":70593,"Name":"Guadalupe Tlachco","state_id":3458,"state_code":"TLA","state_name":"Tlaxcala","country_id":142,"country_code":"MX","country_name":"Mexico","latitude":"19.32852000","longitude":"-98.11044000","wikiDataId":"Q20282787"},{"id":70725,"Name":"Hualcaltzinco","state_id":3458,"state_code":"TLA","state_name":"Tlaxcala","country_id":142,"country_code":"MX","country_name":"Mexico","latitude":"19.40056000","longitude":"-98.16000000","wikiDataId":"Q20145367"},{"id":70727,"Name":"Huamantla","state_id":3458,"state_code":"TLA","state_name":"Tlaxcala","country_id":142,"country_code":"MX","country_name":"Mexico","latitude":"19.31451000","longitude":"-97.92520000","wikiDataId":"Q576636"},{"id":70781,"Name":"Hueyotlipan","state_id":3458,"state_code":"TLA","state_name":"Tlaxcala","country_id":142,"country_code":"MX","country_name":"Mexico","latitude":"19.47088000","longitude":"-98.34778000","wikiDataId":"Q20224509"},{"id":70792,"Name":"Huiloapan","state_id":3458,"state_code":"TLA","state_name":"Tlaxcala","country_id":142,"country_code":"MX","country_name":"Mexico","latitude":"19.38679000","longitude":"-98.26992000","wikiDataId":"Q20238517"},{"id":70848,"Name":"Ignacio Zaragoza","state_id":3458,"state_code":"TLA","state_name":"Tlaxcala","country_id":142,"country_code":"MX","country_name":"Mexico","latitude":"19.29228000","longitude":"-97.92122000","wikiDataId":"Q20230258"},{"id":71026,"Name":"Jesús Huitznahuac","state_id":3458,"state_code":"TLA","state_name":"Tlaxcala","country_id":142,"country_code":"MX","country_name":"Mexico","latitude":"19.34251000","longitude":"-98.12807000","wikiDataId":"Q20284223"},{"id":71035,"Name":"Jesús Tepactepec","state_id":3458,"state_code":"TLA","state_name":"Tlaxcala","country_id":142,"country_code":"MX","country_name":"Mexico","latitude":"19.22917000","longitude":"-98.31417000","wikiDataId":"Q9011693"},{"id":71096,"Name":"José María Morelos","state_id":3458,"state_code":"TLA","state_name":"Tlaxcala","country_id":142,"country_code":"MX","country_name":"Mexico","latitude":"19.31750000","longitude":"-97.97789000","wikiDataId":"Q20264248"},{"id":71177,"Name":"La Aurora","state_id":3458,"state_code":"TLA","state_name":"Tlaxcala","country_id":142,"country_code":"MX","country_name":"Mexico","latitude":"19.25680000","longitude":"-98.22320000","wikiDataId":"Q1002990"},{"id":71197,"Name":"La Candelaria Teotlalpan","state_id":3458,"state_code":"TLA","state_name":"Tlaxcala","country_id":142,"country_code":"MX","country_name":"Mexico","latitude":"19.33306000","longitude":"-98.22556000","wikiDataId":"Q20264226"},{"id":71385,"Name":"La Magdalena Tlaltelulco","state_id":3458,"state_code":"TLA","state_name":"Tlaxcala","country_id":142,"country_code":"MX","country_name":"Mexico","latitude":"19.28287000","longitude":"-98.19609000","wikiDataId":"Q20224581"},{"id":71490,"Name":"La Soledad","state_id":3458,"state_code":"TLA","state_name":"Tlaxcala","country_id":142,"country_code":"MX","country_name":"Mexico","latitude":"19.53841000","longitude":"-98.61750000","wikiDataId":"Q20264282"},{"id":71513,"Name":"La Trinidad Chimalpa","state_id":3458,"state_code":"TLA","state_name":"Tlaxcala","country_id":142,"country_code":"MX","country_name":"Mexico","latitude":"19.32944000","longitude":"-98.24528000","wikiDataId":"Q20137732"},{"id":71514,"Name":"La Trinidad Tenexyecac","state_id":3458,"state_code":"TLA","state_name":"Tlaxcala","country_id":142,"country_code":"MX","country_name":"Mexico","latitude":"19.33596000","longitude":"-98.31476000","wikiDataId":"Q20137732"},{"id":71562,"Name":"Lagunilla","state_id":3458,"state_code":"TLA","state_name":"Tlaxcala","country_id":142,"country_code":"MX","country_name":"Mexico","latitude":"19.63607000","longitude":"-98.27434000","wikiDataId":"Q20224606"},{"id":71886,"Name":"Lázaro Cárdenas","state_id":3458,"state_code":"TLA","state_name":"Tlaxcala","country_id":142,"country_code":"MX","country_name":"Mexico","latitude":"19.53750000","longitude":"-97.98222000","wikiDataId":"Q20264309"},{"id":71830,"Name":"Los Pilares","state_id":3458,"state_code":"TLA","state_name":"Tlaxcala","country_id":142,"country_code":"MX","country_name":"Mexico","latitude":"19.27159000","longitude":"-97.94703000","wikiDataId":"Q20285655"},{"id":71849,"Name":"Los Reyes Quiahuixtlan","state_id":3458,"state_code":"TLA","state_name":"Tlaxcala","country_id":142,"country_code":"MX","country_name":"Mexico","latitude":"19.33955000","longitude":"-98.25155000","wikiDataId":"Q2276224"},{"id":72037,"Name":"Mazapa","state_id":3458,"state_code":"TLA","state_name":"Tlaxcala","country_id":142,"country_code":"MX","country_name":"Mexico","latitude":"19.54083000","longitude":"-98.55684000","wikiDataId":"Q49977344"},{"id":72041,"Name":"Mazatecochco","state_id":3458,"state_code":"TLA","state_name":"Tlaxcala","country_id":142,"country_code":"MX","country_name":"Mexico","latitude":"19.17865000","longitude":"-98.18677000","wikiDataId":"Q6798253"},{"id":72258,"Name":"Muñoz","state_id":3458,"state_code":"TLA","state_name":"Tlaxcala","country_id":142,"country_code":"MX","country_name":"Mexico","latitude":"19.47458000","longitude":"-98.20963000","wikiDataId":"Q3293965"},{"id":72289,"Name":"Natívitas","state_id":3458,"state_code":"TLA","state_name":"Tlaxcala","country_id":142,"country_code":"MX","country_name":"Mexico","latitude":"19.23333000","longitude":"-98.31472000","wikiDataId":"Q20224658"},{"id":72322,"Name":"Nicolás Bravo","state_id":3458,"state_code":"TLA","state_name":"Tlaxcala","country_id":142,"country_code":"MX","country_name":"Mexico","latitude":"19.42213000","longitude":"-97.96759000","wikiDataId":"Q27778275"},{"id":72623,"Name":"Panotla","state_id":3458,"state_code":"TLA","state_name":"Tlaxcala","country_id":142,"country_code":"MX","country_name":"Mexico","latitude":"19.31619000","longitude":"-98.27013000","wikiDataId":"Q173191"},{"id":72634,"Name":"Papalotla","state_id":3458,"state_code":"TLA","state_name":"Tlaxcala","country_id":142,"country_code":"MX","country_name":"Mexico","latitude":"19.16861000","longitude":"-98.20389000","wikiDataId":"Q20224679"},{"id":73053,"Name":"Ranchería de Pocitos","state_id":3458,"state_code":"TLA","state_name":"Tlaxcala","country_id":142,"country_code":"MX","country_name":"Mexico","latitude":"19.39389000","longitude":"-97.75944000","wikiDataId":"Q20224700"},{"id":73269,"Name":"San Andrés Ahuashuatepec","state_id":3458,"state_code":"TLA","state_name":"Tlaxcala","country_id":142,"country_code":"MX","country_name":"Mexico","latitude":"19.37831000","longitude":"-98.10654000","wikiDataId":"Q20133340"},{"id":73423,"Name":"San Bartolomé Cuahuixmatlac","state_id":3458,"state_code":"TLA","state_name":"Tlaxcala","country_id":142,"country_code":"MX","country_name":"Mexico","latitude":"19.29333000","longitude":"-98.14806000","wikiDataId":"Q4407233"},{"id":73427,"Name":"San Bartolomé Tenango","state_id":3458,"state_code":"TLA","state_name":"Tlaxcala","country_id":142,"country_code":"MX","country_name":"Mexico","latitude":"19.25253000","longitude":"-98.29172000","wikiDataId":"Q3846986"},{"id":73431,"Name":"San Benito Xaltocan","state_id":3458,"state_code":"TLA","state_name":"Tlaxcala","country_id":142,"country_code":"MX","country_name":"Mexico","latitude":"19.40594000","longitude":"-98.16683000","wikiDataId":"Q20235066"},{"id":73453,"Name":"San Buenaventura Atempan","state_id":3458,"state_code":"TLA","state_name":"Tlaxcala","country_id":142,"country_code":"MX","country_name":"Mexico","latitude":"19.32667000","longitude":"-98.22194000","wikiDataId":"Q20264492"},{"id":73470,"Name":"San Cosme Atlamaxac","state_id":3458,"state_code":"TLA","state_name":"Tlaxcala","country_id":142,"country_code":"MX","country_name":"Mexico","latitude":"19.23840000","longitude":"-98.22513000","wikiDataId":"Q20234709"},{"id":73485,"Name":"San Damián Texoloc","state_id":3458,"state_code":"TLA","state_name":"Tlaxcala","country_id":142,"country_code":"MX","country_name":"Mexico","latitude":"19.27833000","longitude":"-98.28544000","wikiDataId":"Q20136860"},{"id":73508,"Name":"San Esteban Tizatlán","state_id":3458,"state_code":"TLA","state_name":"Tlaxcala","country_id":142,"country_code":"MX","country_name":"Mexico","latitude":"19.33911000","longitude":"-98.21374000","wikiDataId":"Q3893346"},{"id":73523,"Name":"San Felipe Sultepec","state_id":3458,"state_code":"TLA","state_name":"Tlaxcala","country_id":142,"country_code":"MX","country_name":"Mexico","latitude":"19.59083000","longitude":"-98.61528000","wikiDataId":"Q20224772"},{"id":73563,"Name":"San Francisco Cuexcontzi","state_id":3458,"state_code":"TLA","state_name":"Tlaxcala","country_id":142,"country_code":"MX","country_name":"Mexico","latitude":"19.32023000","longitude":"-97.71092000","wikiDataId":"Q7413969"},{"id":73594,"Name":"San Francisco Temetzontla","state_id":3458,"state_code":"TLA","state_name":"Tlaxcala","country_id":142,"country_code":"MX","country_name":"Mexico","latitude":"19.35028000","longitude":"-98.28861000","wikiDataId":"Q20289322"},{"id":73600,"Name":"San Francisco Tlacuilohcan","state_id":3458,"state_code":"TLA","state_name":"Tlaxcala","country_id":142,"country_code":"MX","country_name":"Mexico","latitude":"19.40167000","longitude":"-98.19278000","wikiDataId":"Q20264521"},{"id":73646,"Name":"San Hipólito Chimalpa","state_id":3458,"state_code":"TLA","state_name":"Tlaxcala","country_id":142,"country_code":"MX","country_name":"Mexico","latitude":"19.31963000","longitude":"-98.25004000","wikiDataId":"Q20231621"},{"id":73676,"Name":"San Isidro Buen Suceso","state_id":3458,"state_code":"TLA","state_name":"Tlaxcala","country_id":142,"country_code":"MX","country_name":"Mexico","latitude":"19.15489000","longitude":"-98.10492000","wikiDataId":"Q20739905"},{"id":73723,"Name":"San Jerónimo Zacualpan","state_id":3458,"state_code":"TLA","state_name":"Tlaxcala","country_id":142,"country_code":"MX","country_name":"Mexico","latitude":"19.24083000","longitude":"-98.26139000","wikiDataId":"Q20140755"},{"id":73733,"Name":"San Jorge Tezoquipan","state_id":3458,"state_code":"TLA","state_name":"Tlaxcala","country_id":142,"country_code":"MX","country_name":"Mexico","latitude":"19.32094000","longitude":"-98.31319000","wikiDataId":"Q20141028"},{"id":73743,"Name":"San José Atoyatenco","state_id":3458,"state_code":"TLA","state_name":"Tlaxcala","country_id":142,"country_code":"MX","country_name":"Mexico","latitude":"19.25083000","longitude":"-98.35528000","wikiDataId":"Q20141216"},{"id":73745,"Name":"San José Aztatla","state_id":3458,"state_code":"TLA","state_name":"Tlaxcala","country_id":142,"country_code":"MX","country_name":"Mexico","latitude":"19.31004000","longitude":"-98.12655000","wikiDataId":"Q1968621"},{"id":73761,"Name":"San José Cuamantzingo","state_id":3458,"state_code":"TLA","state_name":"Tlaxcala","country_id":142,"country_code":"MX","country_name":"Mexico","latitude":"19.51555000","longitude":"-98.25373000","wikiDataId":"Q2448372"},{"id":73784,"Name":"San José Teacalco","state_id":3458,"state_code":"TLA","state_name":"Tlaxcala","country_id":142,"country_code":"MX","country_name":"Mexico","latitude":"19.33558000","longitude":"-98.06455000","wikiDataId":"Q20224785"},{"id":73790,"Name":"San José Tepeyahualco","state_id":3458,"state_code":"TLA","state_name":"Tlaxcala","country_id":142,"country_code":"MX","country_name":"Mexico","latitude":"19.59944000","longitude":"-98.26889000","wikiDataId":"Q20291774"},{"id":73792,"Name":"San José Tetel","state_id":3458,"state_code":"TLA","state_name":"Tlaxcala","country_id":142,"country_code":"MX","country_name":"Mexico","latitude":"19.43313000","longitude":"-98.15948000","wikiDataId":"Q20246820"},{"id":73800,"Name":"San José Villarreal","state_id":3458,"state_code":"TLA","state_name":"Tlaxcala","country_id":142,"country_code":"MX","country_name":"Mexico","latitude":"19.53278000","longitude":"-97.89750000","wikiDataId":"Q20142992"},{"id":73802,"Name":"San José Xicohténcatl","state_id":3458,"state_code":"TLA","state_name":"Tlaxcala","country_id":142,"country_code":"MX","country_name":"Mexico","latitude":"19.35440000","longitude":"-97.83081000","wikiDataId":"Q20142992"},{"id":73918,"Name":"San Juan Quetzalcoapan","state_id":3458,"state_code":"TLA","state_name":"Tlaxcala","country_id":142,"country_code":"MX","country_name":"Mexico","latitude":"19.37947000","longitude":"-98.07113000","wikiDataId":"Q3888782"},{"id":73998,"Name":"San Lorenzo Axocomanitla","state_id":3458,"state_code":"TLA","state_name":"Tlaxcala","country_id":142,"country_code":"MX","country_name":"Mexico","latitude":"19.22389000","longitude":"-98.24861000","wikiDataId":"Q20224795"},{"id":74011,"Name":"San Lorenzo Sóltepec","state_id":3458,"state_code":"TLA","state_name":"Tlaxcala","country_id":142,"country_code":"MX","country_name":"Mexico","latitude":"19.60422000","longitude":"-98.31356000","wikiDataId":"Q50012014"},{"id":74020,"Name":"San Lorenzo Xaltelulco","state_id":3458,"state_code":"TLA","state_name":"Tlaxcala","country_id":142,"country_code":"MX","country_name":"Mexico","latitude":"19.34075000","longitude":"-98.10585000","wikiDataId":"Q20292841"},{"id":74034,"Name":"San Lucas Tecopilco","state_id":3458,"state_code":"TLA","state_name":"Tlaxcala","country_id":142,"country_code":"MX","country_name":"Mexico","latitude":"19.48626000","longitude":"-98.25605000","wikiDataId":"Q7414720"},{"id":74036,"Name":"San Lucas Tlacochcalco","state_id":3458,"state_code":"TLA","state_name":"Tlaxcala","country_id":142,"country_code":"MX","country_name":"Mexico","latitude":"19.34261000","longitude":"-98.14641000","wikiDataId":"Q7414720"},{"id":74047,"Name":"San Luis Apizaquito","state_id":3458,"state_code":"TLA","state_name":"Tlaxcala","country_id":142,"country_code":"MX","country_name":"Mexico","latitude":"19.42524000","longitude":"-98.11709000","wikiDataId":"Q20292979"},{"id":74069,"Name":"San Marcos Contla","state_id":3458,"state_code":"TLA","state_name":"Tlaxcala","country_id":142,"country_code":"MX","country_name":"Mexico","latitude":"19.19923000","longitude":"-98.19950000","wikiDataId":"Q20272538"},{"id":74147,"Name":"San Matías Tepetomatitlán","state_id":3458,"state_code":"TLA","state_name":"Tlaxcala","country_id":142,"country_code":"MX","country_name":"Mexico","latitude":"19.35389000","longitude":"-98.19490000","wikiDataId":"Q6119392"},{"id":74174,"Name":"San Miguel Contla","state_id":3458,"state_code":"TLA","state_name":"Tlaxcala","country_id":142,"country_code":"MX","country_name":"Mexico","latitude":"19.36111000","longitude":"-98.13250000","wikiDataId":"Q20293733"},{"id":74215,"Name":"San Miguel Tlamahuco","state_id":3458,"state_code":"TLA","state_name":"Tlaxcala","country_id":142,"country_code":"MX","country_name":"Mexico","latitude":"19.32417000","longitude":"-98.23972000","wikiDataId":"Q20293952"},{"id":74221,"Name":"San Miguel Xochitecatitla","state_id":3458,"state_code":"TLA","state_name":"Tlaxcala","country_id":142,"country_code":"MX","country_name":"Mexico","latitude":"19.23877000","longitude":"-98.35422000","wikiDataId":"Q20243968"},{"id":74334,"Name":"San Pedro Ecatepec","state_id":3458,"state_code":"TLA","state_name":"Tlaxcala","country_id":142,"country_code":"MX","country_name":"Mexico","latitude":"19.52158000","longitude":"-98.15468000","wikiDataId":"Q20294649"},{"id":74355,"Name":"San Pedro Muñoztla","state_id":3458,"state_code":"TLA","state_name":"Tlaxcala","country_id":142,"country_code":"MX","country_name":"Mexico","latitude":"19.28167000","longitude":"-98.16693000","wikiDataId":"Q27767934"},{"id":74385,"Name":"San Pedro Tlacotepec","state_id":3458,"state_code":"TLA","state_name":"Tlaxcala","country_id":142,"country_code":"MX","country_name":"Mexico","latitude":"19.39579000","longitude":"-98.04589000","wikiDataId":"Q50011164"},{"id":74396,"Name":"San Pedro Xalcaltzinco","state_id":3458,"state_code":"TLA","state_name":"Tlaxcala","country_id":142,"country_code":"MX","country_name":"Mexico","latitude":"19.22778000","longitude":"-98.22806000","wikiDataId":"Q20224811"},{"id":74398,"Name":"San Pedro Xochiteotla","state_id":3458,"state_code":"TLA","state_name":"Tlaxcala","country_id":142,"country_code":"MX","country_name":"Mexico","latitude":"19.30788000","longitude":"-98.13858000","wikiDataId":"Q20264736"},{"id":74434,"Name":"San Rafael Tenanyecac","state_id":3458,"state_code":"TLA","state_name":"Tlaxcala","country_id":142,"country_code":"MX","country_name":"Mexico","latitude":"19.24786000","longitude":"-98.37121000","wikiDataId":"Q20149320"},{"id":74435,"Name":"San Rafael Tepatlaxco","state_id":3458,"state_code":"TLA","state_name":"Tlaxcala","country_id":142,"country_code":"MX","country_name":"Mexico","latitude":"19.29833000","longitude":"-98.11972000","wikiDataId":"Q4407327"},{"id":74480,"Name":"San Simeón Xipetzingo","state_id":3458,"state_code":"TLA","state_name":"Tlaxcala","country_id":142,"country_code":"MX","country_name":"Mexico","latitude":"19.48004000","longitude":"-98.29284000","wikiDataId":"Q20295406"},{"id":74486,"Name":"San Simón Tlatlahuquitepec","state_id":3458,"state_code":"TLA","state_name":"Tlaxcala","country_id":142,"country_code":"MX","country_name":"Mexico","latitude":"19.39842000","longitude":"-98.22396000","wikiDataId":"Q3888152"},{"id":74517,"Name":"Sanctórum","state_id":3458,"state_code":"TLA","state_name":"Tlaxcala","country_id":142,"country_code":"MX","country_name":"Mexico","latitude":"19.49333000","longitude":"-98.47156000","wikiDataId":"Q20224818"},{"id":74531,"Name":"Santa Ana Chiautempan","state_id":3458,"state_code":"TLA","state_name":"Tlaxcala","country_id":142,"country_code":"MX","country_name":"Mexico","latitude":"19.30661000","longitude":"-98.18773000","wikiDataId":"Q20224351"},{"id":74561,"Name":"Santa Anita Huiloac","state_id":3458,"state_code":"TLA","state_name":"Tlaxcala","country_id":142,"country_code":"MX","country_name":"Mexico","latitude":"19.38841000","longitude":"-98.14362000","wikiDataId":"Q19809770"},{"id":74563,"Name":"Santa Apolonia Teacalco","state_id":3458,"state_code":"TLA","state_name":"Tlaxcala","country_id":142,"country_code":"MX","country_name":"Mexico","latitude":"19.24153000","longitude":"-98.31188000","wikiDataId":"Q7419202"},{"id":74580,"Name":"Santa Catarina Ayometla","state_id":3458,"state_code":"TLA","state_name":"Tlaxcala","country_id":142,"country_code":"MX","country_name":"Mexico","latitude":"19.19833000","longitude":"-98.21361000","wikiDataId":"Q20264592"},{"id":74617,"Name":"Santa Cruz Aquiahuac","state_id":3458,"state_code":"TLA","state_name":"Tlaxcala","country_id":142,"country_code":"MX","country_name":"Mexico","latitude":"19.23944000","longitude":"-98.28222000","wikiDataId":"Q20264595"},{"id":74635,"Name":"Santa Cruz Pocitos","state_id":3458,"state_code":"TLA","state_name":"Tlaxcala","country_id":142,"country_code":"MX","country_name":"Mexico","latitude":"19.37924000","longitude":"-97.76116000","wikiDataId":"Q20224832"},{"id":74641,"Name":"Santa Cruz Tetela","state_id":3458,"state_code":"TLA","state_name":"Tlaxcala","country_id":142,"country_code":"MX","country_name":"Mexico","latitude":"19.29250000","longitude":"-98.20778000","wikiDataId":"Q20224833"},{"id":74679,"Name":"Santa Isabel Xiloxoxtla","state_id":3458,"state_code":"TLA","state_name":"Tlaxcala","country_id":142,"country_code":"MX","country_name":"Mexico","latitude":"19.26786000","longitude":"-98.21399000","wikiDataId":"Q20293774"},{"id":74684,"Name":"Santa Justina Ecatepec","state_id":3458,"state_code":"TLA","state_name":"Tlaxcala","country_id":142,"country_code":"MX","country_name":"Mexico","latitude":"19.31083000","longitude":"-98.35500000","wikiDataId":"Q20224843"},{"id":74718,"Name":"Santa María Atlihuetzian","state_id":3458,"state_code":"TLA","state_name":"Tlaxcala","country_id":142,"country_code":"MX","country_name":"Mexico","latitude":"19.37697000","longitude":"-98.17775000","wikiDataId":"Q20297678"},{"id":74748,"Name":"Santa María Ixtulco","state_id":3458,"state_code":"TLA","state_name":"Tlaxcala","country_id":142,"country_code":"MX","country_name":"Mexico","latitude":"19.32529000","longitude":"-98.20843000","wikiDataId":"Q20232052"},{"id":74783,"Name":"Santa María Texcalac","state_id":3458,"state_code":"TLA","state_name":"Tlaxcala","country_id":142,"country_code":"MX","country_name":"Mexico","latitude":"19.42333000","longitude":"-98.08663000","wikiDataId":"Q2890358"},{"id":74924,"Name":"Santiago Michac","state_id":3458,"state_code":"TLA","state_name":"Tlaxcala","country_id":142,"country_code":"MX","country_name":"Mexico","latitude":"19.21985000","longitude":"-98.33932000","wikiDataId":"Q20240512"},{"id":74946,"Name":"Santiago Tepeticpac","state_id":3458,"state_code":"TLA","state_name":"Tlaxcala","country_id":142,"country_code":"MX","country_name":"Mexico","latitude":"19.33476000","longitude":"-98.22692000","wikiDataId":"Q20224862"},{"id":74960,"Name":"Santiago Tlacochcalco","state_id":3458,"state_code":"TLA","state_name":"Tlaxcala","country_id":142,"country_code":"MX","country_name":"Mexico","latitude":"19.26861000","longitude":"-98.22306000","wikiDataId":"Q20224863"},{"id":75034,"Name":"Santo Tomás la Concordia","state_id":3458,"state_code":"TLA","state_name":"Tlaxcala","country_id":142,"country_code":"MX","country_name":"Mexico","latitude":"19.22917000","longitude":"-98.31944000","wikiDataId":"Q20264636"},{"id":75348,"Name":"Tenancingo","state_id":3458,"state_code":"TLA","state_name":"Tlaxcala","country_id":142,"country_code":"MX","country_name":"Mexico","latitude":"19.14725000","longitude":"-98.20132000","wikiDataId":"Q20224882"},{"id":75377,"Name":"Teolocholco","state_id":3458,"state_code":"TLA","state_name":"Tlaxcala","country_id":142,"country_code":"MX","country_name":"Mexico","latitude":"19.24333000","longitude":"-98.19083000","wikiDataId":"Q3891337"},{"id":75417,"Name":"Tepetitla","state_id":3458,"state_code":"TLA","state_name":"Tlaxcala","country_id":142,"country_code":"MX","country_name":"Mexico","latitude":"19.26531000","longitude":"-98.37645000","wikiDataId":"Q20232383"},{"id":75444,"Name":"Tepeyanco","state_id":3458,"state_code":"TLA","state_name":"Tlaxcala","country_id":142,"country_code":"MX","country_name":"Mexico","latitude":"19.24558000","longitude":"-98.23409000","wikiDataId":"Q3892089"},{"id":75470,"Name":"Terrenate","state_id":3458,"state_code":"TLA","state_name":"Tlaxcala","country_id":142,"country_code":"MX","country_name":"Mexico","latitude":"19.47666000","longitude":"-97.92020000","wikiDataId":"Q3892040"},{"id":75491,"Name":"Tetla","state_id":3458,"state_code":"TLA","state_name":"Tlaxcala","country_id":142,"country_code":"MX","country_name":"Mexico","latitude":"19.44204000","longitude":"-98.10325000","wikiDataId":"Q20224871"},{"id":75493,"Name":"Tetlanohcán","state_id":3458,"state_code":"TLA","state_name":"Tlaxcala","country_id":142,"country_code":"MX","country_name":"Mexico","latitude":"19.26030000","longitude":"-98.16433000","wikiDataId":"Q20224898"},{"id":75685,"Name":"Tlatempan","state_id":3458,"state_code":"TLA","state_name":"Tlaxcala","country_id":142,"country_code":"MX","country_name":"Mexico","latitude":"19.33167000","longitude":"-98.20306000","wikiDataId":"Q20224918"},{"id":75693,"Name":"Tlaxcala","state_id":3458,"state_code":"TLA","state_name":"Tlaxcala","country_id":142,"country_code":"MX","country_name":"Mexico","latitude":"19.31905000","longitude":"-98.19982000","wikiDataId":"Q689987"},{"id":75698,"Name":"Tlaxco","state_id":3458,"state_code":"TLA","state_name":"Tlaxcala","country_id":142,"country_code":"MX","country_name":"Mexico","latitude":"19.61442000","longitude":"-98.11997000","wikiDataId":"Q19824930"},{"id":75712,"Name":"Tocatlán","state_id":3458,"state_code":"TLA","state_name":"Tlaxcala","country_id":142,"country_code":"MX","country_name":"Mexico","latitude":"19.38865000","longitude":"-98.02740000","wikiDataId":"Q7811955"},{"id":75724,"Name":"Toluca de Guadalupe","state_id":3458,"state_code":"TLA","state_name":"Tlaxcala","country_id":142,"country_code":"MX","country_name":"Mexico","latitude":"19.46898000","longitude":"-97.95588000","wikiDataId":"Q209034"},{"id":75744,"Name":"Topilco de Juárez","state_id":3458,"state_code":"TLA","state_name":"Tlaxcala","country_id":142,"country_code":"MX","country_name":"Mexico","latitude":"19.42095000","longitude":"-98.19990000","wikiDataId":"Q2833877"},{"id":75749,"Name":"Totolac","state_id":3458,"state_code":"TLA","state_name":"Tlaxcala","country_id":142,"country_code":"MX","country_name":"Mexico","latitude":"19.32580000","longitude":"-98.25834000","wikiDataId":"Q3845619"},{"id":75851,"Name":"Tzompantepec","state_id":3458,"state_code":"TLA","state_name":"Tlaxcala","country_id":142,"country_code":"MX","country_name":"Mexico","latitude":"19.37608000","longitude":"-98.09014000","wikiDataId":"Q5484819"},{"id":75883,"Name":"Unión Ejidal Tierra y Libertad","state_id":3458,"state_code":"TLA","state_name":"Tlaxcala","country_id":142,"country_code":"MX","country_name":"Mexico","latitude":"19.65750000","longitude":"-98.33750000","wikiDataId":"Q20224933"},{"id":75991,"Name":"Villa Alta","state_id":3458,"state_code":"TLA","state_name":"Tlaxcala","country_id":142,"country_code":"MX","country_name":"Mexico","latitude":"19.29263000","longitude":"-98.40110000","wikiDataId":"Q3845860"},{"id":76063,"Name":"Villa de El Carmen Tequexquitla","state_id":3458,"state_code":"TLA","state_name":"Tlaxcala","country_id":142,"country_code":"MX","country_name":"Mexico","latitude":"19.32426000","longitude":"-97.65350000","wikiDataId":"Q20224406"},{"id":76055,"Name":"Villa Vicente Guerrero","state_id":3458,"state_code":"TLA","state_name":"Tlaxcala","country_id":142,"country_code":"MX","country_name":"Mexico","latitude":"19.12123000","longitude":"-98.16572000","wikiDataId":"Q2474056"},{"id":76126,"Name":"Xaltocan","state_id":3458,"state_code":"TLA","state_name":"Tlaxcala","country_id":142,"country_code":"MX","country_name":"Mexico","latitude":"19.42427000","longitude":"-98.21033000","wikiDataId":"Q8042860"},{"id":76138,"Name":"Xicohtzinco","state_id":3458,"state_code":"TLA","state_name":"Tlaxcala","country_id":142,"country_code":"MX","country_name":"Mexico","latitude":"19.17371000","longitude":"-98.23377000","wikiDataId":"Q3893278"},{"id":76188,"Name":"Xocoyucan","state_id":3458,"state_code":"TLA","state_name":"Tlaxcala","country_id":142,"country_code":"MX","country_name":"Mexico","latitude":"19.30932000","longitude":"-98.37471000","wikiDataId":"Q20293940"},{"id":76220,"Name":"Yauhquemehcan","state_id":3458,"state_code":"TLA","state_name":"Tlaxcala","country_id":142,"country_code":"MX","country_name":"Mexico","latitude":"19.40697000","longitude":"-98.18230000","wikiDataId":"Q20294202"},{"id":76273,"Name":"Zacatelco","state_id":3458,"state_code":"TLA","state_name":"Tlaxcala","country_id":142,"country_code":"MX","country_name":"Mexico","latitude":"19.21583000","longitude":"-98.23972000","wikiDataId":"Q2879423"},{"id":76319,"Name":"Zaragoza","state_id":3458,"state_code":"TLA","state_name":"Tlaxcala","country_id":142,"country_code":"MX","country_name":"Mexico","latitude":"19.31861000","longitude":"-98.26389000","wikiDataId":"Q20295395"},{"id":76337,"Name":"Zimatepec","state_id":3458,"state_code":"TLA","state_name":"Tlaxcala","country_id":142,"country_code":"MX","country_name":"Mexico","latitude":"19.42131000","longitude":"-98.16462000","wikiDataId":"Q27796575"},{"id":76353,"Name":"Zitlaltépec","state_id":3458,"state_code":"TLA","state_name":"Tlaxcala","country_id":142,"country_code":"MX","country_name":"Mexico","latitude":"19.20389000","longitude":"-97.90722000","wikiDataId":"Q20295550"},{"id":76386,"Name":"Zumpango","state_id":3458,"state_code":"TLA","state_name":"Tlaxcala","country_id":142,"country_code":"MX","country_name":"Mexico","latitude":"19.55770000","longitude":"-98.22407000","wikiDataId":"Q1115965"}]