[{"id":10067,"Name":"Abreulândia","state_id":2020,"state_code":"TO","state_name":"Tocantins","country_id":31,"country_code":"BR","country_name":"Brazil","latitude":"-9.43672000","longitude":"-49.31733000","wikiDataId":"Q1784836"},{"id":10101,"Name":"Aguiarnópolis","state_id":2020,"state_code":"TO","state_name":"Tocantins","country_id":31,"country_code":"BR","country_name":"Brazil","latitude":"-6.48176000","longitude":"-47.51435000","wikiDataId":"Q1998462"},{"id":10138,"Name":"Aliança do Tocantins","state_id":2020,"state_code":"TO","state_name":"Tocantins","country_id":31,"country_code":"BR","country_name":"Brazil","latitude":"-11.32864000","longitude":"-48.95855000","wikiDataId":"Q2010570"},{"id":10140,"Name":"Almas","state_id":2020,"state_code":"TO","state_name":"Tocantins","country_id":31,"country_code":"BR","country_name":"Brazil","latitude":"-11.43527000","longitude":"-47.23635000","wikiDataId":"Q22060165"},{"id":10194,"Name":"Alvorada","state_id":2020,"state_code":"TO","state_name":"Tocantins","country_id":31,"country_code":"BR","country_name":"Brazil","latitude":"-12.48000000","longitude":"-49.12472000","wikiDataId":"Q22060164"},{"id":10235,"Name":"Ananás","state_id":2020,"state_code":"TO","state_name":"Tocantins","country_id":31,"country_code":"BR","country_name":"Brazil","latitude":"-6.14621000","longitude":"-48.21505000","wikiDataId":"Q485887"},{"id":10255,"Name":"Angico","state_id":2020,"state_code":"TO","state_name":"Tocantins","country_id":31,"country_code":"BR","country_name":"Brazil","latitude":"-6.34335000","longitude":"-47.93112000","wikiDataId":"Q1756210"},{"id":10289,"Name":"Aparecida do Rio Negro","state_id":2020,"state_code":"TO","state_name":"Tocantins","country_id":31,"country_code":"BR","country_name":"Brazil","latitude":"-10.06183000","longitude":"-47.96514000","wikiDataId":"Q459711"},{"id":10317,"Name":"Aragominas","state_id":2020,"state_code":"TO","state_name":"Tocantins","country_id":31,"country_code":"BR","country_name":"Brazil","latitude":"-6.89259000","longitude":"-48.61589000","wikiDataId":"Q22067256"},{"id":10318,"Name":"Araguacema","state_id":2020,"state_code":"TO","state_name":"Tocantins","country_id":31,"country_code":"BR","country_name":"Brazil","latitude":"-8.91352000","longitude":"-49.40915000","wikiDataId":"Q22067256"},{"id":10326,"Name":"Araguaçu","state_id":2020,"state_code":"TO","state_name":"Tocantins","country_id":31,"country_code":"BR","country_name":"Brazil","latitude":"-12.72579000","longitude":"-49.74942000","wikiDataId":"Q593716"},{"id":10327,"Name":"Araguaína","state_id":2020,"state_code":"TO","state_name":"Tocantins","country_id":31,"country_code":"BR","country_name":"Brazil","latitude":"-7.31139000","longitude":"-48.62113000","wikiDataId":"Q625279"},{"id":10322,"Name":"Araguanã","state_id":2020,"state_code":"TO","state_name":"Tocantins","country_id":31,"country_code":"BR","country_name":"Brazil","latitude":"-6.76634000","longitude":"-48.52702000","wikiDataId":"Q957649"},{"id":10325,"Name":"Araguatins","state_id":2020,"state_code":"TO","state_name":"Tocantins","country_id":31,"country_code":"BR","country_name":"Brazil","latitude":"-5.64071000","longitude":"-48.08859000","wikiDataId":"Q1637522"},{"id":10338,"Name":"Arapoema","state_id":2020,"state_code":"TO","state_name":"Tocantins","country_id":31,"country_code":"BR","country_name":"Brazil","latitude":"-7.71941000","longitude":"-49.03285000","wikiDataId":"Q626175"},{"id":10409,"Name":"Arraias","state_id":2020,"state_code":"TO","state_name":"Tocantins","country_id":31,"country_code":"BR","country_name":"Brazil","latitude":"-12.84110000","longitude":"-46.90868000","wikiDataId":"Q1750235"},{"id":10442,"Name":"Augustinópolis","state_id":2020,"state_code":"TO","state_name":"Tocantins","country_id":31,"country_code":"BR","country_name":"Brazil","latitude":"-5.51080000","longitude":"-47.91538000","wikiDataId":"Q22074324"},{"id":10453,"Name":"Aurora do Tocantins","state_id":2020,"state_code":"TO","state_name":"Tocantins","country_id":31,"country_code":"BR","country_name":"Brazil","latitude":"-12.61624000","longitude":"-46.44441000","wikiDataId":"Q2012016"},{"id":10462,"Name":"Axixá do Tocantins","state_id":2020,"state_code":"TO","state_name":"Tocantins","country_id":31,"country_code":"BR","country_name":"Brazil","latitude":"-5.64850000","longitude":"-47.77278000","wikiDataId":"Q630926"},{"id":10466,"Name":"Babaçulândia","state_id":2020,"state_code":"TO","state_name":"Tocantins","country_id":31,"country_code":"BR","country_name":"Brazil","latitude":"-7.20516000","longitude":"-47.76821000","wikiDataId":"Q1791887"},{"id":10502,"Name":"Bandeirantes do Tocantins","state_id":2020,"state_code":"TO","state_name":"Tocantins","country_id":31,"country_code":"BR","country_name":"Brazil","latitude":"-8.00418000","longitude":"-48.68223000","wikiDataId":"Q2064780"},{"id":10539,"Name":"Barra do Ouro","state_id":2020,"state_code":"TO","state_name":"Tocantins","country_id":31,"country_code":"BR","country_name":"Brazil","latitude":"-7.75845000","longitude":"-47.58781000","wikiDataId":"Q577720"},{"id":10565,"Name":"Barrolândia","state_id":2020,"state_code":"TO","state_name":"Tocantins","country_id":31,"country_code":"BR","country_name":"Brazil","latitude":"-9.84999000","longitude":"-48.83437000","wikiDataId":"Q2155729"},{"id":10636,"Name":"Bernardo Sayão","state_id":2020,"state_code":"TO","state_name":"Tocantins","country_id":31,"country_code":"BR","country_name":"Brazil","latitude":"-7.97377000","longitude":"-48.98609000","wikiDataId":"Q920204"},{"id":10715,"Name":"Bom Jesus do Tocantins","state_id":2020,"state_code":"TO","state_name":"Tocantins","country_id":31,"country_code":"BR","country_name":"Brazil","latitude":"-9.01838000","longitude":"-47.86969000","wikiDataId":"Q1807022"},{"id":10773,"Name":"Brasilândia do Tocantins","state_id":2020,"state_code":"TO","state_name":"Tocantins","country_id":31,"country_code":"BR","country_name":"Brazil","latitude":"-8.26045000","longitude":"-48.43450000","wikiDataId":"Q2329749"},{"id":10787,"Name":"Brejinho de Nazaré","state_id":2020,"state_code":"TO","state_name":"Tocantins","country_id":31,"country_code":"BR","country_name":"Brazil","latitude":"-11.01872000","longitude":"-48.64695000","wikiDataId":"Q682185"},{"id":10827,"Name":"Buriti do Tocantins","state_id":2020,"state_code":"TO","state_name":"Tocantins","country_id":31,"country_code":"BR","country_name":"Brazil","latitude":"-5.37057000","longitude":"-48.13476000","wikiDataId":"Q2013234"},{"id":10878,"Name":"Cachoeirinha","state_id":2020,"state_code":"TO","state_name":"Tocantins","country_id":31,"country_code":"BR","country_name":"Brazil","latitude":"-6.09807000","longitude":"-47.87888000","wikiDataId":"Q957697"},{"id":11012,"Name":"Campos Lindos","state_id":2020,"state_code":"TO","state_name":"Tocantins","country_id":31,"country_code":"BR","country_name":"Brazil","latitude":"-8.22553000","longitude":"-46.84507000","wikiDataId":"Q1791960"},{"id":11133,"Name":"Cariri do Tocantins","state_id":2020,"state_code":"TO","state_name":"Tocantins","country_id":31,"country_code":"BR","country_name":"Brazil","latitude":"-11.94500000","longitude":"-49.20796000","wikiDataId":"Q2013076"},{"id":11150,"Name":"Carmolândia","state_id":2020,"state_code":"TO","state_name":"Tocantins","country_id":31,"country_code":"BR","country_name":"Brazil","latitude":"-7.03001000","longitude":"-48.35627000","wikiDataId":"Q1805778"},{"id":11165,"Name":"Carrasco Bonito","state_id":2020,"state_code":"TO","state_name":"Tocantins","country_id":31,"country_code":"BR","country_name":"Brazil","latitude":"-5.31027000","longitude":"-48.03360000","wikiDataId":"Q749757"},{"id":11178,"Name":"Caseara","state_id":2020,"state_code":"TO","state_name":"Tocantins","country_id":31,"country_code":"BR","country_name":"Brazil","latitude":"-9.45982000","longitude":"-49.83604000","wikiDataId":"Q787864"},{"id":11235,"Name":"Centenário","state_id":2020,"state_code":"TO","state_name":"Tocantins","country_id":31,"country_code":"BR","country_name":"Brazil","latitude":"-9.15331000","longitude":"-47.44772000","wikiDataId":"Q1750758"},{"id":11261,"Name":"Chapada da Natividade","state_id":2020,"state_code":"TO","state_name":"Tocantins","country_id":31,"country_code":"BR","country_name":"Brazil","latitude":"-11.54159000","longitude":"-47.88094000","wikiDataId":"Q1758303"},{"id":11262,"Name":"Chapada de Areia","state_id":2020,"state_code":"TO","state_name":"Tocantins","country_id":31,"country_code":"BR","country_name":"Brazil","latitude":"-10.14838000","longitude":"-49.19998000","wikiDataId":"Q1758303"},{"id":11325,"Name":"Colinas do Tocantins","state_id":2020,"state_code":"TO","state_name":"Tocantins","country_id":31,"country_code":"BR","country_name":"Brazil","latitude":"-8.09451000","longitude":"-48.52143000","wikiDataId":"Q1759203"},{"id":11326,"Name":"Colméia","state_id":2020,"state_code":"TO","state_name":"Tocantins","country_id":31,"country_code":"BR","country_name":"Brazil","latitude":"-8.87655000","longitude":"-48.75788000","wikiDataId":"Q1759203"},{"id":11339,"Name":"Combinado","state_id":2020,"state_code":"TO","state_name":"Tocantins","country_id":31,"country_code":"BR","country_name":"Brazil","latitude":"-12.82321000","longitude":"-46.53424000","wikiDataId":"Q2066010"},{"id":11363,"Name":"Conceição do Tocantins","state_id":2020,"state_code":"TO","state_name":"Tocantins","country_id":31,"country_code":"BR","country_name":"Brazil","latitude":"-12.09878000","longitude":"-47.27047000","wikiDataId":"Q1756600"},{"id":11455,"Name":"Couto Magalhães","state_id":2020,"state_code":"TO","state_name":"Tocantins","country_id":31,"country_code":"BR","country_name":"Brazil","latitude":"-8.50138000","longitude":"-49.17287000","wikiDataId":"Q2013031"},{"id":11472,"Name":"Cristalândia","state_id":2020,"state_code":"TO","state_name":"Tocantins","country_id":31,"country_code":"BR","country_name":"Brazil","latitude":"-10.62568000","longitude":"-49.36863000","wikiDataId":"Q1012541"},{"id":11484,"Name":"Crixás do Tocantins","state_id":2020,"state_code":"TO","state_name":"Tocantins","country_id":31,"country_code":"BR","country_name":"Brazil","latitude":"-11.16426000","longitude":"-49.07254000","wikiDataId":"Q177030"},{"id":11562,"Name":"Darcinópolis","state_id":2020,"state_code":"TO","state_name":"Tocantins","country_id":31,"country_code":"BR","country_name":"Brazil","latitude":"-6.76072000","longitude":"-47.75687000","wikiDataId":"Q663661"},{"id":11590,"Name":"Dianópolis","state_id":2020,"state_code":"TO","state_name":"Tocantins","country_id":31,"country_code":"BR","country_name":"Brazil","latitude":"-11.69578000","longitude":"-46.73544000","wikiDataId":"Q1259020"},{"id":11608,"Name":"Divinópolis do Tocantins","state_id":2020,"state_code":"TO","state_name":"Tocantins","country_id":31,"country_code":"BR","country_name":"Brazil","latitude":"-9.65731000","longitude":"-49.38737000","wikiDataId":"Q926606"},{"id":11617,"Name":"Dois Irmãos do Tocantins","state_id":2020,"state_code":"TO","state_name":"Tocantins","country_id":31,"country_code":"BR","country_name":"Brazil","latitude":"-9.29074000","longitude":"-49.15573000","wikiDataId":"Q685613"},{"id":11666,"Name":"Dueré","state_id":2020,"state_code":"TO","state_name":"Tocantins","country_id":31,"country_code":"BR","country_name":"Brazil","latitude":"-11.35537000","longitude":"-49.46137000","wikiDataId":"Q303413"},{"id":11728,"Name":"Esperantina","state_id":2020,"state_code":"TO","state_name":"Tocantins","country_id":31,"country_code":"BR","country_name":"Brazil","latitude":"-5.30432000","longitude":"-48.54762000","wikiDataId":"Q977277"},{"id":11906,"Name":"Fátima","state_id":2020,"state_code":"TO","state_name":"Tocantins","country_id":31,"country_code":"BR","country_name":"Brazil","latitude":"-10.81953000","longitude":"-48.86757000","wikiDataId":"Q593133"},{"id":11818,"Name":"Figueirópolis","state_id":2020,"state_code":"TO","state_name":"Tocantins","country_id":31,"country_code":"BR","country_name":"Brazil","latitude":"-12.26857000","longitude":"-49.28976000","wikiDataId":"Q2029914"},{"id":11820,"Name":"Filadélfia","state_id":2020,"state_code":"TO","state_name":"Tocantins","country_id":31,"country_code":"BR","country_name":"Brazil","latitude":"-7.48804000","longitude":"-47.85623000","wikiDataId":"Q2013037"},{"id":11859,"Name":"Formoso do Araguaia","state_id":2020,"state_code":"TO","state_name":"Tocantins","country_id":31,"country_code":"BR","country_name":"Brazil","latitude":"-11.95898000","longitude":"-50.09809000","wikiDataId":"Q1762128"},{"id":11865,"Name":"Fortaleza do Tabocão","state_id":2020,"state_code":"TO","state_name":"Tocantins","country_id":31,"country_code":"BR","country_name":"Brazil","latitude":"-9.08805000","longitude":"-48.55638000","wikiDataId":"Q43463"},{"id":11961,"Name":"Goianorte","state_id":2020,"state_code":"TO","state_name":"Tocantins","country_id":31,"country_code":"BR","country_name":"Brazil","latitude":"-8.83664000","longitude":"-48.99356000","wikiDataId":"Q281011"},{"id":11966,"Name":"Goiatins","state_id":2020,"state_code":"TO","state_name":"Tocantins","country_id":31,"country_code":"BR","country_name":"Brazil","latitude":"-8.04432000","longitude":"-47.47183000","wikiDataId":"Q988771"},{"id":12061,"Name":"Guaraí","state_id":2020,"state_code":"TO","state_name":"Tocantins","country_id":31,"country_code":"BR","country_name":"Brazil","latitude":"-8.70233000","longitude":"-48.40251000","wikiDataId":"Q1779983"},{"id":12088,"Name":"Gurupi","state_id":2020,"state_code":"TO","state_name":"Tocantins","country_id":31,"country_code":"BR","country_name":"Brazil","latitude":"-11.72917000","longitude":"-49.06861000","wikiDataId":"Q1784265"},{"id":12294,"Name":"Ipueiras","state_id":2020,"state_code":"TO","state_name":"Tocantins","country_id":31,"country_code":"BR","country_name":"Brazil","latitude":"-11.15847000","longitude":"-48.37886000","wikiDataId":"Q946408"},{"id":12338,"Name":"Itacajá","state_id":2020,"state_code":"TO","state_name":"Tocantins","country_id":31,"country_code":"BR","country_name":"Brazil","latitude":"-8.55538000","longitude":"-47.62201000","wikiDataId":"Q460750"},{"id":12354,"Name":"Itaguatins","state_id":2020,"state_code":"TO","state_name":"Tocantins","country_id":31,"country_code":"BR","country_name":"Brazil","latitude":"-5.81408000","longitude":"-47.65425000","wikiDataId":"Q782196"},{"id":12425,"Name":"Itapiratins","state_id":2020,"state_code":"TO","state_name":"Tocantins","country_id":31,"country_code":"BR","country_name":"Brazil","latitude":"-8.35820000","longitude":"-47.99703000","wikiDataId":"Q988783"},{"id":12434,"Name":"Itaporã do Tocantins","state_id":2020,"state_code":"TO","state_name":"Tocantins","country_id":31,"country_code":"BR","country_name":"Brazil","latitude":"-8.50178000","longitude":"-48.75214000","wikiDataId":"Q2079014"},{"id":12610,"Name":"Jaú do Tocantins","state_id":2020,"state_code":"TO","state_name":"Tocantins","country_id":31,"country_code":"BR","country_name":"Brazil","latitude":"-12.83943000","longitude":"-48.63203000","wikiDataId":"Q1759235"},{"id":12670,"Name":"Juarina","state_id":2020,"state_code":"TO","state_name":"Tocantins","country_id":31,"country_code":"BR","country_name":"Brazil","latitude":"-8.10180000","longitude":"-49.07995000","wikiDataId":"Q675677"},{"id":12750,"Name":"Lagoa da Confusão","state_id":2020,"state_code":"TO","state_name":"Tocantins","country_id":31,"country_code":"BR","country_name":"Brazil","latitude":"-10.99307000","longitude":"-49.93702000","wikiDataId":"Q1801577"},{"id":12764,"Name":"Lagoa do Tocantins","state_id":2020,"state_code":"TO","state_name":"Tocantins","country_id":31,"country_code":"BR","country_name":"Brazil","latitude":"-10.33721000","longitude":"-47.48133000","wikiDataId":"Q1887813"},{"id":12776,"Name":"Lajeado","state_id":2020,"state_code":"TO","state_name":"Tocantins","country_id":31,"country_code":"BR","country_name":"Brazil","latitude":"-9.86927000","longitude":"-48.28058000","wikiDataId":"Q1012550"},{"id":12807,"Name":"Lavandeira","state_id":2020,"state_code":"TO","state_name":"Tocantins","country_id":31,"country_code":"BR","country_name":"Brazil","latitude":"-12.83658000","longitude":"-46.39307000","wikiDataId":"Q1801192"},{"id":12845,"Name":"Lizarda","state_id":2020,"state_code":"TO","state_name":"Tocantins","country_id":31,"country_code":"BR","country_name":"Brazil","latitude":"-9.52341000","longitude":"-46.97679000","wikiDataId":"Q22040445"},{"id":12876,"Name":"Luzinópolis","state_id":2020,"state_code":"TO","state_name":"Tocantins","country_id":31,"country_code":"BR","country_name":"Brazil","latitude":"-6.20636000","longitude":"-47.83045000","wikiDataId":"Q1924294"},{"id":13010,"Name":"Marianópolis do Tocantins","state_id":2020,"state_code":"TO","state_name":"Tocantins","country_id":31,"country_code":"BR","country_name":"Brazil","latitude":"-9.81443000","longitude":"-49.71607000","wikiDataId":"Q984567"},{"id":13051,"Name":"Mateiros","state_id":2020,"state_code":"TO","state_name":"Tocantins","country_id":31,"country_code":"BR","country_name":"Brazil","latitude":"-10.41802000","longitude":"-46.48380000","wikiDataId":"Q648152"},{"id":13081,"Name":"Maurilândia do Tocantins","state_id":2020,"state_code":"TO","state_name":"Tocantins","country_id":31,"country_code":"BR","country_name":"Brazil","latitude":"-5.98609000","longitude":"-47.57986000","wikiDataId":"Q1649629"},{"id":13133,"Name":"Miracema do Tocantins","state_id":2020,"state_code":"TO","state_name":"Tocantins","country_id":31,"country_code":"BR","country_name":"Brazil","latitude":"-9.76855000","longitude":"-48.58348000","wikiDataId":"Q1804056"},{"id":13144,"Name":"Miranorte","state_id":2020,"state_code":"TO","state_name":"Tocantins","country_id":31,"country_code":"BR","country_name":"Brazil","latitude":"-9.39114000","longitude":"-48.66598000","wikiDataId":"Q1645072"},{"id":13214,"Name":"Monte do Carmo","state_id":2020,"state_code":"TO","state_name":"Tocantins","country_id":31,"country_code":"BR","country_name":"Brazil","latitude":"-10.72034000","longitude":"-48.01807000","wikiDataId":"Q1802831"},{"id":13210,"Name":"Monte Santo do Tocantins","state_id":2020,"state_code":"TO","state_name":"Tocantins","country_id":31,"country_code":"BR","country_name":"Brazil","latitude":"-10.00972000","longitude":"-49.12747000","wikiDataId":"Q1789740"},{"id":13282,"Name":"Muricilândia","state_id":2020,"state_code":"TO","state_name":"Tocantins","country_id":31,"country_code":"BR","country_name":"Brazil","latitude":"-6.98598000","longitude":"-48.79167000","wikiDataId":"Q1795628"},{"id":13302,"Name":"Natividade","state_id":2020,"state_code":"TO","state_name":"Tocantins","country_id":31,"country_code":"BR","country_name":"Brazil","latitude":"-11.75889000","longitude":"-47.64485000","wikiDataId":"Q1801567"},{"id":13310,"Name":"Nazaré","state_id":2020,"state_code":"TO","state_name":"Tocantins","country_id":31,"country_code":"BR","country_name":"Brazil","latitude":"-6.31311000","longitude":"-47.78944000","wikiDataId":"Q2007785"},{"id":13409,"Name":"Nova Olinda","state_id":2020,"state_code":"TO","state_name":"Tocantins","country_id":31,"country_code":"BR","country_name":"Brazil","latitude":"-7.68973000","longitude":"-48.28152000","wikiDataId":"Q1648345"},{"id":13429,"Name":"Nova Rosalândia","state_id":2020,"state_code":"TO","state_name":"Tocantins","country_id":31,"country_code":"BR","country_name":"Brazil","latitude":"-10.56285000","longitude":"-48.97053000","wikiDataId":"Q1758146"},{"id":13450,"Name":"Novo Acordo","state_id":2020,"state_code":"TO","state_name":"Tocantins","country_id":31,"country_code":"BR","country_name":"Brazil","latitude":"-10.15197000","longitude":"-47.47165000","wikiDataId":"Q1794050"},{"id":13452,"Name":"Novo Alegre","state_id":2020,"state_code":"TO","state_name":"Tocantins","country_id":31,"country_code":"BR","country_name":"Brazil","latitude":"-12.87311000","longitude":"-46.56936000","wikiDataId":"Q1750332"},{"id":13467,"Name":"Novo Jardim","state_id":2020,"state_code":"TO","state_name":"Tocantins","country_id":31,"country_code":"BR","country_name":"Brazil","latitude":"-11.75148000","longitude":"-46.54138000","wikiDataId":"Q1815907"},{"id":13508,"Name":"Oliveira de Fátima","state_id":2020,"state_code":"TO","state_name":"Tocantins","country_id":31,"country_code":"BR","country_name":"Brazil","latitude":"-10.67053000","longitude":"-48.90783000","wikiDataId":"Q1754812"},{"id":13587,"Name":"Palmas","state_id":2020,"state_code":"TO","state_name":"Tocantins","country_id":31,"country_code":"BR","country_name":"Brazil","latitude":"-10.16745000","longitude":"-48.32766000","wikiDataId":"Q178993"},{"id":13596,"Name":"Palmeirante","state_id":2020,"state_code":"TO","state_name":"Tocantins","country_id":31,"country_code":"BR","country_name":"Brazil","latitude":"-7.86937000","longitude":"-48.17585000","wikiDataId":"Q2064013"},{"id":13599,"Name":"Palmeiras do Tocantins","state_id":2020,"state_code":"TO","state_name":"Tocantins","country_id":31,"country_code":"BR","country_name":"Brazil","latitude":"-6.61304000","longitude":"-47.66259000","wikiDataId":"Q1801156"},{"id":13602,"Name":"Palmeirópolis","state_id":2020,"state_code":"TO","state_name":"Tocantins","country_id":31,"country_code":"BR","country_name":"Brazil","latitude":"-13.06026000","longitude":"-48.38866000","wikiDataId":"Q1801156"},{"id":13664,"Name":"Paraíso do Tocantins","state_id":2020,"state_code":"TO","state_name":"Tocantins","country_id":31,"country_code":"BR","country_name":"Brazil","latitude":"-10.23212000","longitude":"-48.88032000","wikiDataId":"Q972360"},{"id":13649,"Name":"Paranã","state_id":2020,"state_code":"TO","state_name":"Tocantins","country_id":31,"country_code":"BR","country_name":"Brazil","latitude":"-12.73875000","longitude":"-47.94338000","wikiDataId":"Q522494"},{"id":13716,"Name":"Pau d'Arco","state_id":2020,"state_code":"TO","state_name":"Tocantins","country_id":31,"country_code":"BR","country_name":"Brazil","latitude":"-7.55877000","longitude":"-48.93697000","wikiDataId":"Q1933647"},{"id":13772,"Name":"Pedro Afonso","state_id":2020,"state_code":"TO","state_name":"Tocantins","country_id":31,"country_code":"BR","country_name":"Brazil","latitude":"-9.20623000","longitude":"-47.97805000","wikiDataId":"Q1957216"},{"id":13787,"Name":"Peixe","state_id":2020,"state_code":"TO","state_name":"Tocantins","country_id":31,"country_code":"BR","country_name":"Brazil","latitude":"-11.99612000","longitude":"-48.53284000","wikiDataId":"Q1786891"},{"id":13801,"Name":"Pequizeiro","state_id":2020,"state_code":"TO","state_name":"Tocantins","country_id":31,"country_code":"BR","country_name":"Brazil","latitude":"-8.40977000","longitude":"-48.94148000","wikiDataId":"Q1813066"},{"id":13855,"Name":"Pindorama do Tocantins","state_id":2020,"state_code":"TO","state_name":"Tocantins","country_id":31,"country_code":"BR","country_name":"Brazil","latitude":"-11.13233000","longitude":"-47.56170000","wikiDataId":"Q1648152"},{"id":13905,"Name":"Piraquê","state_id":2020,"state_code":"TO","state_name":"Tocantins","country_id":31,"country_code":"BR","country_name":"Brazil","latitude":"-6.68862000","longitude":"-48.23711000","wikiDataId":"Q2004395"},{"id":13926,"Name":"Pium","state_id":2020,"state_code":"TO","state_name":"Tocantins","country_id":31,"country_code":"BR","country_name":"Brazil","latitude":"-10.07399000","longitude":"-49.69857000","wikiDataId":"Q2008741"},{"id":13966,"Name":"Ponte Alta do Bom Jesus","state_id":2020,"state_code":"TO","state_name":"Tocantins","country_id":31,"country_code":"BR","country_name":"Brazil","latitude":"-12.09696000","longitude":"-46.62629000","wikiDataId":"Q509804"},{"id":13968,"Name":"Ponte Alta do Tocantins","state_id":2020,"state_code":"TO","state_name":"Tocantins","country_id":31,"country_code":"BR","country_name":"Brazil","latitude":"-10.78604000","longitude":"-47.18130000","wikiDataId":"Q509804"},{"id":13997,"Name":"Porto Alegre do Tocantins","state_id":2020,"state_code":"TO","state_name":"Tocantins","country_id":31,"country_code":"BR","country_name":"Brazil","latitude":"-11.53239000","longitude":"-47.03453000","wikiDataId":"Q40269"},{"id":14012,"Name":"Porto Nacional","state_id":2020,"state_code":"TO","state_name":"Tocantins","country_id":31,"country_code":"BR","country_name":"Brazil","latitude":"-10.52826000","longitude":"-48.47443000","wikiDataId":"Q1792999"},{"id":14065,"Name":"Praia Norte","state_id":2020,"state_code":"TO","state_name":"Tocantins","country_id":31,"country_code":"BR","country_name":"Brazil","latitude":"-5.46958000","longitude":"-47.79732000","wikiDataId":"Q851292"},{"id":14088,"Name":"Presidente Kennedy","state_id":2020,"state_code":"TO","state_name":"Tocantins","country_id":31,"country_code":"BR","country_name":"Brazil","latitude":"-8.48264000","longitude":"-48.44075000","wikiDataId":"Q948550"},{"id":14115,"Name":"Pugmil","state_id":2020,"state_code":"TO","state_name":"Tocantins","country_id":31,"country_code":"BR","country_name":"Brazil","latitude":"-10.42875000","longitude":"-48.85558000","wikiDataId":"Q751491"},{"id":14181,"Name":"Recursolândia","state_id":2020,"state_code":"TO","state_name":"Tocantins","country_id":31,"country_code":"BR","country_name":"Brazil","latitude":"-8.66852000","longitude":"-47.07333000","wikiDataId":"Q614267"},{"id":14208,"Name":"Riachinho","state_id":2020,"state_code":"TO","state_name":"Tocantins","country_id":31,"country_code":"BR","country_name":"Brazil","latitude":"-6.46034000","longitude":"-48.13618000","wikiDataId":"Q2197944"},{"id":14303,"Name":"Rio da Conceição","state_id":2020,"state_code":"TO","state_name":"Tocantins","country_id":31,"country_code":"BR","country_name":"Brazil","latitude":"-11.36815000","longitude":"-46.77445000","wikiDataId":"Q1801085"},{"id":14317,"Name":"Rio dos Bois","state_id":2020,"state_code":"TO","state_name":"Tocantins","country_id":31,"country_code":"BR","country_name":"Brazil","latitude":"-9.20901000","longitude":"-48.44308000","wikiDataId":"Q1784001"},{"id":14297,"Name":"Rio Sono","state_id":2020,"state_code":"TO","state_name":"Tocantins","country_id":31,"country_code":"BR","country_name":"Brazil","latitude":"-9.64479000","longitude":"-47.38387000","wikiDataId":"Q965807"},{"id":14409,"Name":"Sampaio","state_id":2020,"state_code":"TO","state_name":"Tocantins","country_id":31,"country_code":"BR","country_name":"Brazil","latitude":"-5.36587000","longitude":"-47.91898000","wikiDataId":"Q36947"},{"id":14412,"Name":"Sandolândia","state_id":2020,"state_code":"TO","state_name":"Tocantins","country_id":31,"country_code":"BR","country_name":"Brazil","latitude":"-12.40743000","longitude":"-49.85491000","wikiDataId":"Q1110228"},{"id":14467,"Name":"Santa Fé do Araguaia","state_id":2020,"state_code":"TO","state_name":"Tocantins","country_id":31,"country_code":"BR","country_name":"Brazil","latitude":"-7.10746000","longitude":"-48.95580000","wikiDataId":"Q1755784"},{"id":14517,"Name":"Santa Maria do Tocantins","state_id":2020,"state_code":"TO","state_name":"Tocantins","country_id":31,"country_code":"BR","country_name":"Brazil","latitude":"-8.81566000","longitude":"-47.85337000","wikiDataId":"Q385048"},{"id":14538,"Name":"Santa Rita do Tocantins","state_id":2020,"state_code":"TO","state_name":"Tocantins","country_id":31,"country_code":"BR","country_name":"Brazil","latitude":"-10.97360000","longitude":"-49.37112000","wikiDataId":"Q1650861"},{"id":14549,"Name":"Santa Rosa do Tocantins","state_id":2020,"state_code":"TO","state_name":"Tocantins","country_id":31,"country_code":"BR","country_name":"Brazil","latitude":"-11.38278000","longitude":"-48.07295000","wikiDataId":"Q1097771"},{"id":14556,"Name":"Santa Tereza do Tocantins","state_id":2020,"state_code":"TO","state_name":"Tocantins","country_id":31,"country_code":"BR","country_name":"Brazil","latitude":"-10.29980000","longitude":"-47.72597000","wikiDataId":"Q1757691"},{"id":14564,"Name":"Santa Terezinha do Tocantins","state_id":2020,"state_code":"TO","state_name":"Tocantins","country_id":31,"country_code":"BR","country_name":"Brazil","latitude":"-6.48040000","longitude":"-47.70055000","wikiDataId":"Q1802908"},{"id":14841,"Name":"São Bento do Tocantins","state_id":2020,"state_code":"TO","state_name":"Tocantins","country_id":31,"country_code":"BR","country_name":"Brazil","latitude":"-5.95028000","longitude":"-47.99630000","wikiDataId":"Q1801161"},{"id":14905,"Name":"São Félix do Tocantins","state_id":2020,"state_code":"TO","state_name":"Tocantins","country_id":31,"country_code":"BR","country_name":"Brazil","latitude":"-10.06488000","longitude":"-46.72778000","wikiDataId":"Q1788630"},{"id":15096,"Name":"São Miguel do Tocantins","state_id":2020,"state_code":"TO","state_name":"Tocantins","country_id":31,"country_code":"BR","country_name":"Brazil","latitude":"-5.53458000","longitude":"-47.60820000","wikiDataId":"Q2078456"},{"id":15134,"Name":"São Salvador do Tocantins","state_id":2020,"state_code":"TO","state_name":"Tocantins","country_id":31,"country_code":"BR","country_name":"Brazil","latitude":"-12.54945000","longitude":"-48.40184000","wikiDataId":"Q1755169"},{"id":15152,"Name":"São Sebastião do Tocantins","state_id":2020,"state_code":"TO","state_name":"Tocantins","country_id":31,"country_code":"BR","country_name":"Brazil","latitude":"-5.25181000","longitude":"-48.34602000","wikiDataId":"Q1787301"},{"id":15165,"Name":"São Valério","state_id":2020,"state_code":"TO","state_name":"Tocantins","country_id":31,"country_code":"BR","country_name":"Brazil","latitude":"-11.86029000","longitude":"-48.13995000","wikiDataId":"Q1803245"},{"id":14776,"Name":"Silvanópolis","state_id":2020,"state_code":"TO","state_name":"Tocantins","country_id":31,"country_code":"BR","country_name":"Brazil","latitude":"-11.11343000","longitude":"-48.22341000","wikiDataId":"Q927311"},{"id":15178,"Name":"Sítio Novo do Tocantins","state_id":2020,"state_code":"TO","state_name":"Tocantins","country_id":31,"country_code":"BR","country_name":"Brazil","latitude":"-5.62990000","longitude":"-47.68644000","wikiDataId":"Q272254"},{"id":14817,"Name":"Sucupira","state_id":2020,"state_code":"TO","state_name":"Tocantins","country_id":31,"country_code":"BR","country_name":"Brazil","latitude":"-12.01900000","longitude":"-48.84477000","wikiDataId":"Q2011653"},{"id":15198,"Name":"Taguatinga","state_id":2020,"state_code":"TO","state_name":"Tocantins","country_id":31,"country_code":"BR","country_name":"Brazil","latitude":"-12.38568000","longitude":"-46.57110000","wikiDataId":"Q22060005"},{"id":15203,"Name":"Taipas do Tocantins","state_id":2020,"state_code":"TO","state_name":"Tocantins","country_id":31,"country_code":"BR","country_name":"Brazil","latitude":"-12.15677000","longitude":"-47.03342000","wikiDataId":"Q1787178"},{"id":15207,"Name":"Talismã","state_id":2020,"state_code":"TO","state_name":"Tocantins","country_id":31,"country_code":"BR","country_name":"Brazil","latitude":"-12.67795000","longitude":"-49.07863000","wikiDataId":"Q1760091"},{"id":15327,"Name":"Tocantínia","state_id":2020,"state_code":"TO","state_name":"Tocantins","country_id":31,"country_code":"BR","country_name":"Brazil","latitude":"-9.56440000","longitude":"-48.18709000","wikiDataId":"Q22065025"},{"id":15326,"Name":"Tocantinópolis","state_id":2020,"state_code":"TO","state_name":"Tocantins","country_id":31,"country_code":"BR","country_name":"Brazil","latitude":"-6.26254000","longitude":"-47.55767000","wikiDataId":"Q22065025"},{"id":15406,"Name":"Tupirama","state_id":2020,"state_code":"TO","state_name":"Tocantins","country_id":31,"country_code":"BR","country_name":"Brazil","latitude":"-8.91920000","longitude":"-48.27661000","wikiDataId":"Q1760131"},{"id":15407,"Name":"Tupiratins","state_id":2020,"state_code":"TO","state_name":"Tocantins","country_id":31,"country_code":"BR","country_name":"Brazil","latitude":"-8.38578000","longitude":"-48.22299000","wikiDataId":"Q1760131"},{"id":15627,"Name":"Wanderlândia","state_id":2020,"state_code":"TO","state_name":"Tocantins","country_id":31,"country_code":"BR","country_name":"Brazil","latitude":"-6.79803000","longitude":"-48.00415000","wikiDataId":"Q22062838"},{"id":15633,"Name":"Xambioá","state_id":2020,"state_code":"TO","state_name":"Tocantins","country_id":31,"country_code":"BR","country_name":"Brazil","latitude":"-6.59413000","longitude":"-48.43142000","wikiDataId":"Q961485"}]