[{"id":129896,"Name":"Angren","state_id":2549,"state_code":"TO","state_name":"Tashkent Region","country_id":236,"country_code":"UZ","country_name":"Uzbekistan","latitude":"41.01667000","longitude":"70.14361000","wikiDataId":"Q542966"},{"id":129900,"Name":"Bekobod","state_id":2549,"state_code":"TO","state_name":"Tashkent Region","country_id":236,"country_code":"UZ","country_name":"Uzbekistan","latitude":"40.22083000","longitude":"69.26972000","wikiDataId":"Q815053"},{"id":129907,"Name":"Bo‘ka","state_id":2549,"state_code":"TO","state_name":"Tashkent Region","country_id":236,"country_code":"UZ","country_name":"Uzbekistan","latitude":"40.81108000","longitude":"69.19417000","wikiDataId":"Q31887573"},{"id":129914,"Name":"Chinoz","state_id":2549,"state_code":"TO","state_name":"Tashkent Region","country_id":236,"country_code":"UZ","country_name":"Uzbekistan","latitude":"40.93633000","longitude":"68.76128000","wikiDataId":"Q770553"},{"id":129915,"Name":"Chirchiq","state_id":2549,"state_code":"TO","state_name":"Tashkent Region","country_id":236,"country_code":"UZ","country_name":"Uzbekistan","latitude":"41.46889000","longitude":"69.58222000","wikiDataId":"Q913406"},{"id":129930,"Name":"G‘azalkent","state_id":2549,"state_code":"TO","state_name":"Tashkent Region","country_id":236,"country_code":"UZ","country_name":"Uzbekistan","latitude":"41.55806000","longitude":"69.77083000","wikiDataId":"Q31919018"},{"id":129936,"Name":"Iskandar","state_id":2549,"state_code":"TO","state_name":"Tashkent Region","country_id":236,"country_code":"UZ","country_name":"Uzbekistan","latitude":"41.55389000","longitude":"69.70083000","wikiDataId":"Q31923275"},{"id":129953,"Name":"Kyzyldzhar","state_id":2549,"state_code":"TO","state_name":"Tashkent Region","country_id":236,"country_code":"UZ","country_name":"Uzbekistan","latitude":"41.56667000","longitude":"70.01667000","wikiDataId":"Q31937440"},{"id":129966,"Name":"Ohangaron","state_id":2549,"state_code":"TO","state_name":"Tashkent Region","country_id":236,"country_code":"UZ","country_name":"Uzbekistan","latitude":"40.90639000","longitude":"69.63833000","wikiDataId":"Q31979770"},{"id":129967,"Name":"Olmaliq","state_id":2549,"state_code":"TO","state_name":"Tashkent Region","country_id":236,"country_code":"UZ","country_name":"Uzbekistan","latitude":"40.84472000","longitude":"69.59833000","wikiDataId":"Q986429"},{"id":129974,"Name":"Parkent","state_id":2549,"state_code":"TO","state_name":"Tashkent Region","country_id":236,"country_code":"UZ","country_name":"Uzbekistan","latitude":"41.29444000","longitude":"69.67639000","wikiDataId":"Q771447"},{"id":129979,"Name":"Piskent","state_id":2549,"state_code":"TO","state_name":"Tashkent Region","country_id":236,"country_code":"UZ","country_name":"Uzbekistan","latitude":"40.89722000","longitude":"69.35056000","wikiDataId":"Q769846"},{"id":129982,"Name":"Qibray","state_id":2549,"state_code":"TO","state_name":"Tashkent Region","country_id":236,"country_code":"UZ","country_name":"Uzbekistan","latitude":"41.38972000","longitude":"69.46500000","wikiDataId":"Q32004143"},{"id":129994,"Name":"Salor","state_id":2549,"state_code":"TO","state_name":"Tashkent Region","country_id":236,"country_code":"UZ","country_name":"Uzbekistan","latitude":"41.37222000","longitude":"69.38167000","wikiDataId":"Q32014979"},{"id":130010,"Name":"Tŭytepa","state_id":2549,"state_code":"TO","state_name":"Tashkent Region","country_id":236,"country_code":"UZ","country_name":"Uzbekistan","latitude":"41.03210000","longitude":"69.36253000","wikiDataId":"Q891949"},{"id":130028,"Name":"Ŭrtaowul","state_id":2549,"state_code":"TO","state_name":"Tashkent Region","country_id":236,"country_code":"UZ","country_name":"Uzbekistan","latitude":"41.18667000","longitude":"69.14528000","wikiDataId":"Q32059593"},{"id":130020,"Name":"Yangiobod","state_id":2549,"state_code":"TO","state_name":"Tashkent Region","country_id":236,"country_code":"UZ","country_name":"Uzbekistan","latitude":"41.11919000","longitude":"70.09406000","wikiDataId":"Q2639854"},{"id":130024,"Name":"Yangiyŭl","state_id":2549,"state_code":"TO","state_name":"Tashkent Region","country_id":236,"country_code":"UZ","country_name":"Uzbekistan","latitude":"41.11202000","longitude":"69.04710000","wikiDataId":"Q384774"},{"id":130026,"Name":"Zafar","state_id":2549,"state_code":"TO","state_name":"Tashkent Region","country_id":236,"country_code":"UZ","country_name":"Uzbekistan","latitude":"40.98333000","longitude":"68.90000000","wikiDataId":"Q32058669"}]