[{"id":163,"Name":"Bashkia Kavajë","state_id":633,"state_code":"TR","state_name":"Tirana District","country_id":3,"country_code":"AL","country_name":"Albania","latitude":"41.18127000","longitude":"19.55579000","wikiDataId":"Q16350064"},{"id":190,"Name":"Bashkia Vorë","state_id":633,"state_code":"TR","state_name":"Tirana District","country_id":3,"country_code":"AL","country_name":"Albania","latitude":"41.39804000","longitude":"19.67703000","wikiDataId":"Q16350064"},{"id":207,"Name":"Kamëz","state_id":633,"state_code":"TR","state_name":"Tirana District","country_id":3,"country_code":"AL","country_name":"Albania","latitude":"41.38167000","longitude":"19.76028000","wikiDataId":"Q605160"},{"id":208,"Name":"Kavajë","state_id":633,"state_code":"TR","state_name":"Tirana District","country_id":3,"country_code":"AL","country_name":"Albania","latitude":"41.18556000","longitude":"19.55694000","wikiDataId":"Q46702"},{"id":213,"Name":"Krrabë","state_id":633,"state_code":"TR","state_name":"Tirana District","country_id":3,"country_code":"AL","country_name":"Albania","latitude":"41.21556000","longitude":"19.97139000","wikiDataId":"Q22009668"},{"id":248,"Name":"Rrethi i Kavajës","state_id":633,"state_code":"TR","state_name":"Tirana District","country_id":3,"country_code":"AL","country_name":"Albania","latitude":"41.16667000","longitude":"19.58333000","wikiDataId":"Q194182"},{"id":259,"Name":"Rrethi i Tiranës","state_id":633,"state_code":"TR","state_name":"Tirana District","country_id":3,"country_code":"AL","country_name":"Albania","latitude":"41.33333000","longitude":"19.91667000","wikiDataId":"Q201073"},{"id":260,"Name":"Rrogozhinë","state_id":633,"state_code":"TR","state_name":"Tirana District","country_id":3,"country_code":"AL","country_name":"Albania","latitude":"41.07639000","longitude":"19.66528000","wikiDataId":"Q22008389"},{"id":268,"Name":"Sinaballaj","state_id":633,"state_code":"TR","state_name":"Tirana District","country_id":3,"country_code":"AL","country_name":"Albania","latitude":"41.06889000","longitude":"19.69944000","wikiDataId":"Q602969"},{"id":271,"Name":"Tirana","state_id":633,"state_code":"TR","state_name":"Tirana District","country_id":3,"country_code":"AL","country_name":"Albania","latitude":"41.32750000","longitude":"19.81889000","wikiDataId":"Q19689"},{"id":277,"Name":"Vorë","state_id":633,"state_code":"TR","state_name":"Tirana District","country_id":3,"country_code":"AL","country_name":"Albania","latitude":"41.39083000","longitude":"19.65500000","wikiDataId":"Q22007611"}]