[{"id":130643,"Name":"Afega","state_id":4770,"state_code":"TU","state_name":"Tuamasaga","country_id":191,"country_code":"WS","country_name":"Samoa","latitude":"-13.79726000","longitude":"-171.85308000","wikiDataId":"Q2038921"},{"id":130644,"Name":"Apia","state_id":4770,"state_code":"TU","state_name":"Tuamasaga","country_id":191,"country_code":"WS","country_name":"Samoa","latitude":"-13.83333000","longitude":"-171.76666000","wikiDataId":"Q36260"},{"id":130652,"Name":"Malie","state_id":4770,"state_code":"TU","state_name":"Tuamasaga","country_id":191,"country_code":"WS","country_name":"Samoa","latitude":"-13.80044000","longitude":"-171.84690000","wikiDataId":"Q6743481"},{"id":130660,"Name":"Vailima","state_id":4770,"state_code":"TU","state_name":"Tuamasaga","country_id":191,"country_code":"WS","country_name":"Samoa","latitude":"-13.86417000","longitude":"-171.76126000","wikiDataId":"Q548806"},{"id":130662,"Name":"Vaiusu","state_id":4770,"state_code":"TU","state_name":"Tuamasaga","country_id":191,"country_code":"WS","country_name":"Samoa","latitude":"-13.82678000","longitude":"-171.79333000","wikiDataId":"Q7908901"}]