[{"id":52218,"Name":"Bakadagy","state_id":2668,"state_code":"U","state_name":"Upper River Division","country_id":80,"country_code":"GM","country_name":"Gambia The","latitude":"13.30000000","longitude":"-14.38333000","wikiDataId":"Q804224"},{"id":52225,"Name":"Basse Santa Su","state_id":2668,"state_code":"U","state_name":"Upper River Division","country_id":80,"country_code":"GM","country_name":"Gambia The","latitude":"13.30995000","longitude":"-14.21373000","wikiDataId":"Q153498"},{"id":52226,"Name":"Brifu","state_id":2668,"state_code":"U","state_name":"Upper River Division","country_id":80,"country_code":"GM","country_name":"Gambia The","latitude":"13.50000000","longitude":"-13.93333000","wikiDataId":"Q915266"},{"id":52232,"Name":"Daba Kunda","state_id":2668,"state_code":"U","state_name":"Upper River Division","country_id":80,"country_code":"GM","country_name":"Gambia The","latitude":"13.31667000","longitude":"-14.30000000","wikiDataId":"Q1053702"},{"id":52235,"Name":"Demba Kunda","state_id":2668,"state_code":"U","state_name":"Upper River Division","country_id":80,"country_code":"GM","country_name":"Gambia The","latitude":"13.25000000","longitude":"-14.26667000","wikiDataId":"Q1185218"},{"id":52237,"Name":"Diabugu","state_id":2668,"state_code":"U","state_name":"Upper River Division","country_id":80,"country_code":"GM","country_name":"Gambia The","latitude":"13.38333000","longitude":"-14.40000000","wikiDataId":"Q269070"},{"id":52238,"Name":"Diabugu Basilla","state_id":2668,"state_code":"U","state_name":"Upper River Division","country_id":80,"country_code":"GM","country_name":"Gambia The","latitude":"13.33333000","longitude":"-13.95000000","wikiDataId":"Q269070"},{"id":52245,"Name":"Fulladu East","state_id":2668,"state_code":"U","state_name":"Upper River Division","country_id":80,"country_code":"GM","country_name":"Gambia The","latitude":"13.33333000","longitude":"-14.25000000","wikiDataId":"Q1473721"},{"id":52251,"Name":"Gunjur Kuta","state_id":2668,"state_code":"U","state_name":"Upper River Division","country_id":80,"country_code":"GM","country_name":"Gambia The","latitude":"13.53333000","longitude":"-14.11667000","wikiDataId":"Q1554695"},{"id":52263,"Name":"Kantora","state_id":2668,"state_code":"U","state_name":"Upper River Division","country_id":80,"country_code":"GM","country_name":"Gambia The","latitude":"13.41667000","longitude":"-13.91667000","wikiDataId":"Q611397"},{"id":52273,"Name":"Koina","state_id":2668,"state_code":"U","state_name":"Upper River Division","country_id":80,"country_code":"GM","country_name":"Gambia The","latitude":"13.48333000","longitude":"-13.86667000","wikiDataId":"Q1778826"},{"id":52279,"Name":"Kumbija","state_id":2668,"state_code":"U","state_name":"Upper River Division","country_id":80,"country_code":"GM","country_name":"Gambia The","latitude":"13.26667000","longitude":"-14.18333000","wikiDataId":"Q1572017"},{"id":52293,"Name":"Nyamanari","state_id":2668,"state_code":"U","state_name":"Upper River Division","country_id":80,"country_code":"GM","country_name":"Gambia The","latitude":"13.33333000","longitude":"-13.86667000","wikiDataId":"Q1994522"},{"id":52295,"Name":"Perai","state_id":2668,"state_code":"U","state_name":"Upper River Division","country_id":80,"country_code":"GM","country_name":"Gambia The","latitude":"13.38333000","longitude":"-14.03333000","wikiDataId":"Q1475266"},{"id":52297,"Name":"Sabi","state_id":2668,"state_code":"U","state_name":"Upper River Division","country_id":80,"country_code":"GM","country_name":"Gambia The","latitude":"13.23333000","longitude":"-14.20000000","wikiDataId":"Q1753996"},{"id":52300,"Name":"Sandu","state_id":2668,"state_code":"U","state_name":"Upper River Division","country_id":80,"country_code":"GM","country_name":"Gambia The","latitude":"13.41667000","longitude":"-14.36667000","wikiDataId":"Q1136959"},{"id":52308,"Name":"Sudowol","state_id":2668,"state_code":"U","state_name":"Upper River Division","country_id":80,"country_code":"GM","country_name":"Gambia The","latitude":"13.36667000","longitude":"-13.96667000","wikiDataId":"Q2363327"},{"id":52311,"Name":"Sun Kunda","state_id":2668,"state_code":"U","state_name":"Upper River Division","country_id":80,"country_code":"GM","country_name":"Gambia The","latitude":"13.38333000","longitude":"-13.85000000","wikiDataId":"Q2301340"},{"id":52312,"Name":"Sutukoba","state_id":2668,"state_code":"U","state_name":"Upper River Division","country_id":80,"country_code":"GM","country_name":"Gambia The","latitude":"13.50000000","longitude":"-14.01667000","wikiDataId":"Q1149283"},{"id":52320,"Name":"Wuli","state_id":2668,"state_code":"U","state_name":"Upper River Division","country_id":80,"country_code":"GM","country_name":"Gambia The","latitude":"13.50000000","longitude":"-14.08333000","wikiDataId":"Q600022"}]