[{"id":77314,"Name":"Abcoude","state_id":2610,"state_code":"UT","state_name":"Utrecht","country_id":156,"country_code":"NL","country_name":"Netherlands","latitude":"52.27250000","longitude":"4.96944000","wikiDataId":"Q969"},{"id":77334,"Name":"Amerongen","state_id":2610,"state_code":"UT","state_name":"Utrecht","country_id":156,"country_code":"NL","country_name":"Netherlands","latitude":"52.00250000","longitude":"5.45972000","wikiDataId":"Q1615400"},{"id":77335,"Name":"Amersfoort","state_id":2610,"state_code":"UT","state_name":"Utrecht","country_id":156,"country_code":"NL","country_name":"Netherlands","latitude":"52.15500000","longitude":"5.38750000","wikiDataId":"Q33421377"},{"id":77360,"Name":"Austerlitz","state_id":2610,"state_code":"UT","state_name":"Utrecht","country_id":156,"country_code":"NL","country_name":"Netherlands","latitude":"52.08000000","longitude":"5.31528000","wikiDataId":"Q2380583"},{"id":77364,"Name":"Baambrugge","state_id":2610,"state_code":"UT","state_name":"Utrecht","country_id":156,"country_code":"NL","country_name":"Netherlands","latitude":"52.24583000","longitude":"4.98889000","wikiDataId":"Q535988"},{"id":77368,"Name":"Baarn","state_id":2610,"state_code":"UT","state_name":"Utrecht","country_id":156,"country_code":"NL","country_name":"Netherlands","latitude":"52.21167000","longitude":"5.28750000","wikiDataId":"Q33423050"},{"id":77461,"Name":"Bosch en Duin","state_id":2610,"state_code":"UT","state_name":"Utrecht","country_id":156,"country_code":"NL","country_name":"Netherlands","latitude":"52.11667000","longitude":"5.24167000","wikiDataId":"Q2911449"},{"id":77479,"Name":"Breukelen","state_id":2610,"state_code":"UT","state_name":"Utrecht","country_id":156,"country_code":"NL","country_name":"Netherlands","latitude":"52.17417000","longitude":"5.00139000","wikiDataId":"Q615732"},{"id":77503,"Name":"Bunnik","state_id":2610,"state_code":"UT","state_name":"Utrecht","country_id":156,"country_code":"NL","country_name":"Netherlands","latitude":"52.06667000","longitude":"5.19861000","wikiDataId":"Q937679"},{"id":77504,"Name":"Bunschoten","state_id":2610,"state_code":"UT","state_name":"Utrecht","country_id":156,"country_code":"NL","country_name":"Netherlands","latitude":"52.24304000","longitude":"5.37884000","wikiDataId":"Q937679"},{"id":77524,"Name":"Cothen","state_id":2610,"state_code":"UT","state_name":"Utrecht","country_id":156,"country_code":"NL","country_name":"Netherlands","latitude":"51.99667000","longitude":"5.30833000","wikiDataId":"Q2860067"},{"id":77532,"Name":"De Bilt","state_id":2610,"state_code":"UT","state_name":"Utrecht","country_id":156,"country_code":"NL","country_name":"Netherlands","latitude":"52.11000000","longitude":"5.18056000","wikiDataId":"Q2272796"},{"id":77542,"Name":"De Hagen","state_id":2610,"state_code":"UT","state_name":"Utrecht","country_id":156,"country_code":"NL","country_name":"Netherlands","latitude":"51.99381000","longitude":"5.10263000","wikiDataId":"Q2993272"},{"id":77560,"Name":"De Uithof","state_id":2610,"state_code":"UT","state_name":"Utrecht","country_id":156,"country_code":"NL","country_name":"Netherlands","latitude":"52.08526000","longitude":"5.17456000","wikiDataId":"Q5363315"},{"id":77595,"Name":"Doorn","state_id":2610,"state_code":"UT","state_name":"Utrecht","country_id":156,"country_code":"NL","country_name":"Netherlands","latitude":"52.03343000","longitude":"5.34571000","wikiDataId":"Q1615161"},{"id":77604,"Name":"Driebergen-Rijsenburg","state_id":2610,"state_code":"UT","state_name":"Utrecht","country_id":156,"country_code":"NL","country_name":"Netherlands","latitude":"52.05333000","longitude":"5.28056000","wikiDataId":"Q1258901"},{"id":77708,"Name":"Gemeente Amersfoort","state_id":2610,"state_code":"UT","state_name":"Utrecht","country_id":156,"country_code":"NL","country_name":"Netherlands","latitude":"52.17375000","longitude":"5.38954000","wikiDataId":"Q992"},{"id":77717,"Name":"Gemeente Baarn","state_id":2610,"state_code":"UT","state_name":"Utrecht","country_id":156,"country_code":"NL","country_name":"Netherlands","latitude":"52.20602000","longitude":"5.27144000","wikiDataId":"Q10027"},{"id":77745,"Name":"Gemeente Bunnik","state_id":2610,"state_code":"UT","state_name":"Utrecht","country_id":156,"country_code":"NL","country_name":"Netherlands","latitude":"52.04228000","longitude":"5.21664000","wikiDataId":"Q10032"},{"id":77746,"Name":"Gemeente Bunschoten","state_id":2610,"state_code":"UT","state_name":"Utrecht","country_id":156,"country_code":"NL","country_name":"Netherlands","latitude":"52.24249000","longitude":"5.35837000","wikiDataId":"Q10034"},{"id":77756,"Name":"Gemeente De Bilt","state_id":2610,"state_code":"UT","state_name":"Utrecht","country_id":156,"country_code":"NL","country_name":"Netherlands","latitude":"52.14137000","longitude":"5.16828000","wikiDataId":"Q10035"},{"id":77757,"Name":"Gemeente De Ronde Venen","state_id":2610,"state_code":"UT","state_name":"Utrecht","country_id":156,"country_code":"NL","country_name":"Netherlands","latitude":"52.21515000","longitude":"4.90123000","wikiDataId":"Q10036"},{"id":77779,"Name":"Gemeente Eemnes","state_id":2610,"state_code":"UT","state_name":"Utrecht","country_id":156,"country_code":"NL","country_name":"Netherlands","latitude":"52.25253000","longitude":"5.28391000","wikiDataId":"Q10037"},{"id":77834,"Name":"Gemeente Houten","state_id":2610,"state_code":"UT","state_name":"Utrecht","country_id":156,"country_code":"NL","country_name":"Netherlands","latitude":"52.02683000","longitude":"5.16941000","wikiDataId":"Q10044"},{"id":77837,"Name":"Gemeente IJsselstein","state_id":2610,"state_code":"UT","state_name":"Utrecht","country_id":156,"country_code":"NL","country_name":"Netherlands","latitude":"52.02912000","longitude":"5.02868000","wikiDataId":"Q10045"},{"id":77857,"Name":"Gemeente Leusden","state_id":2610,"state_code":"UT","state_name":"Utrecht","country_id":156,"country_code":"NL","country_name":"Netherlands","latitude":"52.12418000","longitude":"5.41245000","wikiDataId":"Q10046"},{"id":77862,"Name":"Gemeente Lopik","state_id":2610,"state_code":"UT","state_name":"Utrecht","country_id":156,"country_code":"NL","country_name":"Netherlands","latitude":"51.98991000","longitude":"4.94851000","wikiDataId":"Q10047"},{"id":77878,"Name":"Gemeente Montfoort","state_id":2610,"state_code":"UT","state_name":"Utrecht","country_id":156,"country_code":"NL","country_name":"Netherlands","latitude":"52.04767000","longitude":"4.94844000","wikiDataId":"Q10048"},{"id":77882,"Name":"Gemeente Nieuwegein","state_id":2610,"state_code":"UT","state_name":"Utrecht","country_id":156,"country_code":"NL","country_name":"Netherlands","latitude":"52.02843000","longitude":"5.09539000","wikiDataId":"Q10050"},{"id":77906,"Name":"Gemeente Oudewater","state_id":2610,"state_code":"UT","state_name":"Utrecht","country_id":156,"country_code":"NL","country_name":"Netherlands","latitude":"52.02840000","longitude":"4.86243000","wikiDataId":"Q10051"},{"id":77917,"Name":"Gemeente Renswoude","state_id":2610,"state_code":"UT","state_name":"Utrecht","country_id":156,"country_code":"NL","country_name":"Netherlands","latitude":"52.07294000","longitude":"5.53352000","wikiDataId":"Q10039"},{"id":77920,"Name":"Gemeente Rhenen","state_id":2610,"state_code":"UT","state_name":"Utrecht","country_id":156,"country_code":"NL","country_name":"Netherlands","latitude":"51.96151000","longitude":"5.57058000","wikiDataId":"Q10040"},{"id":77940,"Name":"Gemeente Soest","state_id":2610,"state_code":"UT","state_name":"Utrecht","country_id":156,"country_code":"NL","country_name":"Netherlands","latitude":"52.15636000","longitude":"5.29854000","wikiDataId":"Q10041"},{"id":77964,"Name":"Gemeente Utrecht","state_id":2610,"state_code":"UT","state_name":"Utrecht","country_id":156,"country_code":"NL","country_name":"Netherlands","latitude":"52.09675000","longitude":"5.03708000","wikiDataId":"Q803"},{"id":77965,"Name":"Gemeente Utrechtse Heuvelrug","state_id":2610,"state_code":"UT","state_name":"Utrecht","country_id":156,"country_code":"NL","country_name":"Netherlands","latitude":"52.03486000","longitude":"5.35738000","wikiDataId":"Q10043"},{"id":77969,"Name":"Gemeente Veenendaal","state_id":2610,"state_code":"UT","state_name":"Utrecht","country_id":156,"country_code":"NL","country_name":"Netherlands","latitude":"52.02459000","longitude":"5.55562000","wikiDataId":"Q1840"},{"id":77999,"Name":"Gemeente Wijk bij Duurstede","state_id":2610,"state_code":"UT","state_name":"Utrecht","country_id":156,"country_code":"NL","country_name":"Netherlands","latitude":"51.97452000","longitude":"5.33661000","wikiDataId":"Q10053"},{"id":78002,"Name":"Gemeente Woerden","state_id":2610,"state_code":"UT","state_name":"Utrecht","country_id":156,"country_code":"NL","country_name":"Netherlands","latitude":"52.10675000","longitude":"4.90066000","wikiDataId":"Q5128"},{"id":78004,"Name":"Gemeente Woudenberg","state_id":2610,"state_code":"UT","state_name":"Utrecht","country_id":156,"country_code":"NL","country_name":"Netherlands","latitude":"52.08055000","longitude":"5.39810000","wikiDataId":"Q10055"},{"id":78009,"Name":"Gemeente Zeist","state_id":2610,"state_code":"UT","state_name":"Utrecht","country_id":156,"country_code":"NL","country_name":"Netherlands","latitude":"52.08847000","longitude":"5.23275000","wikiDataId":"Q10056"},{"id":78058,"Name":"Groenekan","state_id":2610,"state_code":"UT","state_name":"Utrecht","country_id":156,"country_code":"NL","country_name":"Netherlands","latitude":"52.12333000","longitude":"5.15278000","wikiDataId":"Q2218565"},{"id":78169,"Name":"Hollandsche Rading","state_id":2610,"state_code":"UT","state_name":"Utrecht","country_id":156,"country_code":"NL","country_name":"Netherlands","latitude":"52.17500000","longitude":"5.17778000","wikiDataId":"Q2455732"},{"id":78189,"Name":"Houten","state_id":2610,"state_code":"UT","state_name":"Utrecht","country_id":156,"country_code":"NL","country_name":"Netherlands","latitude":"52.02833000","longitude":"5.16806000","wikiDataId":"Q33446293"},{"id":78201,"Name":"IJsselstein","state_id":2610,"state_code":"UT","state_name":"Utrecht","country_id":156,"country_code":"NL","country_name":"Netherlands","latitude":"52.02000000","longitude":"5.04306000","wikiDataId":"Q73348"},{"id":78219,"Name":"Kedichem","state_id":2610,"state_code":"UT","state_name":"Utrecht","country_id":156,"country_code":"NL","country_name":"Netherlands","latitude":"51.86000000","longitude":"5.05000000","wikiDataId":"Q2609314"},{"id":78223,"Name":"Kerckebosch","state_id":2610,"state_code":"UT","state_name":"Utrecht","country_id":156,"country_code":"NL","country_name":"Netherlands","latitude":"52.07844000","longitude":"5.26584000","wikiDataId":"Q2609314"},{"id":78271,"Name":"Langenoord","state_id":2610,"state_code":"UT","state_name":"Utrecht","country_id":156,"country_code":"NL","country_name":"Netherlands","latitude":"52.18768000","longitude":"5.38034000","wikiDataId":"Q15898764"},{"id":78279,"Name":"Leerdam","state_id":2610,"state_code":"UT","state_name":"Utrecht","country_id":156,"country_code":"NL","country_name":"Netherlands","latitude":"51.89333000","longitude":"5.09167000","wikiDataId":"Q33456307"},{"id":78280,"Name":"Leersum","state_id":2610,"state_code":"UT","state_name":"Utrecht","country_id":156,"country_code":"NL","country_name":"Netherlands","latitude":"52.01167000","longitude":"5.42778000","wikiDataId":"Q81177"},{"id":78294,"Name":"Leusden","state_id":2610,"state_code":"UT","state_name":"Utrecht","country_id":156,"country_code":"NL","country_name":"Netherlands","latitude":"52.13250000","longitude":"5.43194000","wikiDataId":"Q33456707"},{"id":78311,"Name":"Linschoten","state_id":2610,"state_code":"UT","state_name":"Utrecht","country_id":156,"country_code":"NL","country_name":"Netherlands","latitude":"52.06250000","longitude":"4.91528000","wikiDataId":"Q2429805"},{"id":78321,"Name":"Lopik","state_id":2610,"state_code":"UT","state_name":"Utrecht","country_id":156,"country_code":"NL","country_name":"Netherlands","latitude":"51.97250000","longitude":"4.94861000","wikiDataId":"Q2242811"},{"id":78326,"Name":"Lunetten","state_id":2610,"state_code":"UT","state_name":"Utrecht","country_id":156,"country_code":"NL","country_name":"Netherlands","latitude":"52.06178000","longitude":"5.13474000","wikiDataId":"Q2184767"},{"id":78331,"Name":"Maarn","state_id":2610,"state_code":"UT","state_name":"Utrecht","country_id":156,"country_code":"NL","country_name":"Netherlands","latitude":"52.06417000","longitude":"5.37083000","wikiDataId":"Q1616311"},{"id":78332,"Name":"Maarssen","state_id":2610,"state_code":"UT","state_name":"Utrecht","country_id":156,"country_code":"NL","country_name":"Netherlands","latitude":"52.13917000","longitude":"5.04167000","wikiDataId":"Q932008"},{"id":78333,"Name":"Maartensdijk","state_id":2610,"state_code":"UT","state_name":"Utrecht","country_id":156,"country_code":"NL","country_name":"Netherlands","latitude":"52.15500000","longitude":"5.17500000","wikiDataId":"Q2179687"},{"id":78399,"Name":"Mijdrecht","state_id":2610,"state_code":"UT","state_name":"Utrecht","country_id":156,"country_code":"NL","country_name":"Netherlands","latitude":"52.20667000","longitude":"4.86250000","wikiDataId":"Q666498"},{"id":78409,"Name":"Montfoort","state_id":2610,"state_code":"UT","state_name":"Utrecht","country_id":156,"country_code":"NL","country_name":"Netherlands","latitude":"52.04583000","longitude":"4.95278000","wikiDataId":"Q969531"},{"id":78441,"Name":"Nieuwegein","state_id":2610,"state_code":"UT","state_name":"Utrecht","country_id":156,"country_code":"NL","country_name":"Netherlands","latitude":"52.02917000","longitude":"5.08056000","wikiDataId":"Q971130"},{"id":78451,"Name":"Nijenheim","state_id":2610,"state_code":"UT","state_name":"Utrecht","country_id":156,"country_code":"NL","country_name":"Netherlands","latitude":"52.08689000","longitude":"5.21852000","wikiDataId":"Q2177358"},{"id":78482,"Name":"Odijk","state_id":2610,"state_code":"UT","state_name":"Utrecht","country_id":156,"country_code":"NL","country_name":"Netherlands","latitude":"52.05250000","longitude":"5.23611000","wikiDataId":"Q2124349"},{"id":78504,"Name":"Oog in Al","state_id":2610,"state_code":"UT","state_name":"Utrecht","country_id":156,"country_code":"NL","country_name":"Netherlands","latitude":"52.08636000","longitude":"5.08470000","wikiDataId":"Q2382045"},{"id":78567,"Name":"Oudewater","state_id":2610,"state_code":"UT","state_name":"Utrecht","country_id":156,"country_code":"NL","country_name":"Netherlands","latitude":"52.02500000","longitude":"4.86806000","wikiDataId":"Q33470616"},{"id":78570,"Name":"Overberg","state_id":2610,"state_code":"UT","state_name":"Utrecht","country_id":156,"country_code":"NL","country_name":"Netherlands","latitude":"52.04000000","longitude":"5.49444000","wikiDataId":"Q3358892"},{"id":78608,"Name":"Randenbroek","state_id":2610,"state_code":"UT","state_name":"Utrecht","country_id":156,"country_code":"NL","country_name":"Netherlands","latitude":"52.14863000","longitude":"5.40120000","wikiDataId":"Q3415830"},{"id":78615,"Name":"Renswoude","state_id":2610,"state_code":"UT","state_name":"Utrecht","country_id":156,"country_code":"NL","country_name":"Netherlands","latitude":"52.07333000","longitude":"5.54028000","wikiDataId":"Q15881216"},{"id":78619,"Name":"Rhenen","state_id":2610,"state_code":"UT","state_name":"Utrecht","country_id":156,"country_code":"NL","country_name":"Netherlands","latitude":"51.95917000","longitude":"5.56806000","wikiDataId":"Q13137607"},{"id":78682,"Name":"Schoonrewoerd","state_id":2610,"state_code":"UT","state_name":"Utrecht","country_id":156,"country_code":"NL","country_name":"Netherlands","latitude":"51.92083000","longitude":"5.11667000","wikiDataId":"Q3113902"},{"id":78719,"Name":"Soest","state_id":2610,"state_code":"UT","state_name":"Utrecht","country_id":156,"country_code":"NL","country_name":"Netherlands","latitude":"52.17333000","longitude":"5.29167000","wikiDataId":"Q23070"},{"id":78720,"Name":"Soestdijk","state_id":2610,"state_code":"UT","state_name":"Utrecht","country_id":156,"country_code":"NL","country_name":"Netherlands","latitude":"52.19083000","longitude":"5.28472000","wikiDataId":"Q2214216"},{"id":78725,"Name":"Spakenburg","state_id":2610,"state_code":"UT","state_name":"Utrecht","country_id":156,"country_code":"NL","country_name":"Netherlands","latitude":"52.25000000","longitude":"5.36667000","wikiDataId":"Q385386"},{"id":78728,"Name":"Spechtenkamp","state_id":2610,"state_code":"UT","state_name":"Utrecht","country_id":156,"country_code":"NL","country_name":"Netherlands","latitude":"52.13926000","longitude":"5.01758000","wikiDataId":"Q3030263"},{"id":78758,"Name":"Stichtse Vecht","state_id":2610,"state_code":"UT","state_name":"Utrecht","country_id":156,"country_code":"NL","country_name":"Netherlands","latitude":"52.17679000","longitude":"5.01259000","wikiDataId":"Q10042"},{"id":78822,"Name":"Utrecht","state_id":2610,"state_code":"UT","state_name":"Utrecht","country_id":156,"country_code":"NL","country_name":"Netherlands","latitude":"52.09083000","longitude":"5.12222000","wikiDataId":"Q39297398"},{"id":78837,"Name":"Veenendaal","state_id":2610,"state_code":"UT","state_name":"Utrecht","country_id":156,"country_code":"NL","country_name":"Netherlands","latitude":"52.02863000","longitude":"5.55891000","wikiDataId":"Q14212973"},{"id":78841,"Name":"Veldhuizen","state_id":2610,"state_code":"UT","state_name":"Utrecht","country_id":156,"country_code":"NL","country_name":"Netherlands","latitude":"52.07537000","longitude":"5.01234000","wikiDataId":"Q33511501"},{"id":78849,"Name":"Vianen","state_id":2610,"state_code":"UT","state_name":"Utrecht","country_id":156,"country_code":"NL","country_name":"Netherlands","latitude":"51.99250000","longitude":"5.09167000","wikiDataId":"Q23015555"},{"id":78854,"Name":"Vinkeveen","state_id":2610,"state_code":"UT","state_name":"Utrecht","country_id":156,"country_code":"NL","country_name":"Netherlands","latitude":"52.21507000","longitude":"4.93372000","wikiDataId":"Q2667464"},{"id":78858,"Name":"Vleuten","state_id":2610,"state_code":"UT","state_name":"Utrecht","country_id":156,"country_code":"NL","country_name":"Netherlands","latitude":"52.10583000","longitude":"5.01528000","wikiDataId":"Q984079"},{"id":78882,"Name":"Vreeswijk","state_id":2610,"state_code":"UT","state_name":"Utrecht","country_id":156,"country_code":"NL","country_name":"Netherlands","latitude":"52.01088000","longitude":"5.09285000","wikiDataId":"Q2407693"},{"id":78925,"Name":"Werkhoven","state_id":2610,"state_code":"UT","state_name":"Utrecht","country_id":156,"country_code":"NL","country_name":"Netherlands","latitude":"52.02500000","longitude":"5.24444000","wikiDataId":"Q2541237"},{"id":78954,"Name":"Wijk bij Duurstede","state_id":2610,"state_code":"UT","state_name":"Utrecht","country_id":156,"country_code":"NL","country_name":"Netherlands","latitude":"51.97417000","longitude":"5.34167000","wikiDataId":"Q913649"},{"id":78960,"Name":"Wilnis","state_id":2610,"state_code":"UT","state_name":"Utrecht","country_id":156,"country_code":"NL","country_name":"Netherlands","latitude":"52.19667000","longitude":"4.89722000","wikiDataId":"Q2299082"},{"id":78973,"Name":"Woerden","state_id":2610,"state_code":"UT","state_name":"Utrecht","country_id":156,"country_code":"NL","country_name":"Netherlands","latitude":"52.08500000","longitude":"4.88333000","wikiDataId":"Q494324"},{"id":78984,"Name":"Woudenberg","state_id":2610,"state_code":"UT","state_name":"Utrecht","country_id":156,"country_code":"NL","country_name":"Netherlands","latitude":"52.08083000","longitude":"5.41667000","wikiDataId":"Q1025067"},{"id":79005,"Name":"Zeist","state_id":2610,"state_code":"UT","state_name":"Utrecht","country_id":156,"country_code":"NL","country_name":"Netherlands","latitude":"52.09000000","longitude":"5.23333000","wikiDataId":"Q33527010"}]