[{"id":110984,"Name":"Abingdon","state_id":1427,"state_code":"VA","state_name":"Virginia","country_id":233,"country_code":"US","country_name":"United States","latitude":"36.70983000","longitude":"-81.97735000","wikiDataId":"Q137919"},{"id":110994,"Name":"Accomac","state_id":1427,"state_code":"VA","state_name":"Virginia","country_id":233,"country_code":"US","country_name":"United States","latitude":"37.71957000","longitude":"-75.66548000","wikiDataId":"Q1376150"},{"id":110995,"Name":"Accomack County","state_id":1427,"state_code":"VA","state_name":"Virginia","country_id":233,"country_code":"US","country_name":"United States","latitude":"37.76494000","longitude":"-75.75656000","wikiDataId":"Q49289"},{"id":111050,"Name":"Adwolf","state_id":1427,"state_code":"VA","state_name":"Virginia","country_id":233,"country_code":"US","country_name":"United States","latitude":"36.78928000","longitude":"-81.58206000","wikiDataId":"Q1376124"},{"id":111116,"Name":"Albemarle County","state_id":1427,"state_code":"VA","state_name":"Virginia","country_id":233,"country_code":"US","country_name":"United States","latitude":"38.02289000","longitude":"-78.55654000","wikiDataId":"Q488653"},{"id":111151,"Name":"Alexandria","state_id":1427,"state_code":"VA","state_name":"Virginia","country_id":233,"country_code":"US","country_name":"United States","latitude":"38.80484000","longitude":"-77.04692000","wikiDataId":"Q88"},{"id":111184,"Name":"Alleghany County","state_id":1427,"state_code":"VA","state_name":"Virginia","country_id":233,"country_code":"US","country_name":"United States","latitude":"37.78760000","longitude":"-80.00699000","wikiDataId":"Q488675"},{"id":111238,"Name":"Altavista","state_id":1427,"state_code":"VA","state_name":"Virginia","country_id":233,"country_code":"US","country_name":"United States","latitude":"37.11181000","longitude":"-79.28558000","wikiDataId":"Q1373836"},{"id":111269,"Name":"Amelia County","state_id":1427,"state_code":"VA","state_name":"Virginia","country_id":233,"country_code":"US","country_name":"United States","latitude":"37.33603000","longitude":"-77.97614000","wikiDataId":"Q461562"},{"id":111270,"Name":"Amelia Court House","state_id":1427,"state_code":"VA","state_name":"Virginia","country_id":233,"country_code":"US","country_name":"United States","latitude":"37.34293000","longitude":"-77.98056000","wikiDataId":"Q3475203"},{"id":111281,"Name":"Amherst","state_id":1427,"state_code":"VA","state_name":"Virginia","country_id":233,"country_code":"US","country_name":"United States","latitude":"37.58514000","longitude":"-79.05141000","wikiDataId":"Q1375037"},{"id":111286,"Name":"Amherst County","state_id":1427,"state_code":"VA","state_name":"Virginia","country_id":233,"country_code":"US","country_name":"United States","latitude":"37.60477000","longitude":"-79.14511000","wikiDataId":"Q470626"},{"id":111349,"Name":"Annandale","state_id":1427,"state_code":"VA","state_name":"Virginia","country_id":233,"country_code":"US","country_name":"United States","latitude":"38.83039000","longitude":"-77.19637000","wikiDataId":"Q1375477"},{"id":111390,"Name":"Appalachia","state_id":1427,"state_code":"VA","state_name":"Virginia","country_id":233,"country_code":"US","country_name":"United States","latitude":"36.90676000","longitude":"-82.78183000","wikiDataId":"Q1375253"},{"id":111392,"Name":"Apple Mountain Lake","state_id":1427,"state_code":"VA","state_name":"Virginia","country_id":233,"country_code":"US","country_name":"United States","latitude":"38.92428000","longitude":"-78.10139000","wikiDataId":"Q111921"},{"id":111401,"Name":"Appomattox","state_id":1427,"state_code":"VA","state_name":"Virginia","country_id":233,"country_code":"US","country_name":"United States","latitude":"37.35709000","longitude":"-78.82529000","wikiDataId":"Q1375723"},{"id":111402,"Name":"Appomattox County","state_id":1427,"state_code":"VA","state_name":"Virginia","country_id":233,"country_code":"US","country_name":"United States","latitude":"37.37229000","longitude":"-78.81212000","wikiDataId":"Q490325"},{"id":111406,"Name":"Aquia Harbour","state_id":1427,"state_code":"VA","state_name":"Virginia","country_id":233,"country_code":"US","country_name":"United States","latitude":"38.46262000","longitude":"-77.38887000","wikiDataId":"Q1375988"},{"id":111463,"Name":"Arlington","state_id":1427,"state_code":"VA","state_name":"Virginia","country_id":233,"country_code":"US","country_name":"United States","latitude":"38.88101000","longitude":"-77.10428000","wikiDataId":"Q2508961"},{"id":111471,"Name":"Arlington County","state_id":1427,"state_code":"VA","state_name":"Virginia","country_id":233,"country_code":"US","country_name":"United States","latitude":"38.87862000","longitude":"-77.10096000","wikiDataId":"Q107126"},{"id":111514,"Name":"Ashburn","state_id":1427,"state_code":"VA","state_name":"Virginia","country_id":233,"country_code":"US","country_name":"United States","latitude":"39.04372000","longitude":"-77.48749000","wikiDataId":"Q724884"},{"id":111532,"Name":"Ashland","state_id":1427,"state_code":"VA","state_name":"Virginia","country_id":233,"country_code":"US","country_name":"United States","latitude":"37.75903000","longitude":"-77.47998000","wikiDataId":"Q725586"},{"id":111585,"Name":"Atkins","state_id":1427,"state_code":"VA","state_name":"Virginia","country_id":233,"country_code":"US","country_name":"United States","latitude":"36.86734000","longitude":"-81.42344000","wikiDataId":"Q1376326"},{"id":111652,"Name":"Augusta County","state_id":1427,"state_code":"VA","state_name":"Virginia","country_id":233,"country_code":"US","country_name":"United States","latitude":"38.16452000","longitude":"-79.13383000","wikiDataId":"Q285625"},{"id":111731,"Name":"Baileys Crossroads","state_id":1427,"state_code":"VA","state_name":"Virginia","country_id":233,"country_code":"US","country_name":"United States","latitude":"38.85039000","longitude":"-77.12970000","wikiDataId":"Q1376254"},{"id":111881,"Name":"Bassett","state_id":1427,"state_code":"VA","state_name":"Virginia","country_id":233,"country_code":"US","country_name":"United States","latitude":"36.75930000","longitude":"-79.99032000","wikiDataId":"Q1377121"},{"id":111886,"Name":"Basye","state_id":1427,"state_code":"VA","state_name":"Virginia","country_id":233,"country_code":"US","country_name":"United States","latitude":"38.80706000","longitude":"-78.79224000","wikiDataId":"Q578494"},{"id":111902,"Name":"Bath County","state_id":1427,"state_code":"VA","state_name":"Virginia","country_id":233,"country_code":"US","country_name":"United States","latitude":"38.05869000","longitude":"-79.74109000","wikiDataId":"Q495165"},{"id":111972,"Name":"Bealeton","state_id":1427,"state_code":"VA","state_name":"Virginia","country_id":233,"country_code":"US","country_name":"United States","latitude":"38.57179000","longitude":"-77.76388000","wikiDataId":"Q3475415"},{"id":112020,"Name":"Bedford","state_id":1427,"state_code":"VA","state_name":"Virginia","country_id":233,"country_code":"US","country_name":"United States","latitude":"37.33431000","longitude":"-79.52309000","wikiDataId":"Q505704"},{"id":112027,"Name":"Bedford County","state_id":1427,"state_code":"VA","state_name":"Virginia","country_id":233,"country_code":"US","country_name":"United States","latitude":"37.31494000","longitude":"-79.52422000","wikiDataId":"Q494216"},{"id":112085,"Name":"Belle Haven","state_id":1427,"state_code":"VA","state_name":"Virginia","country_id":233,"country_code":"US","country_name":"United States","latitude":"38.78539000","longitude":"-77.06303000","wikiDataId":"Q3469009"},{"id":112130,"Name":"Bellwood","state_id":1427,"state_code":"VA","state_name":"Virginia","country_id":233,"country_code":"US","country_name":"United States","latitude":"37.42181000","longitude":"-77.43748000","wikiDataId":"Q1375005"},{"id":112137,"Name":"Belmont","state_id":1427,"state_code":"VA","state_name":"Virginia","country_id":233,"country_code":"US","country_name":"United States","latitude":"39.06483000","longitude":"-77.50999000","wikiDataId":"Q661751"},{"id":112144,"Name":"Belmont Estates","state_id":1427,"state_code":"VA","state_name":"Virginia","country_id":233,"country_code":"US","country_name":"United States","latitude":"38.45271000","longitude":"-78.91979000","wikiDataId":"Q4884351"},{"id":112181,"Name":"Bensley","state_id":1427,"state_code":"VA","state_name":"Virginia","country_id":233,"country_code":"US","country_name":"United States","latitude":"37.44681000","longitude":"-77.44332000","wikiDataId":"Q1374553"},{"id":112255,"Name":"Berryville","state_id":1427,"state_code":"VA","state_name":"Virginia","country_id":233,"country_code":"US","country_name":"United States","latitude":"39.15177000","longitude":"-77.98222000","wikiDataId":"Q1373729"},{"id":112337,"Name":"Big Stone Gap","state_id":1427,"state_code":"VA","state_name":"Virginia","country_id":233,"country_code":"US","country_name":"United States","latitude":"36.88176000","longitude":"-82.74710000","wikiDataId":"Q1375124"},{"id":112390,"Name":"Blacksburg","state_id":1427,"state_code":"VA","state_name":"Virginia","country_id":233,"country_code":"US","country_name":"United States","latitude":"37.22957000","longitude":"-80.41394000","wikiDataId":"Q285816"},{"id":112392,"Name":"Blackstone","state_id":1427,"state_code":"VA","state_name":"Virginia","country_id":233,"country_code":"US","country_name":"United States","latitude":"37.08043000","longitude":"-77.99723000","wikiDataId":"Q1373412"},{"id":112420,"Name":"Bland","state_id":1427,"state_code":"VA","state_name":"Virginia","country_id":233,"country_code":"US","country_name":"United States","latitude":"37.10206000","longitude":"-81.11620000","wikiDataId":"Q584270"},{"id":112421,"Name":"Bland County","state_id":1427,"state_code":"VA","state_name":"Virginia","country_id":233,"country_code":"US","country_name":"United States","latitude":"37.13397000","longitude":"-81.13028000","wikiDataId":"Q495112"},{"id":112476,"Name":"Blue Ridge","state_id":1427,"state_code":"VA","state_name":"Virginia","country_id":233,"country_code":"US","country_name":"United States","latitude":"37.37847000","longitude":"-79.80698000","wikiDataId":"Q1376868"},{"id":112478,"Name":"Bluefield","state_id":1427,"state_code":"VA","state_name":"Virginia","country_id":233,"country_code":"US","country_name":"United States","latitude":"37.25262000","longitude":"-81.27121000","wikiDataId":"Q1376715"},{"id":112526,"Name":"Bon Air","state_id":1427,"state_code":"VA","state_name":"Virginia","country_id":233,"country_code":"US","country_name":"United States","latitude":"37.52487000","longitude":"-77.55777000","wikiDataId":"Q673772"},{"id":112593,"Name":"Boswell's Corner","state_id":1427,"state_code":"VA","state_name":"Virginia","country_id":233,"country_code":"US","country_name":"United States","latitude":"38.50541000","longitude":"-77.37263000","wikiDataId":"Q4948325"},{"id":112594,"Name":"Botetourt County","state_id":1427,"state_code":"VA","state_name":"Virginia","country_id":233,"country_code":"US","country_name":"United States","latitude":"37.55712000","longitude":"-79.81233000","wikiDataId":"Q495132"},{"id":112631,"Name":"Bowling Green","state_id":1427,"state_code":"VA","state_name":"Virginia","country_id":233,"country_code":"US","country_name":"United States","latitude":"38.04958000","longitude":"-77.34665000","wikiDataId":"Q1375212"},{"id":112644,"Name":"Boydton","state_id":1427,"state_code":"VA","state_name":"Virginia","country_id":233,"country_code":"US","country_name":"United States","latitude":"36.66764000","longitude":"-78.38750000","wikiDataId":"Q1376432"},{"id":112654,"Name":"Bracey","state_id":1427,"state_code":"VA","state_name":"Virginia","country_id":233,"country_code":"US","country_name":"United States","latitude":"36.59959000","longitude":"-78.14305000","wikiDataId":"Q4953257"},{"id":112683,"Name":"Brambleton","state_id":1427,"state_code":"VA","state_name":"Virginia","country_id":233,"country_code":"US","country_name":"United States","latitude":"38.98205000","longitude":"-77.53860000","wikiDataId":"Q659359"},{"id":112687,"Name":"Brandermill","state_id":1427,"state_code":"VA","state_name":"Virginia","country_id":233,"country_code":"US","country_name":"United States","latitude":"37.43209000","longitude":"-77.64971000","wikiDataId":"Q4956676"},{"id":112774,"Name":"Bridgewater","state_id":1427,"state_code":"VA","state_name":"Virginia","country_id":233,"country_code":"US","country_name":"United States","latitude":"38.38207000","longitude":"-78.97670000","wikiDataId":"Q1376704"},{"id":112795,"Name":"Brightwood","state_id":1427,"state_code":"VA","state_name":"Virginia","country_id":233,"country_code":"US","country_name":"United States","latitude":"38.42152000","longitude":"-78.19361000","wikiDataId":"Q4967828"},{"id":112804,"Name":"Bristol","state_id":1427,"state_code":"VA","state_name":"Virginia","country_id":233,"country_code":"US","country_name":"United States","latitude":"36.59649000","longitude":"-82.18847000","wikiDataId":"Q503366"},{"id":112824,"Name":"Broadlands","state_id":1427,"state_code":"VA","state_name":"Virginia","country_id":233,"country_code":"US","country_name":"United States","latitude":"39.01816000","longitude":"-77.52027000","wikiDataId":"Q661228"},{"id":112831,"Name":"Broadway","state_id":1427,"state_code":"VA","state_name":"Virginia","country_id":233,"country_code":"US","country_name":"United States","latitude":"38.61317000","longitude":"-78.79891000","wikiDataId":"Q1376100"},{"id":112879,"Name":"Brookneal","state_id":1427,"state_code":"VA","state_name":"Virginia","country_id":233,"country_code":"US","country_name":"United States","latitude":"37.05014000","longitude":"-78.94418000","wikiDataId":"Q1373826"},{"id":112952,"Name":"Brunswick County","state_id":1427,"state_code":"VA","state_name":"Virginia","country_id":233,"country_code":"US","country_name":"United States","latitude":"36.76478000","longitude":"-77.85902000","wikiDataId":"Q494180"},{"id":112970,"Name":"Buchanan","state_id":1427,"state_code":"VA","state_name":"Virginia","country_id":233,"country_code":"US","country_name":"United States","latitude":"37.52736000","longitude":"-79.67976000","wikiDataId":"Q1376110"},{"id":112974,"Name":"Buchanan County","state_id":1427,"state_code":"VA","state_name":"Virginia","country_id":233,"country_code":"US","country_name":"United States","latitude":"37.26663000","longitude":"-82.03603000","wikiDataId":"Q495181"},{"id":112980,"Name":"Buckhall","state_id":1427,"state_code":"VA","state_name":"Virginia","country_id":233,"country_code":"US","country_name":"United States","latitude":"38.73178000","longitude":"-77.43110000","wikiDataId":"Q3473756"},{"id":112985,"Name":"Buckingham","state_id":1427,"state_code":"VA","state_name":"Virginia","country_id":233,"country_code":"US","country_name":"United States","latitude":"37.55015000","longitude":"-78.55556000","wikiDataId":"Q3474782"},{"id":112986,"Name":"Buckingham County","state_id":1427,"state_code":"VA","state_name":"Virginia","country_id":233,"country_code":"US","country_name":"United States","latitude":"37.57224000","longitude":"-78.52871000","wikiDataId":"Q495204"},{"id":113001,"Name":"Buena Vista","state_id":1427,"state_code":"VA","state_name":"Virginia","country_id":233,"country_code":"US","country_name":"United States","latitude":"37.73430000","longitude":"-79.35392000","wikiDataId":"Q503014"},{"id":113026,"Name":"Bull Run","state_id":1427,"state_code":"VA","state_name":"Virginia","country_id":233,"country_code":"US","country_name":"United States","latitude":"38.78373000","longitude":"-77.52055000","wikiDataId":"Q1376671"},{"id":113027,"Name":"Bull Run Mountain Estates","state_id":1427,"state_code":"VA","state_name":"Virginia","country_id":233,"country_code":"US","country_name":"United States","latitude":"38.90372000","longitude":"-77.66166000","wikiDataId":"Q4996618"},{"id":113054,"Name":"Burke","state_id":1427,"state_code":"VA","state_name":"Virginia","country_id":233,"country_code":"US","country_name":"United States","latitude":"38.79345000","longitude":"-77.27165000","wikiDataId":"Q1374615"},{"id":113301,"Name":"Campbell County","state_id":1427,"state_code":"VA","state_name":"Virginia","country_id":233,"country_code":"US","country_name":"United States","latitude":"37.20564000","longitude":"-79.09635000","wikiDataId":"Q495171"},{"id":113311,"Name":"Cana","state_id":1427,"state_code":"VA","state_name":"Virginia","country_id":233,"country_code":"US","country_name":"United States","latitude":"36.58958000","longitude":"-80.67173000","wikiDataId":"Q1376815"},{"id":113365,"Name":"Cape Charles","state_id":1427,"state_code":"VA","state_name":"Virginia","country_id":233,"country_code":"US","country_name":"United States","latitude":"37.27008000","longitude":"-76.01649000","wikiDataId":"Q1376790"},{"id":113379,"Name":"Captains Cove","state_id":1427,"state_code":"VA","state_name":"Virginia","country_id":233,"country_code":"US","country_name":"United States","latitude":"37.98996000","longitude":"-75.42272000","wikiDataId":"Q5036891"},{"id":113438,"Name":"Caroline County","state_id":1427,"state_code":"VA","state_name":"Virginia","country_id":233,"country_code":"US","country_name":"United States","latitude":"38.02682000","longitude":"-77.34696000","wikiDataId":"Q341708"},{"id":113457,"Name":"Carroll County","state_id":1427,"state_code":"VA","state_name":"Virginia","country_id":233,"country_code":"US","country_name":"United States","latitude":"36.73154000","longitude":"-80.73390000","wikiDataId":"Q488917"},{"id":113469,"Name":"Carrollton","state_id":1427,"state_code":"VA","state_name":"Virginia","country_id":233,"country_code":"US","country_name":"United States","latitude":"36.94682000","longitude":"-76.56051000","wikiDataId":"Q5046649"},{"id":113554,"Name":"Castlewood","state_id":1427,"state_code":"VA","state_name":"Virginia","country_id":233,"country_code":"US","country_name":"United States","latitude":"36.89010000","longitude":"-82.27959000","wikiDataId":"Q1374586"},{"id":113588,"Name":"Cave Spring","state_id":1427,"state_code":"VA","state_name":"Virginia","country_id":233,"country_code":"US","country_name":"United States","latitude":"37.22764000","longitude":"-80.01282000","wikiDataId":"Q1374740"},{"id":113602,"Name":"Cedar Bluff","state_id":1427,"state_code":"VA","state_name":"Virginia","country_id":233,"country_code":"US","country_name":"United States","latitude":"37.08761000","longitude":"-81.75900000","wikiDataId":"Q1374319"},{"id":113674,"Name":"Central Garage","state_id":1427,"state_code":"VA","state_name":"Virginia","country_id":233,"country_code":"US","country_name":"United States","latitude":"37.74403000","longitude":"-77.13164000","wikiDataId":"Q5061119"},{"id":113695,"Name":"Centreville","state_id":1427,"state_code":"VA","state_name":"Virginia","country_id":233,"country_code":"US","country_name":"United States","latitude":"38.84039000","longitude":"-77.42888000","wikiDataId":"Q1374678"},{"id":113719,"Name":"Chamberlayne","state_id":1427,"state_code":"VA","state_name":"Virginia","country_id":233,"country_code":"US","country_name":"United States","latitude":"37.62653000","longitude":"-77.42859000","wikiDataId":"Q1374990"},{"id":113738,"Name":"Chantilly","state_id":1427,"state_code":"VA","state_name":"Virginia","country_id":233,"country_code":"US","country_name":"United States","latitude":"38.89428000","longitude":"-77.43110000","wikiDataId":"Q328451"},{"id":113755,"Name":"Charles City","state_id":1427,"state_code":"VA","state_name":"Virginia","country_id":233,"country_code":"US","country_name":"United States","latitude":"37.34348000","longitude":"-77.07303000","wikiDataId":"Q3474376"},{"id":113756,"Name":"Charles City County","state_id":1427,"state_code":"VA","state_name":"Virginia","country_id":233,"country_code":"US","country_name":"United States","latitude":"37.35435000","longitude":"-77.05913000","wikiDataId":"Q337348"},{"id":113782,"Name":"Charlotte County","state_id":1427,"state_code":"VA","state_name":"Virginia","country_id":233,"country_code":"US","country_name":"United States","latitude":"37.01161000","longitude":"-78.66164000","wikiDataId":"Q427732"},{"id":113783,"Name":"Charlotte Court House","state_id":1427,"state_code":"VA","state_name":"Virginia","country_id":233,"country_code":"US","country_name":"United States","latitude":"37.05654000","longitude":"-78.63833000","wikiDataId":"Q1376592"},{"id":113787,"Name":"Charlottesville","state_id":1427,"state_code":"VA","state_name":"Virginia","country_id":233,"country_code":"US","country_name":"United States","latitude":"38.02931000","longitude":"-78.47668000","wikiDataId":"Q123766"},{"id":113791,"Name":"Chase City","state_id":1427,"state_code":"VA","state_name":"Virginia","country_id":233,"country_code":"US","country_name":"United States","latitude":"36.79931000","longitude":"-78.45833000","wikiDataId":"Q1376427"},{"id":113796,"Name":"Chatham","state_id":1427,"state_code":"VA","state_name":"Virginia","country_id":233,"country_code":"US","country_name":"United States","latitude":"36.82569000","longitude":"-79.39808000","wikiDataId":"Q1375371"},{"id":113803,"Name":"Chatmoss","state_id":1427,"state_code":"VA","state_name":"Virginia","country_id":233,"country_code":"US","country_name":"United States","latitude":"36.65680000","longitude":"-79.81226000","wikiDataId":"Q1374955"},{"id":113861,"Name":"Cherry Hill","state_id":1427,"state_code":"VA","state_name":"Virginia","country_id":233,"country_code":"US","country_name":"United States","latitude":"38.56984000","longitude":"-77.26693000","wikiDataId":"Q2842510"},{"id":113874,"Name":"Chesapeake","state_id":1427,"state_code":"VA","state_name":"Virginia","country_id":233,"country_code":"US","country_name":"United States","latitude":"36.81904000","longitude":"-76.27494000","wikiDataId":"Q49222"},{"id":113886,"Name":"Chester","state_id":1427,"state_code":"VA","state_name":"Virginia","country_id":233,"country_code":"US","country_name":"United States","latitude":"37.35682000","longitude":"-77.44165000","wikiDataId":"Q1375884"},{"id":113907,"Name":"Chesterfield County","state_id":1427,"state_code":"VA","state_name":"Virginia","country_id":233,"country_code":"US","country_name":"United States","latitude":"37.37852000","longitude":"-77.58694000","wikiDataId":"Q340608"},{"id":113908,"Name":"Chesterfield Court House","state_id":1427,"state_code":"VA","state_name":"Virginia","country_id":233,"country_code":"US","country_name":"United States","latitude":"37.37709000","longitude":"-77.50499000","wikiDataId":"Q1377220"},{"id":113952,"Name":"Chilhowie","state_id":1427,"state_code":"VA","state_name":"Virginia","country_id":233,"country_code":"US","country_name":"United States","latitude":"36.79845000","longitude":"-81.68234000","wikiDataId":"Q1373435"},{"id":113966,"Name":"Chincoteague","state_id":1427,"state_code":"VA","state_name":"Virginia","country_id":233,"country_code":"US","country_name":"United States","latitude":"37.93318000","longitude":"-75.37881000","wikiDataId":"Q1073686"},{"id":114000,"Name":"Christiansburg","state_id":1427,"state_code":"VA","state_name":"Virginia","country_id":233,"country_code":"US","country_name":"United States","latitude":"37.12985000","longitude":"-80.40894000","wikiDataId":"Q1376400"},{"id":114047,"Name":"City of Alexandria","state_id":1427,"state_code":"VA","state_name":"Virginia","country_id":233,"country_code":"US","country_name":"United States","latitude":"38.80484000","longitude":"-77.04692000","wikiDataId":"Q13188841"},{"id":114049,"Name":"City of Bedford","state_id":1427,"state_code":"VA","state_name":"Virginia","country_id":233,"country_code":"US","country_name":"United States","latitude":"37.33431000","longitude":"-79.52309000","wikiDataId":"Q13188841"},{"id":114050,"Name":"City of Bristol","state_id":1427,"state_code":"VA","state_name":"Virginia","country_id":233,"country_code":"US","country_name":"United States","latitude":"36.59649000","longitude":"-82.18847000","wikiDataId":"Q13188841"},{"id":114051,"Name":"City of Buena Vista","state_id":1427,"state_code":"VA","state_name":"Virginia","country_id":233,"country_code":"US","country_name":"United States","latitude":"37.73430000","longitude":"-79.35392000","wikiDataId":"Q13188841"},{"id":114052,"Name":"City of Charlottesville","state_id":1427,"state_code":"VA","state_name":"Virginia","country_id":233,"country_code":"US","country_name":"United States","latitude":"38.02931000","longitude":"-78.47668000","wikiDataId":"Q13188841"},{"id":114053,"Name":"City of Chesapeake","state_id":1427,"state_code":"VA","state_name":"Virginia","country_id":233,"country_code":"US","country_name":"United States","latitude":"36.68765000","longitude":"-76.31216000","wikiDataId":"Q13188841"},{"id":114054,"Name":"City of Colonial Heights","state_id":1427,"state_code":"VA","state_name":"Virginia","country_id":233,"country_code":"US","country_name":"United States","latitude":"37.24404000","longitude":"-77.41026000","wikiDataId":"Q13188841"},{"id":114055,"Name":"City of Covington","state_id":1427,"state_code":"VA","state_name":"Virginia","country_id":233,"country_code":"US","country_name":"United States","latitude":"37.79346000","longitude":"-79.99395000","wikiDataId":"Q13188841"},{"id":114056,"Name":"City of Danville","state_id":1427,"state_code":"VA","state_name":"Virginia","country_id":233,"country_code":"US","country_name":"United States","latitude":"36.58597000","longitude":"-79.39502000","wikiDataId":"Q13188841"},{"id":114057,"Name":"City of Emporia","state_id":1427,"state_code":"VA","state_name":"Virginia","country_id":233,"country_code":"US","country_name":"United States","latitude":"36.68598000","longitude":"-77.54248000","wikiDataId":"Q13188841"},{"id":114058,"Name":"City of Fairfax","state_id":1427,"state_code":"VA","state_name":"Virginia","country_id":233,"country_code":"US","country_name":"United States","latitude":"38.84622000","longitude":"-77.30637000","wikiDataId":"Q13188841"},{"id":114059,"Name":"City of Falls Church","state_id":1427,"state_code":"VA","state_name":"Virginia","country_id":233,"country_code":"US","country_name":"United States","latitude":"38.88233000","longitude":"-77.17109000","wikiDataId":"Q13188841"},{"id":114060,"Name":"City of Franklin","state_id":1427,"state_code":"VA","state_name":"Virginia","country_id":233,"country_code":"US","country_name":"United States","latitude":"36.67765000","longitude":"-76.92246000","wikiDataId":"Q13188841"},{"id":114061,"Name":"City of Fredericksburg","state_id":1427,"state_code":"VA","state_name":"Virginia","country_id":233,"country_code":"US","country_name":"United States","latitude":"38.30318000","longitude":"-77.46054000","wikiDataId":"Q13188841"},{"id":114062,"Name":"City of Galax","state_id":1427,"state_code":"VA","state_name":"Virginia","country_id":233,"country_code":"US","country_name":"United States","latitude":"36.66124000","longitude":"-80.92397000","wikiDataId":"Q13188841"},{"id":114063,"Name":"City of Hampton","state_id":1427,"state_code":"VA","state_name":"Virginia","country_id":233,"country_code":"US","country_name":"United States","latitude":"37.06265000","longitude":"-76.33300000","wikiDataId":"Q13188841"},{"id":114064,"Name":"City of Harrisonburg","state_id":1427,"state_code":"VA","state_name":"Virginia","country_id":233,"country_code":"US","country_name":"United States","latitude":"38.44957000","longitude":"-78.86892000","wikiDataId":"Q13188841"},{"id":114065,"Name":"City of Hopewell","state_id":1427,"state_code":"VA","state_name":"Virginia","country_id":233,"country_code":"US","country_name":"United States","latitude":"37.30432000","longitude":"-77.28720000","wikiDataId":"Q13188841"},{"id":114066,"Name":"City of Lexington","state_id":1427,"state_code":"VA","state_name":"Virginia","country_id":233,"country_code":"US","country_name":"United States","latitude":"37.77309000","longitude":"-79.45244000","wikiDataId":"Q13188841"},{"id":114067,"Name":"City of Lynchburg","state_id":1427,"state_code":"VA","state_name":"Virginia","country_id":233,"country_code":"US","country_name":"United States","latitude":"37.41375000","longitude":"-79.14225000","wikiDataId":"Q13188841"},{"id":114068,"Name":"City of Manassas","state_id":1427,"state_code":"VA","state_name":"Virginia","country_id":233,"country_code":"US","country_name":"United States","latitude":"38.75095000","longitude":"-77.47527000","wikiDataId":"Q13188841"},{"id":114069,"Name":"City of Manassas Park","state_id":1427,"state_code":"VA","state_name":"Virginia","country_id":233,"country_code":"US","country_name":"United States","latitude":"38.78400000","longitude":"-77.46971000","wikiDataId":"Q13188841"},{"id":114070,"Name":"City of Martinsville","state_id":1427,"state_code":"VA","state_name":"Virginia","country_id":233,"country_code":"US","country_name":"United States","latitude":"36.69153000","longitude":"-79.87254000","wikiDataId":"Q13188841"},{"id":114072,"Name":"City of Newport News","state_id":1427,"state_code":"VA","state_name":"Virginia","country_id":233,"country_code":"US","country_name":"United States","latitude":"37.06265000","longitude":"-76.50801000","wikiDataId":"Q13188841"},{"id":114073,"Name":"City of Norfolk","state_id":1427,"state_code":"VA","state_name":"Virginia","country_id":233,"country_code":"US","country_name":"United States","latitude":"36.89126000","longitude":"-76.26188000","wikiDataId":"Q13188841"},{"id":114074,"Name":"City of Norton","state_id":1427,"state_code":"VA","state_name":"Virginia","country_id":233,"country_code":"US","country_name":"United States","latitude":"36.93343000","longitude":"-82.62905000","wikiDataId":"Q13188841"},{"id":114075,"Name":"City of Petersburg","state_id":1427,"state_code":"VA","state_name":"Virginia","country_id":233,"country_code":"US","country_name":"United States","latitude":"37.22793000","longitude":"-77.40193000","wikiDataId":"Q13188841"},{"id":114076,"Name":"City of Poquoson","state_id":1427,"state_code":"VA","state_name":"Virginia","country_id":233,"country_code":"US","country_name":"United States","latitude":"37.12237000","longitude":"-76.34578000","wikiDataId":"Q13188841"},{"id":114077,"Name":"City of Portsmouth","state_id":1427,"state_code":"VA","state_name":"Virginia","country_id":233,"country_code":"US","country_name":"United States","latitude":"36.83649000","longitude":"-76.30795000","wikiDataId":"Q13188841"},{"id":114078,"Name":"City of Radford","state_id":1427,"state_code":"VA","state_name":"Virginia","country_id":233,"country_code":"US","country_name":"United States","latitude":"37.13179000","longitude":"-80.57645000","wikiDataId":"Q13188841"},{"id":114079,"Name":"City of Richmond","state_id":1427,"state_code":"VA","state_name":"Virginia","country_id":233,"country_code":"US","country_name":"United States","latitude":"37.55376000","longitude":"-77.46026000","wikiDataId":"Q13188841"},{"id":114080,"Name":"City of Roanoke","state_id":1427,"state_code":"VA","state_name":"Virginia","country_id":233,"country_code":"US","country_name":"United States","latitude":"37.27097000","longitude":"-79.94143000","wikiDataId":"Q13188841"},{"id":114082,"Name":"City of Salem","state_id":1427,"state_code":"VA","state_name":"Virginia","country_id":233,"country_code":"US","country_name":"United States","latitude":"37.29347000","longitude":"-80.05476000","wikiDataId":"Q13188841"},{"id":114084,"Name":"City of Staunton","state_id":1427,"state_code":"VA","state_name":"Virginia","country_id":233,"country_code":"US","country_name":"United States","latitude":"38.14931000","longitude":"-79.05963000","wikiDataId":"Q13188841"},{"id":114085,"Name":"City of Suffolk","state_id":1427,"state_code":"VA","state_name":"Virginia","country_id":233,"country_code":"US","country_name":"United States","latitude":"36.70848000","longitude":"-76.60801000","wikiDataId":"Q13188841"},{"id":114086,"Name":"City of Virginia Beach","state_id":1427,"state_code":"VA","state_name":"Virginia","country_id":233,"country_code":"US","country_name":"United States","latitude":"36.73765000","longitude":"-76.00521000","wikiDataId":"Q13188841"},{"id":114087,"Name":"City of Waynesboro","state_id":1427,"state_code":"VA","state_name":"Virginia","country_id":233,"country_code":"US","country_name":"United States","latitude":"38.06847000","longitude":"-78.88947000","wikiDataId":"Q13188841"},{"id":114088,"Name":"City of Williamsburg","state_id":1427,"state_code":"VA","state_name":"Virginia","country_id":233,"country_code":"US","country_name":"United States","latitude":"37.27070000","longitude":"-76.70746000","wikiDataId":"Q13188841"},{"id":114089,"Name":"City of Winchester","state_id":1427,"state_code":"VA","state_name":"Virginia","country_id":233,"country_code":"US","country_name":"United States","latitude":"39.18566000","longitude":"-78.16333000","wikiDataId":"Q13188841"},{"id":114137,"Name":"Clarke County","state_id":1427,"state_code":"VA","state_name":"Virginia","country_id":233,"country_code":"US","country_name":"United States","latitude":"39.11226000","longitude":"-77.99673000","wikiDataId":"Q495142"},{"id":114157,"Name":"Clarksville","state_id":1427,"state_code":"VA","state_name":"Virginia","country_id":233,"country_code":"US","country_name":"United States","latitude":"36.62403000","longitude":"-78.55694000","wikiDataId":"Q1095896"},{"id":114194,"Name":"Claypool Hill","state_id":1427,"state_code":"VA","state_name":"Virginia","country_id":233,"country_code":"US","country_name":"United States","latitude":"37.06261000","longitude":"-81.75178000","wikiDataId":"Q1374722"},{"id":114262,"Name":"Clifton Forge","state_id":1427,"state_code":"VA","state_name":"Virginia","country_id":233,"country_code":"US","country_name":"United States","latitude":"37.81624000","longitude":"-79.82449000","wikiDataId":"Q1373469"},{"id":114300,"Name":"Clintwood","state_id":1427,"state_code":"VA","state_name":"Virginia","country_id":233,"country_code":"US","country_name":"United States","latitude":"37.15011000","longitude":"-82.45598000","wikiDataId":"Q1373497"},{"id":114310,"Name":"Cloverdale","state_id":1427,"state_code":"VA","state_name":"Virginia","country_id":233,"country_code":"US","country_name":"United States","latitude":"37.36514000","longitude":"-79.90560000","wikiDataId":"Q1374643"},{"id":114365,"Name":"Coeburn","state_id":1427,"state_code":"VA","state_name":"Virginia","country_id":233,"country_code":"US","country_name":"United States","latitude":"36.94399000","longitude":"-82.46404000","wikiDataId":"Q1377282"},{"id":114438,"Name":"Collinsville","state_id":1427,"state_code":"VA","state_name":"Virginia","country_id":233,"country_code":"US","country_name":"United States","latitude":"36.71514000","longitude":"-79.91532000","wikiDataId":"Q1376378"},{"id":114447,"Name":"Colonial Beach","state_id":1427,"state_code":"VA","state_name":"Virginia","country_id":233,"country_code":"US","country_name":"United States","latitude":"38.25457000","longitude":"-76.96358000","wikiDataId":"Q1110876"},{"id":114449,"Name":"Colonial Heights","state_id":1427,"state_code":"VA","state_name":"Virginia","country_id":233,"country_code":"US","country_name":"United States","latitude":"37.26804000","longitude":"-77.40726000","wikiDataId":"Q501789"},{"id":114537,"Name":"Concord","state_id":1427,"state_code":"VA","state_name":"Virginia","country_id":233,"country_code":"US","country_name":"United States","latitude":"37.34264000","longitude":"-78.97502000","wikiDataId":"Q5781170"},{"id":114725,"Name":"Countryside","state_id":1427,"state_code":"VA","state_name":"Virginia","country_id":233,"country_code":"US","country_name":"United States","latitude":"39.04094000","longitude":"-77.41360000","wikiDataId":"Q2876291"},{"id":114728,"Name":"Courtland","state_id":1427,"state_code":"VA","state_name":"Virginia","country_id":233,"country_code":"US","country_name":"United States","latitude":"36.71626000","longitude":"-77.06802000","wikiDataId":"Q1376759"},{"id":114739,"Name":"Covington","state_id":1427,"state_code":"VA","state_name":"Virginia","country_id":233,"country_code":"US","country_name":"United States","latitude":"37.79346000","longitude":"-79.99395000","wikiDataId":"Q511908"},{"id":114758,"Name":"Craig County","state_id":1427,"state_code":"VA","state_name":"Virginia","country_id":233,"country_code":"US","country_name":"United States","latitude":"37.48125000","longitude":"-80.21234000","wikiDataId":"Q495185"},{"id":114818,"Name":"Crewe","state_id":1427,"state_code":"VA","state_name":"Virginia","country_id":233,"country_code":"US","country_name":"United States","latitude":"37.17321000","longitude":"-78.12333000","wikiDataId":"Q1376628"},{"id":114820,"Name":"Crimora","state_id":1427,"state_code":"VA","state_name":"Virginia","country_id":233,"country_code":"US","country_name":"United States","latitude":"38.15402000","longitude":"-78.85030000","wikiDataId":"Q1374431"},{"id":114871,"Name":"Crozet","state_id":1427,"state_code":"VA","state_name":"Virginia","country_id":233,"country_code":"US","country_name":"United States","latitude":"38.06958000","longitude":"-78.70058000","wikiDataId":"Q1141856"},{"id":114900,"Name":"Culpeper","state_id":1427,"state_code":"VA","state_name":"Virginia","country_id":233,"country_code":"US","country_name":"United States","latitude":"38.47318000","longitude":"-77.99666000","wikiDataId":"Q990985"},{"id":114901,"Name":"Culpeper County","state_id":1427,"state_code":"VA","state_name":"Virginia","country_id":233,"country_code":"US","country_name":"United States","latitude":"38.48606000","longitude":"-77.95589000","wikiDataId":"Q495154"},{"id":114908,"Name":"Cumberland","state_id":1427,"state_code":"VA","state_name":"Virginia","country_id":233,"country_code":"US","country_name":"United States","latitude":"37.49598000","longitude":"-78.24527000","wikiDataId":"Q1523467"},{"id":114917,"Name":"Cumberland County","state_id":1427,"state_code":"VA","state_name":"Virginia","country_id":233,"country_code":"US","country_name":"United States","latitude":"37.51210000","longitude":"-78.24496000","wikiDataId":"Q495116"},{"id":114970,"Name":"Dahlgren","state_id":1427,"state_code":"VA","state_name":"Virginia","country_id":233,"country_code":"US","country_name":"United States","latitude":"38.33124000","longitude":"-77.05109000","wikiDataId":"Q746892"},{"id":114981,"Name":"Dale City","state_id":1427,"state_code":"VA","state_name":"Virginia","country_id":233,"country_code":"US","country_name":"United States","latitude":"38.63706000","longitude":"-77.31109000","wikiDataId":"Q976180"},{"id":114984,"Name":"Daleville","state_id":1427,"state_code":"VA","state_name":"Virginia","country_id":233,"country_code":"US","country_name":"United States","latitude":"37.40986000","longitude":"-79.91254000","wikiDataId":"Q1374881"},{"id":115039,"Name":"Danville","state_id":1427,"state_code":"VA","state_name":"Virginia","country_id":233,"country_code":"US","country_name":"United States","latitude":"36.58597000","longitude":"-79.39502000","wikiDataId":"Q511922"},{"id":115094,"Name":"Dayton","state_id":1427,"state_code":"VA","state_name":"Virginia","country_id":233,"country_code":"US","country_name":"United States","latitude":"38.41485000","longitude":"-78.93864000","wikiDataId":"Q1375454"},{"id":115228,"Name":"Deltaville","state_id":1427,"state_code":"VA","state_name":"Virginia","country_id":233,"country_code":"US","country_name":"United States","latitude":"37.55486000","longitude":"-76.33689000","wikiDataId":"Q5645655"},{"id":115322,"Name":"Dickenson County","state_id":1427,"state_code":"VA","state_name":"Virginia","country_id":233,"country_code":"US","country_name":"United States","latitude":"37.12574000","longitude":"-82.35035000","wikiDataId":"Q495169"},{"id":115352,"Name":"Dinwiddie County","state_id":1427,"state_code":"VA","state_name":"Virginia","country_id":233,"country_code":"US","country_name":"United States","latitude":"37.07590000","longitude":"-77.63236000","wikiDataId":"Q340606"},{"id":115405,"Name":"Dooms","state_id":1427,"state_code":"VA","state_name":"Virginia","country_id":233,"country_code":"US","country_name":"United States","latitude":"38.10902000","longitude":"-78.85752000","wikiDataId":"Q1374888"},{"id":115468,"Name":"Dranesville","state_id":1427,"state_code":"VA","state_name":"Virginia","country_id":233,"country_code":"US","country_name":"United States","latitude":"39.00067000","longitude":"-77.34582000","wikiDataId":"Q590852"},{"id":115484,"Name":"Dryden","state_id":1427,"state_code":"VA","state_name":"Virginia","country_id":233,"country_code":"US","country_name":"United States","latitude":"36.77759000","longitude":"-82.94155000","wikiDataId":"Q1374496"},{"id":115493,"Name":"Dublin","state_id":1427,"state_code":"VA","state_name":"Virginia","country_id":233,"country_code":"US","country_name":"United States","latitude":"37.10568000","longitude":"-80.68534000","wikiDataId":"Q1373580"},{"id":115511,"Name":"Dulles Town Center","state_id":1427,"state_code":"VA","state_name":"Virginia","country_id":233,"country_code":"US","country_name":"United States","latitude":"39.03761000","longitude":"-77.41582000","wikiDataId":"Q226045"},{"id":115516,"Name":"Dumbarton","state_id":1427,"state_code":"VA","state_name":"Virginia","country_id":233,"country_code":"US","country_name":"United States","latitude":"37.60376000","longitude":"-77.49137000","wikiDataId":"Q582052"},{"id":115517,"Name":"Dumfries","state_id":1427,"state_code":"VA","state_name":"Virginia","country_id":233,"country_code":"US","country_name":"United States","latitude":"38.56762000","longitude":"-77.32804000","wikiDataId":"Q1375743"},{"id":115549,"Name":"Dunn Loring","state_id":1427,"state_code":"VA","state_name":"Virginia","country_id":233,"country_code":"US","country_name":"United States","latitude":"38.89344000","longitude":"-77.22165000","wikiDataId":"Q1266198"},{"id":115679,"Name":"East Hampton","state_id":1427,"state_code":"VA","state_name":"Virginia","country_id":233,"country_code":"US","country_name":"United States","latitude":"37.03737000","longitude":"-76.33161000","wikiDataId":"Q753922"},{"id":115690,"Name":"East Highland Park","state_id":1427,"state_code":"VA","state_name":"Virginia","country_id":233,"country_code":"US","country_name":"United States","latitude":"37.58098000","longitude":"-77.40693000","wikiDataId":"Q1374795"},{"id":115704,"Name":"East Lexington","state_id":1427,"state_code":"VA","state_name":"Virginia","country_id":233,"country_code":"US","country_name":"United States","latitude":"37.79291000","longitude":"-79.42532000","wikiDataId":"Q5328826"},{"id":115798,"Name":"Eastville","state_id":1427,"state_code":"VA","state_name":"Virginia","country_id":233,"country_code":"US","country_name":"United States","latitude":"37.35264000","longitude":"-75.94576000","wikiDataId":"Q987458"},{"id":115871,"Name":"Edinburg","state_id":1427,"state_code":"VA","state_name":"Virginia","country_id":233,"country_code":"US","country_name":"United States","latitude":"38.82095000","longitude":"-78.56585000","wikiDataId":"Q1375136"},{"id":116014,"Name":"Elkton","state_id":1427,"state_code":"VA","state_name":"Virginia","country_id":233,"country_code":"US","country_name":"United States","latitude":"38.40790000","longitude":"-78.62363000","wikiDataId":"Q1375226"},{"id":116109,"Name":"Emory","state_id":1427,"state_code":"VA","state_name":"Virginia","country_id":233,"country_code":"US","country_name":"United States","latitude":"36.77289000","longitude":"-81.83623000","wikiDataId":"Q5373674"},{"id":116112,"Name":"Emporia","state_id":1427,"state_code":"VA","state_name":"Virginia","country_id":233,"country_code":"US","country_name":"United States","latitude":"36.68598000","longitude":"-77.54248000","wikiDataId":"Q177678"},{"id":116145,"Name":"Enon","state_id":1427,"state_code":"VA","state_name":"Virginia","country_id":233,"country_code":"US","country_name":"United States","latitude":"37.33070000","longitude":"-77.32276000","wikiDataId":"Q5379391"},{"id":116193,"Name":"Essex County","state_id":1427,"state_code":"VA","state_name":"Virginia","country_id":233,"country_code":"US","country_name":"United States","latitude":"37.93906000","longitude":"-76.94090000","wikiDataId":"Q182112"},{"id":116220,"Name":"Ettrick","state_id":1427,"state_code":"VA","state_name":"Virginia","country_id":233,"country_code":"US","country_name":"United States","latitude":"37.24015000","longitude":"-77.42998000","wikiDataId":"Q1376943"},{"id":116275,"Name":"Exmore","state_id":1427,"state_code":"VA","state_name":"Virginia","country_id":233,"country_code":"US","country_name":"United States","latitude":"37.53180000","longitude":"-75.82299000","wikiDataId":"Q1374222"},{"id":116303,"Name":"Fairfax","state_id":1427,"state_code":"VA","state_name":"Virginia","country_id":233,"country_code":"US","country_name":"United States","latitude":"38.84622000","longitude":"-77.30637000","wikiDataId":"Q501785"},{"id":116307,"Name":"Fairfax County","state_id":1427,"state_code":"VA","state_name":"Virginia","country_id":233,"country_code":"US","country_name":"United States","latitude":"38.83469000","longitude":"-77.27622000","wikiDataId":"Q341915"},{"id":116308,"Name":"Fairfax Station","state_id":1427,"state_code":"VA","state_name":"Virginia","country_id":233,"country_code":"US","country_name":"United States","latitude":"38.80095000","longitude":"-77.32554000","wikiDataId":"Q3473963"},{"id":116330,"Name":"Fairlawn","state_id":1427,"state_code":"VA","state_name":"Virginia","country_id":233,"country_code":"US","country_name":"United States","latitude":"37.14846000","longitude":"-80.57839000","wikiDataId":"Q1376028"},{"id":116380,"Name":"Falls Church","state_id":1427,"state_code":"VA","state_name":"Virginia","country_id":233,"country_code":"US","country_name":"United States","latitude":"38.88233000","longitude":"-77.17109000","wikiDataId":"Q408744"},{"id":116387,"Name":"Falmouth","state_id":1427,"state_code":"VA","state_name":"Virginia","country_id":233,"country_code":"US","country_name":"United States","latitude":"38.32402000","longitude":"-77.46832000","wikiDataId":"Q1375083"},{"id":116427,"Name":"Farmville","state_id":1427,"state_code":"VA","state_name":"Virginia","country_id":233,"country_code":"US","country_name":"United States","latitude":"37.30210000","longitude":"-78.39194000","wikiDataId":"Q1375202"},{"id":116436,"Name":"Fauquier County","state_id":1427,"state_code":"VA","state_name":"Virginia","country_id":233,"country_code":"US","country_name":"United States","latitude":"38.73855000","longitude":"-77.80927000","wikiDataId":"Q502213"},{"id":116497,"Name":"Ferrum","state_id":1427,"state_code":"VA","state_name":"Virginia","country_id":233,"country_code":"US","country_name":"United States","latitude":"36.92292000","longitude":"-80.01337000","wikiDataId":"Q1375063"},{"id":116514,"Name":"Fincastle","state_id":1427,"state_code":"VA","state_name":"Virginia","country_id":233,"country_code":"US","country_name":"United States","latitude":"37.49930000","longitude":"-79.87726000","wikiDataId":"Q527127"},{"id":116530,"Name":"Fishersville","state_id":1427,"state_code":"VA","state_name":"Virginia","country_id":233,"country_code":"US","country_name":"United States","latitude":"38.09902000","longitude":"-78.96919000","wikiDataId":"Q1377084"},{"id":116596,"Name":"Floris","state_id":1427,"state_code":"VA","state_name":"Virginia","country_id":233,"country_code":"US","country_name":"United States","latitude":"38.93706000","longitude":"-77.41277000","wikiDataId":"Q5461890"},{"id":116605,"Name":"Floyd","state_id":1427,"state_code":"VA","state_name":"Virginia","country_id":233,"country_code":"US","country_name":"United States","latitude":"36.91124000","longitude":"-80.32005000","wikiDataId":"Q1376660"},{"id":116609,"Name":"Floyd County","state_id":1427,"state_code":"VA","state_name":"Virginia","country_id":233,"country_code":"US","country_name":"United States","latitude":"36.93149000","longitude":"-80.36255000","wikiDataId":"Q502031"},{"id":116614,"Name":"Fluvanna County","state_id":1427,"state_code":"VA","state_name":"Virginia","country_id":233,"country_code":"US","country_name":"United States","latitude":"37.84187000","longitude":"-78.27745000","wikiDataId":"Q502014"},{"id":116644,"Name":"Forest","state_id":1427,"state_code":"VA","state_name":"Virginia","country_id":233,"country_code":"US","country_name":"United States","latitude":"37.36375000","longitude":"-79.28975000","wikiDataId":"Q1374602"},{"id":116691,"Name":"Fort Belvoir","state_id":1427,"state_code":"VA","state_name":"Virginia","country_id":233,"country_code":"US","country_name":"United States","latitude":"38.71190000","longitude":"-77.14589000","wikiDataId":"Q1375761"},{"id":116718,"Name":"Fort Hunt","state_id":1427,"state_code":"VA","state_name":"Virginia","country_id":233,"country_code":"US","country_name":"United States","latitude":"38.73289000","longitude":"-77.05803000","wikiDataId":"Q1374820"},{"id":116724,"Name":"Fort Lee","state_id":1427,"state_code":"VA","state_name":"Virginia","country_id":233,"country_code":"US","country_name":"United States","latitude":"37.24694000","longitude":"-77.33442000","wikiDataId":"Q1376750"},{"id":116816,"Name":"Franconia","state_id":1427,"state_code":"VA","state_name":"Virginia","country_id":233,"country_code":"US","country_name":"United States","latitude":"38.78206000","longitude":"-77.14637000","wikiDataId":"Q1374404"},{"id":116831,"Name":"Franklin","state_id":1427,"state_code":"VA","state_name":"Virginia","country_id":233,"country_code":"US","country_name":"United States","latitude":"36.67765000","longitude":"-76.92246000","wikiDataId":"Q350001"},{"id":116856,"Name":"Franklin County","state_id":1427,"state_code":"VA","state_name":"Virginia","country_id":233,"country_code":"US","country_name":"United States","latitude":"36.99194000","longitude":"-79.88104000","wikiDataId":"Q502036"},{"id":116889,"Name":"Frederick County","state_id":1427,"state_code":"VA","state_name":"Virginia","country_id":233,"country_code":"US","country_name":"United States","latitude":"39.20456000","longitude":"-78.26258000","wikiDataId":"Q502021"},{"id":116891,"Name":"Fredericksburg","state_id":1427,"state_code":"VA","state_name":"Virginia","country_id":233,"country_code":"US","country_name":"United States","latitude":"38.30318000","longitude":"-77.46054000","wikiDataId":"Q492342"},{"id":116960,"Name":"Front Royal","state_id":1427,"state_code":"VA","state_name":"Virginia","country_id":233,"country_code":"US","country_name":"United States","latitude":"38.91817000","longitude":"-78.19444000","wikiDataId":"Q508358"},{"id":117018,"Name":"Gainesville","state_id":1427,"state_code":"VA","state_name":"Virginia","country_id":233,"country_code":"US","country_name":"United States","latitude":"38.79567000","longitude":"-77.61388000","wikiDataId":"Q1374347"},{"id":117020,"Name":"Galax","state_id":1427,"state_code":"VA","state_name":"Virginia","country_id":233,"country_code":"US","country_name":"United States","latitude":"36.66124000","longitude":"-80.92397000","wikiDataId":"Q503000"},{"id":117118,"Name":"Gate City","state_id":1427,"state_code":"VA","state_name":"Virginia","country_id":233,"country_code":"US","country_name":"United States","latitude":"36.63788000","longitude":"-82.58099000","wikiDataId":"Q1373690"},{"id":117211,"Name":"Giles County","state_id":1427,"state_code":"VA","state_name":"Virginia","country_id":233,"country_code":"US","country_name":"United States","latitude":"37.31403000","longitude":"-80.70374000","wikiDataId":"Q951290"},{"id":117232,"Name":"Glade Spring","state_id":1427,"state_code":"VA","state_name":"Virginia","country_id":233,"country_code":"US","country_name":"United States","latitude":"36.79122000","longitude":"-81.77123000","wikiDataId":"Q1376997"},{"id":117248,"Name":"Glasgow","state_id":1427,"state_code":"VA","state_name":"Virginia","country_id":233,"country_code":"US","country_name":"United States","latitude":"37.63402000","longitude":"-79.45031000","wikiDataId":"Q1376339"},{"id":117259,"Name":"Glen Allen","state_id":1427,"state_code":"VA","state_name":"Virginia","country_id":233,"country_code":"US","country_name":"United States","latitude":"37.66598000","longitude":"-77.50637000","wikiDataId":"Q1374751"},{"id":117325,"Name":"Gloucester County","state_id":1427,"state_code":"VA","state_name":"Virginia","country_id":233,"country_code":"US","country_name":"United States","latitude":"37.40121000","longitude":"-76.52297000","wikiDataId":"Q335121"},{"id":117326,"Name":"Gloucester Courthouse","state_id":1427,"state_code":"VA","state_name":"Virginia","country_id":233,"country_code":"US","country_name":"United States","latitude":"37.40986000","longitude":"-76.52662000","wikiDataId":"Q1376442"},{"id":117327,"Name":"Gloucester Point","state_id":1427,"state_code":"VA","state_name":"Virginia","country_id":233,"country_code":"US","country_name":"United States","latitude":"37.25403000","longitude":"-76.49689000","wikiDataId":"Q1376743"},{"id":117375,"Name":"Goochland","state_id":1427,"state_code":"VA","state_name":"Virginia","country_id":233,"country_code":"US","country_name":"United States","latitude":"37.68431000","longitude":"-77.88527000","wikiDataId":"Q5582373"},{"id":117376,"Name":"Goochland County","state_id":1427,"state_code":"VA","state_name":"Virginia","country_id":233,"country_code":"US","country_name":"United States","latitude":"37.72198000","longitude":"-77.91636000","wikiDataId":"Q506191"},{"id":117401,"Name":"Gordonsville","state_id":1427,"state_code":"VA","state_name":"Virginia","country_id":233,"country_code":"US","country_name":"United States","latitude":"38.13736000","longitude":"-78.18778000","wikiDataId":"Q1376615"},{"id":117564,"Name":"Grayson County","state_id":1427,"state_code":"VA","state_name":"Virginia","country_id":233,"country_code":"US","country_name":"United States","latitude":"36.65659000","longitude":"-81.22505000","wikiDataId":"Q502207"},{"id":117572,"Name":"Great Falls","state_id":1427,"state_code":"VA","state_name":"Virginia","country_id":233,"country_code":"US","country_name":"United States","latitude":"38.99817000","longitude":"-77.28832000","wikiDataId":"Q972543"},{"id":117617,"Name":"Greenbriar","state_id":1427,"state_code":"VA","state_name":"Virginia","country_id":233,"country_code":"US","country_name":"United States","latitude":"38.87345000","longitude":"-77.40082000","wikiDataId":"Q5603722"},{"id":117640,"Name":"Greene County","state_id":1427,"state_code":"VA","state_name":"Virginia","country_id":233,"country_code":"US","country_name":"United States","latitude":"38.29760000","longitude":"-78.46688000","wikiDataId":"Q163097"},{"id":117673,"Name":"Greensville County","state_id":1427,"state_code":"VA","state_name":"Virginia","country_id":233,"country_code":"US","country_name":"United States","latitude":"36.67585000","longitude":"-77.55958000","wikiDataId":"Q340605"},{"id":117726,"Name":"Gretna","state_id":1427,"state_code":"VA","state_name":"Virginia","country_id":233,"country_code":"US","country_name":"United States","latitude":"36.95375000","longitude":"-79.35891000","wikiDataId":"Q1373402"},{"id":117753,"Name":"Grottoes","state_id":1427,"state_code":"VA","state_name":"Virginia","country_id":233,"country_code":"US","country_name":"United States","latitude":"38.26735000","longitude":"-78.82586000","wikiDataId":"Q2072104"},{"id":117763,"Name":"Groveton","state_id":1427,"state_code":"VA","state_name":"Virginia","country_id":233,"country_code":"US","country_name":"United States","latitude":"38.76734000","longitude":"-77.08470000","wikiDataId":"Q1374484"},{"id":117768,"Name":"Grundy","state_id":1427,"state_code":"VA","state_name":"Virginia","country_id":233,"country_code":"US","country_name":"United States","latitude":"37.27789000","longitude":"-82.09902000","wikiDataId":"Q1028061"},{"id":117860,"Name":"Halifax","state_id":1427,"state_code":"VA","state_name":"Virginia","country_id":233,"country_code":"US","country_name":"United States","latitude":"36.76597000","longitude":"-78.92834000","wikiDataId":"Q1374283"},{"id":117863,"Name":"Halifax County","state_id":1427,"state_code":"VA","state_name":"Virginia","country_id":233,"country_code":"US","country_name":"United States","latitude":"36.76695000","longitude":"-78.93662000","wikiDataId":"Q505886"},{"id":117919,"Name":"Hampden Sydney","state_id":1427,"state_code":"VA","state_name":"Virginia","country_id":233,"country_code":"US","country_name":"United States","latitude":"37.24237000","longitude":"-78.45972000","wikiDataId":"Q1377230"},{"id":117931,"Name":"Hampton","state_id":1427,"state_code":"VA","state_name":"Virginia","country_id":233,"country_code":"US","country_name":"United States","latitude":"37.02987000","longitude":"-76.34522000","wikiDataId":"Q342043"},{"id":117969,"Name":"Hanover","state_id":1427,"state_code":"VA","state_name":"Virginia","country_id":233,"country_code":"US","country_name":"United States","latitude":"37.76653000","longitude":"-77.37026000","wikiDataId":"Q3473803"},{"id":117974,"Name":"Hanover County","state_id":1427,"state_code":"VA","state_name":"Virginia","country_id":233,"country_code":"US","country_name":"United States","latitude":"37.76015000","longitude":"-77.49087000","wikiDataId":"Q341679"},{"id":118070,"Name":"Harrisonburg","state_id":1427,"state_code":"VA","state_name":"Virginia","country_id":233,"country_code":"US","country_name":"United States","latitude":"38.44957000","longitude":"-78.86892000","wikiDataId":"Q511935"},{"id":118184,"Name":"Hayfield","state_id":1427,"state_code":"VA","state_name":"Virginia","country_id":233,"country_code":"US","country_name":"United States","latitude":"38.75178000","longitude":"-77.13581000","wikiDataId":"Q5893029"},{"id":118187,"Name":"Haymarket","state_id":1427,"state_code":"VA","state_name":"Virginia","country_id":233,"country_code":"US","country_name":"United States","latitude":"38.81206000","longitude":"-77.63638000","wikiDataId":"Q685489"},{"id":118225,"Name":"Heathsville","state_id":1427,"state_code":"VA","state_name":"Virginia","country_id":233,"country_code":"US","country_name":"United States","latitude":"37.91763000","longitude":"-76.47217000","wikiDataId":"Q3473949"},{"id":118294,"Name":"Henrico County","state_id":1427,"state_code":"VA","state_name":"Virginia","country_id":233,"country_code":"US","country_name":"United States","latitude":"37.45771000","longitude":"-77.29646000","wikiDataId":"Q341639"},{"id":118303,"Name":"Henry County","state_id":1427,"state_code":"VA","state_name":"Virginia","country_id":233,"country_code":"US","country_name":"United States","latitude":"36.68470000","longitude":"-79.98152000","wikiDataId":"Q505841"},{"id":118306,"Name":"Henry Fork","state_id":1427,"state_code":"VA","state_name":"Virginia","country_id":233,"country_code":"US","country_name":"United States","latitude":"36.96625000","longitude":"-79.87031000","wikiDataId":"Q5894517"},{"id":118336,"Name":"Herndon","state_id":1427,"state_code":"VA","state_name":"Virginia","country_id":233,"country_code":"US","country_name":"United States","latitude":"38.96955000","longitude":"-77.38610000","wikiDataId":"Q1373962"},{"id":118404,"Name":"Highland County","state_id":1427,"state_code":"VA","state_name":"Virginia","country_id":233,"country_code":"US","country_name":"United States","latitude":"38.36233000","longitude":"-79.56854000","wikiDataId":"Q505861"},{"id":118415,"Name":"Highland Springs","state_id":1427,"state_code":"VA","state_name":"Virginia","country_id":233,"country_code":"US","country_name":"United States","latitude":"37.54598000","longitude":"-77.32776000","wikiDataId":"Q1374652"},{"id":118468,"Name":"Hillsville","state_id":1427,"state_code":"VA","state_name":"Virginia","country_id":233,"country_code":"US","country_name":"United States","latitude":"36.76263000","longitude":"-80.73479000","wikiDataId":"Q1377006"},{"id":118546,"Name":"Hollins","state_id":1427,"state_code":"VA","state_name":"Virginia","country_id":233,"country_code":"US","country_name":"United States","latitude":"37.34125000","longitude":"-79.94310000","wikiDataId":"Q1375071"},{"id":118564,"Name":"Hollymead","state_id":1427,"state_code":"VA","state_name":"Virginia","country_id":233,"country_code":"US","country_name":"United States","latitude":"38.11708000","longitude":"-78.44168000","wikiDataId":"Q5643550"},{"id":118612,"Name":"Honaker","state_id":1427,"state_code":"VA","state_name":"Virginia","country_id":233,"country_code":"US","country_name":"United States","latitude":"37.01622000","longitude":"-81.97429000","wikiDataId":"Q1374035"},{"id":118649,"Name":"Hopewell","state_id":1427,"state_code":"VA","state_name":"Virginia","country_id":233,"country_code":"US","country_name":"United States","latitude":"37.30432000","longitude":"-77.28720000","wikiDataId":"Q502235"},{"id":118671,"Name":"Horse Pasture","state_id":1427,"state_code":"VA","state_name":"Virginia","country_id":233,"country_code":"US","country_name":"United States","latitude":"36.62847000","longitude":"-79.95087000","wikiDataId":"Q1374511"},{"id":118799,"Name":"Huntington","state_id":1427,"state_code":"VA","state_name":"Virginia","country_id":233,"country_code":"US","country_name":"United States","latitude":"38.79234000","longitude":"-77.07081000","wikiDataId":"Q1375920"},{"id":118832,"Name":"Hurt","state_id":1427,"state_code":"VA","state_name":"Virginia","country_id":233,"country_code":"US","country_name":"United States","latitude":"37.09264000","longitude":"-79.29641000","wikiDataId":"Q1376954"},{"id":118845,"Name":"Hybla Valley","state_id":1427,"state_code":"VA","state_name":"Virginia","country_id":233,"country_code":"US","country_name":"United States","latitude":"38.74761000","longitude":"-77.08303000","wikiDataId":"Q1374782"},{"id":118876,"Name":"Idylwood","state_id":1427,"state_code":"VA","state_name":"Virginia","country_id":233,"country_code":"US","country_name":"United States","latitude":"38.89511000","longitude":"-77.21165000","wikiDataId":"Q1377040"},{"id":118894,"Name":"Independence","state_id":1427,"state_code":"VA","state_name":"Virginia","country_id":233,"country_code":"US","country_name":"United States","latitude":"36.62245000","longitude":"-81.15309000","wikiDataId":"Q1373479"},{"id":118899,"Name":"Independent Hill","state_id":1427,"state_code":"VA","state_name":"Virginia","country_id":233,"country_code":"US","country_name":"United States","latitude":"38.63595000","longitude":"-77.43776000","wikiDataId":"Q3473739"},{"id":119033,"Name":"Isle of Wight County","state_id":1427,"state_code":"VA","state_name":"Virginia","country_id":233,"country_code":"US","country_name":"United States","latitude":"36.90673000","longitude":"-76.70913000","wikiDataId":"Q338052"},{"id":119116,"Name":"James City County","state_id":1427,"state_code":"VA","state_name":"Virginia","country_id":233,"country_code":"US","country_name":"United States","latitude":"37.31332000","longitude":"-76.77376000","wikiDataId":"Q337688"},{"id":119167,"Name":"Jefferson","state_id":1427,"state_code":"VA","state_name":"Virginia","country_id":233,"country_code":"US","country_name":"United States","latitude":"38.86456000","longitude":"-77.18776000","wikiDataId":"Q982839"},{"id":119289,"Name":"Jolivue","state_id":1427,"state_code":"VA","state_name":"Virginia","country_id":233,"country_code":"US","country_name":"United States","latitude":"38.10985000","longitude":"-79.07308000","wikiDataId":"Q1374507"},{"id":119311,"Name":"Jonesville","state_id":1427,"state_code":"VA","state_name":"Virginia","country_id":233,"country_code":"US","country_name":"United States","latitude":"36.68898000","longitude":"-83.11100000","wikiDataId":"Q1373780"},{"id":119443,"Name":"Kenbridge","state_id":1427,"state_code":"VA","state_name":"Virginia","country_id":233,"country_code":"US","country_name":"United States","latitude":"36.96209000","longitude":"-78.12500000","wikiDataId":"Q1373652"},{"id":119563,"Name":"Kilmarnock","state_id":1427,"state_code":"VA","state_name":"Virginia","country_id":233,"country_code":"US","country_name":"United States","latitude":"37.71041000","longitude":"-76.37967000","wikiDataId":"Q1376073"},{"id":119588,"Name":"King and Queen County","state_id":1427,"state_code":"VA","state_name":"Virginia","country_id":233,"country_code":"US","country_name":"United States","latitude":"37.71862000","longitude":"-76.89527000","wikiDataId":"Q337067"},{"id":119589,"Name":"King and Queen Court House","state_id":1427,"state_code":"VA","state_name":"Virginia","country_id":233,"country_code":"US","country_name":"United States","latitude":"37.66986000","longitude":"-76.87746000","wikiDataId":"Q3306231"},{"id":119584,"Name":"King George","state_id":1427,"state_code":"VA","state_name":"Virginia","country_id":233,"country_code":"US","country_name":"United States","latitude":"38.26818000","longitude":"-77.18442000","wikiDataId":"Q567941"},{"id":119585,"Name":"King George County","state_id":1427,"state_code":"VA","state_name":"Virginia","country_id":233,"country_code":"US","country_name":"United States","latitude":"38.27374000","longitude":"-77.15651000","wikiDataId":"Q2613700"},{"id":119586,"Name":"King William","state_id":1427,"state_code":"VA","state_name":"Virginia","country_id":233,"country_code":"US","country_name":"United States","latitude":"37.68736000","longitude":"-77.01358000","wikiDataId":"Q3197046"},{"id":119587,"Name":"King William County","state_id":1427,"state_code":"VA","state_name":"Virginia","country_id":233,"country_code":"US","country_name":"United States","latitude":"37.70660000","longitude":"-77.08839000","wikiDataId":"Q337204"},{"id":119604,"Name":"Kings Park","state_id":1427,"state_code":"VA","state_name":"Virginia","country_id":233,"country_code":"US","country_name":"United States","latitude":"38.80622000","longitude":"-77.24332000","wikiDataId":"Q5959860"},{"id":119606,"Name":"Kings Park West","state_id":1427,"state_code":"VA","state_name":"Virginia","country_id":233,"country_code":"US","country_name":"United States","latitude":"38.81443000","longitude":"-77.29582000","wikiDataId":"Q6412995"},{"id":119868,"Name":"Lake Barcroft","state_id":1427,"state_code":"VA","state_name":"Virginia","country_id":233,"country_code":"US","country_name":"United States","latitude":"38.84789000","longitude":"-77.15581000","wikiDataId":"Q1374974"},{"id":119947,"Name":"Lake Monticello","state_id":1427,"state_code":"VA","state_name":"Virginia","country_id":233,"country_code":"US","country_name":"United States","latitude":"37.92320000","longitude":"-78.33473000","wikiDataId":"Q961154"},{"id":119968,"Name":"Lake Ridge","state_id":1427,"state_code":"VA","state_name":"Virginia","country_id":233,"country_code":"US","country_name":"United States","latitude":"38.68789000","longitude":"-77.29776000","wikiDataId":"Q1374531"},{"id":120031,"Name":"Lakeside","state_id":1427,"state_code":"VA","state_name":"Virginia","country_id":233,"country_code":"US","country_name":"United States","latitude":"37.60765000","longitude":"-77.47693000","wikiDataId":"Q1376974"},{"id":120091,"Name":"Lancaster County","state_id":1427,"state_code":"VA","state_name":"Virginia","country_id":233,"country_code":"US","country_name":"United States","latitude":"37.70171000","longitude":"-76.42023000","wikiDataId":"Q505941"},{"id":120191,"Name":"Laurel","state_id":1427,"state_code":"VA","state_name":"Virginia","country_id":233,"country_code":"US","country_name":"United States","latitude":"37.64292000","longitude":"-77.50887000","wikiDataId":"Q1376144"},{"id":120197,"Name":"Laurel Hill","state_id":1427,"state_code":"VA","state_name":"Virginia","country_id":233,"country_code":"US","country_name":"United States","latitude":"38.71663000","longitude":"-77.23686000","wikiDataId":"Q6499843"},{"id":120245,"Name":"Lawrenceville","state_id":1427,"state_code":"VA","state_name":"Virginia","country_id":233,"country_code":"US","country_name":"United States","latitude":"36.75765000","longitude":"-77.84694000","wikiDataId":"Q1374023"},{"id":120253,"Name":"Laymantown","state_id":1427,"state_code":"VA","state_name":"Virginia","country_id":233,"country_code":"US","country_name":"United States","latitude":"37.36569000","longitude":"-79.85754000","wikiDataId":"Q1374477"},{"id":120288,"Name":"Lebanon","state_id":1427,"state_code":"VA","state_name":"Virginia","country_id":233,"country_code":"US","country_name":"United States","latitude":"36.90094000","longitude":"-82.08013000","wikiDataId":"Q1375466"},{"id":120315,"Name":"Lee County","state_id":1427,"state_code":"VA","state_name":"Virginia","country_id":233,"country_code":"US","country_name":"United States","latitude":"36.70545000","longitude":"-83.12853000","wikiDataId":"Q514008"},{"id":120326,"Name":"Leesburg","state_id":1427,"state_code":"VA","state_name":"Virginia","country_id":233,"country_code":"US","country_name":"United States","latitude":"39.11566000","longitude":"-77.56360000","wikiDataId":"Q1012089"},{"id":120447,"Name":"Lexington","state_id":1427,"state_code":"VA","state_name":"Virginia","country_id":233,"country_code":"US","country_name":"United States","latitude":"37.78402000","longitude":"-79.44282000","wikiDataId":"Q501761"},{"id":120549,"Name":"Lincolnia","state_id":1427,"state_code":"VA","state_name":"Virginia","country_id":233,"country_code":"US","country_name":"United States","latitude":"38.81845000","longitude":"-77.14331000","wikiDataId":"Q1374806"},{"id":120591,"Name":"Linton Hall","state_id":1427,"state_code":"VA","state_name":"Virginia","country_id":233,"country_code":"US","country_name":"United States","latitude":"38.75984000","longitude":"-77.57499000","wikiDataId":"Q1374440"},{"id":120669,"Name":"Loch Lomond","state_id":1427,"state_code":"VA","state_name":"Virginia","country_id":233,"country_code":"US","country_name":"United States","latitude":"38.78623000","longitude":"-77.47804000","wikiDataId":"Q1375777"},{"id":120777,"Name":"Lorton","state_id":1427,"state_code":"VA","state_name":"Virginia","country_id":233,"country_code":"US","country_name":"United States","latitude":"38.70428000","longitude":"-77.22776000","wikiDataId":"Q1375895"},{"id":120801,"Name":"Loudoun County","state_id":1427,"state_code":"VA","state_name":"Virginia","country_id":233,"country_code":"US","country_name":"United States","latitude":"39.09068000","longitude":"-77.63572000","wikiDataId":"Q495310"},{"id":120802,"Name":"Loudoun Valley Estates","state_id":1427,"state_code":"VA","state_name":"Virginia","country_id":233,"country_code":"US","country_name":"United States","latitude":"38.98081000","longitude":"-77.50790000","wikiDataId":"Q534542"},{"id":120805,"Name":"Louisa","state_id":1427,"state_code":"VA","state_name":"Virginia","country_id":233,"country_code":"US","country_name":"United States","latitude":"38.02514000","longitude":"-78.00416000","wikiDataId":"Q1375149"},{"id":120806,"Name":"Louisa County","state_id":1427,"state_code":"VA","state_name":"Virginia","country_id":233,"country_code":"US","country_name":"United States","latitude":"37.97821000","longitude":"-77.96298000","wikiDataId":"Q515166"},{"id":120827,"Name":"Lovettsville","state_id":1427,"state_code":"VA","state_name":"Virginia","country_id":233,"country_code":"US","country_name":"United States","latitude":"39.27260000","longitude":"-77.63666000","wikiDataId":"Q734732"},{"id":120830,"Name":"Lovingston","state_id":1427,"state_code":"VA","state_name":"Virginia","country_id":233,"country_code":"US","country_name":"United States","latitude":"37.75986000","longitude":"-78.87086000","wikiDataId":"Q3475269"},{"id":120844,"Name":"Lowes Island","state_id":1427,"state_code":"VA","state_name":"Virginia","country_id":233,"country_code":"US","country_name":"United States","latitude":"39.05983000","longitude":"-77.35221000","wikiDataId":"Q6694003"},{"id":120886,"Name":"Lunenburg","state_id":1427,"state_code":"VA","state_name":"Virginia","country_id":233,"country_code":"US","country_name":"United States","latitude":"36.96098000","longitude":"-78.26555000","wikiDataId":"Q3475280"},{"id":120889,"Name":"Lunenburg County","state_id":1427,"state_code":"VA","state_name":"Virginia","country_id":233,"country_code":"US","country_name":"United States","latitude":"36.94621000","longitude":"-78.24057000","wikiDataId":"Q508192"},{"id":120890,"Name":"Luray","state_id":1427,"state_code":"VA","state_name":"Virginia","country_id":233,"country_code":"US","country_name":"United States","latitude":"38.66540000","longitude":"-78.45945000","wikiDataId":"Q1373971"},{"id":120916,"Name":"Lynchburg","state_id":1427,"state_code":"VA","state_name":"Virginia","country_id":233,"country_code":"US","country_name":"United States","latitude":"37.41375000","longitude":"-79.14225000","wikiDataId":"Q844012"},{"id":120920,"Name":"Lyndhurst","state_id":1427,"state_code":"VA","state_name":"Virginia","country_id":233,"country_code":"US","country_name":"United States","latitude":"38.02930000","longitude":"-78.94502000","wikiDataId":"Q922202"},{"id":120991,"Name":"Madison","state_id":1427,"state_code":"VA","state_name":"Virginia","country_id":233,"country_code":"US","country_name":"United States","latitude":"38.38041000","longitude":"-78.25750000","wikiDataId":"Q1376049"},{"id":121013,"Name":"Madison County","state_id":1427,"state_code":"VA","state_name":"Virginia","country_id":233,"country_code":"US","country_name":"United States","latitude":"38.41369000","longitude":"-78.27924000","wikiDataId":"Q513891"},{"id":121020,"Name":"Madison Heights","state_id":1427,"state_code":"VA","state_name":"Virginia","country_id":233,"country_code":"US","country_name":"United States","latitude":"37.43098000","longitude":"-79.12308000","wikiDataId":"Q1377155"},{"id":121082,"Name":"Manassas","state_id":1427,"state_code":"VA","state_name":"Virginia","country_id":233,"country_code":"US","country_name":"United States","latitude":"38.75095000","longitude":"-77.47527000","wikiDataId":"Q511876"},{"id":121083,"Name":"Manassas Park","state_id":1427,"state_code":"VA","state_name":"Virginia","country_id":233,"country_code":"US","country_name":"United States","latitude":"38.78400000","longitude":"-77.46971000","wikiDataId":"Q502269"},{"id":121160,"Name":"Mantua","state_id":1427,"state_code":"VA","state_name":"Virginia","country_id":233,"country_code":"US","country_name":"United States","latitude":"38.85372000","longitude":"-77.25943000","wikiDataId":"Q1375964"},{"id":121241,"Name":"Marion","state_id":1427,"state_code":"VA","state_name":"Virginia","country_id":233,"country_code":"US","country_name":"United States","latitude":"36.83484000","longitude":"-81.51484000","wikiDataId":"Q1373794"},{"id":121306,"Name":"Marshall","state_id":1427,"state_code":"VA","state_name":"Virginia","country_id":233,"country_code":"US","country_name":"United States","latitude":"38.86484000","longitude":"-77.85777000","wikiDataId":"Q6001819"},{"id":121350,"Name":"Martinsville","state_id":1427,"state_code":"VA","state_name":"Virginia","country_id":233,"country_code":"US","country_name":"United States","latitude":"36.69153000","longitude":"-79.87254000","wikiDataId":"Q502240"},{"id":121389,"Name":"Massanetta Springs","state_id":1427,"state_code":"VA","state_name":"Virginia","country_id":233,"country_code":"US","country_name":"United States","latitude":"38.40040000","longitude":"-78.83419000","wikiDataId":"Q6005505"},{"id":121390,"Name":"Massanutten","state_id":1427,"state_code":"VA","state_name":"Virginia","country_id":233,"country_code":"US","country_name":"United States","latitude":"38.40957000","longitude":"-78.73780000","wikiDataId":"Q1374774"},{"id":121403,"Name":"Mathews","state_id":1427,"state_code":"VA","state_name":"Virginia","country_id":233,"country_code":"US","country_name":"United States","latitude":"37.43708000","longitude":"-76.31994000","wikiDataId":"Q3475246"},{"id":121404,"Name":"Mathews County","state_id":1427,"state_code":"VA","state_name":"Virginia","country_id":233,"country_code":"US","country_name":"United States","latitude":"37.41731000","longitude":"-76.27129000","wikiDataId":"Q336948"},{"id":121406,"Name":"Matoaca","state_id":1427,"state_code":"VA","state_name":"Virginia","country_id":233,"country_code":"US","country_name":"United States","latitude":"37.23043000","longitude":"-77.47749000","wikiDataId":"Q1374842"},{"id":121527,"Name":"McLean","state_id":1427,"state_code":"VA","state_name":"Virginia","country_id":233,"country_code":"US","country_name":"United States","latitude":"38.93428000","longitude":"-77.17748000","wikiDataId":"Q963138"},{"id":121566,"Name":"Meadowbrook","state_id":1427,"state_code":"VA","state_name":"Virginia","country_id":233,"country_code":"US","country_name":"United States","latitude":"37.44882000","longitude":"-77.47353000","wikiDataId":"Q6008158"},{"id":121583,"Name":"Mechanicsville","state_id":1427,"state_code":"VA","state_name":"Virginia","country_id":233,"country_code":"US","country_name":"United States","latitude":"37.60876000","longitude":"-77.37331000","wikiDataId":"Q1375703"},{"id":121588,"Name":"Mecklenburg County","state_id":1427,"state_code":"VA","state_name":"Virginia","country_id":233,"country_code":"US","country_name":"United States","latitude":"36.68036000","longitude":"-78.36273000","wikiDataId":"Q510885"},{"id":121706,"Name":"Merrifield","state_id":1427,"state_code":"VA","state_name":"Virginia","country_id":233,"country_code":"US","country_name":"United States","latitude":"38.87428000","longitude":"-77.22693000","wikiDataId":"Q408162"},{"id":121709,"Name":"Merrimac","state_id":1427,"state_code":"VA","state_name":"Virginia","country_id":233,"country_code":"US","country_name":"United States","latitude":"37.18957000","longitude":"-80.42561000","wikiDataId":"Q1375014"},{"id":121778,"Name":"Middlesex County","state_id":1427,"state_code":"VA","state_name":"Virginia","country_id":233,"country_code":"US","country_name":"United States","latitude":"37.59737000","longitude":"-76.57814000","wikiDataId":"Q341865"},{"id":121789,"Name":"Middletown","state_id":1427,"state_code":"VA","state_name":"Virginia","country_id":233,"country_code":"US","country_name":"United States","latitude":"39.02761000","longitude":"-78.28056000","wikiDataId":"Q734524"},{"id":122105,"Name":"Montclair","state_id":1427,"state_code":"VA","state_name":"Virginia","country_id":233,"country_code":"US","country_name":"United States","latitude":"38.61095000","longitude":"-77.33971000","wikiDataId":"Q1374832"},{"id":122119,"Name":"Monterey","state_id":1427,"state_code":"VA","state_name":"Virginia","country_id":233,"country_code":"US","country_name":"United States","latitude":"38.41234000","longitude":"-79.58060000","wikiDataId":"Q1376411"},{"id":122151,"Name":"Montgomery County","state_id":1427,"state_code":"VA","state_name":"Virginia","country_id":233,"country_code":"US","country_name":"United States","latitude":"37.17404000","longitude":"-80.38700000","wikiDataId":"Q495120"},{"id":122179,"Name":"Montrose","state_id":1427,"state_code":"VA","state_name":"Virginia","country_id":233,"country_code":"US","country_name":"United States","latitude":"37.52070000","longitude":"-77.37831000","wikiDataId":"Q1375939"},{"id":122186,"Name":"Montross","state_id":1427,"state_code":"VA","state_name":"Virginia","country_id":233,"country_code":"US","country_name":"United States","latitude":"38.09513000","longitude":"-76.82746000","wikiDataId":"Q1374093"},{"id":122310,"Name":"Motley","state_id":1427,"state_code":"VA","state_name":"Virginia","country_id":233,"country_code":"US","country_name":"United States","latitude":"37.06959000","longitude":"-79.34114000","wikiDataId":"Q6024729"},{"id":122346,"Name":"Mount Hermon","state_id":1427,"state_code":"VA","state_name":"Virginia","country_id":233,"country_code":"US","country_name":"United States","latitude":"36.67847000","longitude":"-79.42225000","wikiDataId":"Q6024941"},{"id":122357,"Name":"Mount Jackson","state_id":1427,"state_code":"VA","state_name":"Virginia","country_id":233,"country_code":"US","country_name":"United States","latitude":"38.74595000","longitude":"-78.64224000","wikiDataId":"Q1376596"},{"id":122404,"Name":"Mount Vernon","state_id":1427,"state_code":"VA","state_name":"Virginia","country_id":233,"country_code":"US","country_name":"United States","latitude":"38.71919000","longitude":"-77.10726000","wikiDataId":"Q1375384"},{"id":122426,"Name":"Mountain Road","state_id":1427,"state_code":"VA","state_name":"Virginia","country_id":233,"country_code":"US","country_name":"United States","latitude":"36.75958000","longitude":"-78.98696000","wikiDataId":"Q6925208"},{"id":122566,"Name":"Narrows","state_id":1427,"state_code":"VA","state_name":"Virginia","country_id":233,"country_code":"US","country_name":"United States","latitude":"37.33151000","longitude":"-80.81119000","wikiDataId":"Q1376798"},{"id":122623,"Name":"Nellysford","state_id":1427,"state_code":"VA","state_name":"Virginia","country_id":233,"country_code":"US","country_name":"United States","latitude":"37.89042000","longitude":"-78.87224000","wikiDataId":"Q6990261"},{"id":122627,"Name":"Nelson County","state_id":1427,"state_code":"VA","state_name":"Virginia","country_id":233,"country_code":"US","country_name":"United States","latitude":"37.78741000","longitude":"-78.88676000","wikiDataId":"Q515150"},{"id":122659,"Name":"New Baltimore","state_id":1427,"state_code":"VA","state_name":"Virginia","country_id":233,"country_code":"US","country_name":"United States","latitude":"38.76734000","longitude":"-77.72833000","wikiDataId":"Q7005421"},{"id":122686,"Name":"New Castle","state_id":1427,"state_code":"VA","state_name":"Virginia","country_id":233,"country_code":"US","country_name":"United States","latitude":"37.50013000","longitude":"-80.11088000","wikiDataId":"Q1373380"},{"id":122734,"Name":"New Kent","state_id":1427,"state_code":"VA","state_name":"Virginia","country_id":233,"country_code":"US","country_name":"United States","latitude":"37.51765000","longitude":"-76.97886000","wikiDataId":"Q3474695"},{"id":122735,"Name":"New Kent County","state_id":1427,"state_code":"VA","state_name":"Virginia","country_id":233,"country_code":"US","country_name":"United States","latitude":"37.50514000","longitude":"-76.99713000","wikiDataId":"Q337270"},{"id":122751,"Name":"New Market","state_id":1427,"state_code":"VA","state_name":"Virginia","country_id":233,"country_code":"US","country_name":"United States","latitude":"38.64790000","longitude":"-78.67141000","wikiDataId":"Q1374174"},{"id":122830,"Name":"Newington","state_id":1427,"state_code":"VA","state_name":"Virginia","country_id":233,"country_code":"US","country_name":"United States","latitude":"38.73845000","longitude":"-77.18498000","wikiDataId":"Q1376965"},{"id":122856,"Name":"Newport News","state_id":1427,"state_code":"VA","state_name":"Virginia","country_id":233,"country_code":"US","country_name":"United States","latitude":"37.08339000","longitude":"-76.46965000","wikiDataId":"Q335017"},{"id":122928,"Name":"Nokesville","state_id":1427,"state_code":"VA","state_name":"Virginia","country_id":233,"country_code":"US","country_name":"United States","latitude":"38.69873000","longitude":"-77.57971000","wikiDataId":"Q1374419"},{"id":122941,"Name":"Norfolk","state_id":1427,"state_code":"VA","state_name":"Virginia","country_id":233,"country_code":"US","country_name":"United States","latitude":"36.84681000","longitude":"-76.28522000","wikiDataId":"Q49231"},{"id":123105,"Name":"North Shore","state_id":1427,"state_code":"VA","state_name":"Virginia","country_id":233,"country_code":"US","country_name":"United States","latitude":"37.08209000","longitude":"-79.65836000","wikiDataId":"Q1376826"},{"id":123110,"Name":"North Springfield","state_id":1427,"state_code":"VA","state_name":"Virginia","country_id":233,"country_code":"US","country_name":"United States","latitude":"38.80428000","longitude":"-77.20470000","wikiDataId":"Q617683"},{"id":123137,"Name":"Northampton County","state_id":1427,"state_code":"VA","state_name":"Virginia","country_id":233,"country_code":"US","country_name":"United States","latitude":"37.30078000","longitude":"-75.92854000","wikiDataId":"Q49290"},{"id":123167,"Name":"Northumberland County","state_id":1427,"state_code":"VA","state_name":"Virginia","country_id":233,"country_code":"US","country_name":"United States","latitude":"37.88244000","longitude":"-76.47171000","wikiDataId":"Q505292"},{"id":123183,"Name":"Norton","state_id":1427,"state_code":"VA","state_name":"Virginia","country_id":233,"country_code":"US","country_name":"United States","latitude":"36.93343000","longitude":"-82.62905000","wikiDataId":"Q502984"},{"id":123206,"Name":"Nottoway County","state_id":1427,"state_code":"VA","state_name":"Virginia","country_id":233,"country_code":"US","country_name":"United States","latitude":"37.14306000","longitude":"-78.05126000","wikiDataId":"Q515220"},{"id":123238,"Name":"Oak Grove","state_id":1427,"state_code":"VA","state_name":"Virginia","country_id":233,"country_code":"US","country_name":"United States","latitude":"38.98400000","longitude":"-77.40388000","wikiDataId":"Q3474853"},{"id":123246,"Name":"Oak Hill","state_id":1427,"state_code":"VA","state_name":"Virginia","country_id":233,"country_code":"US","country_name":"United States","latitude":"38.92580000","longitude":"-77.40156000","wikiDataId":"Q7073541"},{"id":123305,"Name":"Oakton","state_id":1427,"state_code":"VA","state_name":"Virginia","country_id":233,"country_code":"US","country_name":"United States","latitude":"38.88095000","longitude":"-77.30082000","wikiDataId":"Q1376287"},{"id":123322,"Name":"Occoquan","state_id":1427,"state_code":"VA","state_name":"Virginia","country_id":233,"country_code":"US","country_name":"United States","latitude":"38.68373000","longitude":"-77.26026000","wikiDataId":"Q1373638"},{"id":123469,"Name":"Onancock","state_id":1427,"state_code":"VA","state_name":"Virginia","country_id":233,"country_code":"US","country_name":"United States","latitude":"37.71180000","longitude":"-75.74910000","wikiDataId":"Q1373949"},{"id":123506,"Name":"Orange","state_id":1427,"state_code":"VA","state_name":"Virginia","country_id":233,"country_code":"US","country_name":"United States","latitude":"38.24541000","longitude":"-78.11083000","wikiDataId":"Q1376645"},{"id":123518,"Name":"Orange County","state_id":1427,"state_code":"VA","state_name":"Virginia","country_id":233,"country_code":"US","country_name":"United States","latitude":"38.24624000","longitude":"-78.01349000","wikiDataId":"Q506225"},{"id":123718,"Name":"Page County","state_id":1427,"state_code":"VA","state_name":"Virginia","country_id":233,"country_code":"US","country_name":"United States","latitude":"38.61998000","longitude":"-78.48413000","wikiDataId":"Q513818"},{"id":123773,"Name":"Palmyra","state_id":1427,"state_code":"VA","state_name":"Virginia","country_id":233,"country_code":"US","country_name":"United States","latitude":"37.86097000","longitude":"-78.26334000","wikiDataId":"Q3474707"},{"id":123802,"Name":"Pannill Fork","state_id":1427,"state_code":"VA","state_name":"Virginia","country_id":233,"country_code":"US","country_name":"United States","latitude":"36.70903000","longitude":"-80.01310000","wikiDataId":"Q972961"},{"id":123809,"Name":"Pantops","state_id":1427,"state_code":"VA","state_name":"Virginia","country_id":233,"country_code":"US","country_name":"United States","latitude":"38.03379000","longitude":"-78.45507000","wikiDataId":"Q2127460"},{"id":123909,"Name":"Passapatanzy","state_id":1427,"state_code":"VA","state_name":"Virginia","country_id":233,"country_code":"US","country_name":"United States","latitude":"38.29735000","longitude":"-77.31415000","wikiDataId":"Q9056649"},{"id":123912,"Name":"Patrick County","state_id":1427,"state_code":"VA","state_name":"Virginia","country_id":233,"country_code":"US","country_name":"United States","latitude":"36.67833000","longitude":"-80.28435000","wikiDataId":"Q514024"},{"id":123913,"Name":"Patrick Springs","state_id":1427,"state_code":"VA","state_name":"Virginia","country_id":233,"country_code":"US","country_name":"United States","latitude":"36.64180000","longitude":"-80.19505000","wikiDataId":"Q1376881"},{"id":123962,"Name":"Pearisburg","state_id":1427,"state_code":"VA","state_name":"Virginia","country_id":233,"country_code":"US","country_name":"United States","latitude":"37.32673000","longitude":"-80.73702000","wikiDataId":"Q1374295"},{"id":124006,"Name":"Pembroke","state_id":1427,"state_code":"VA","state_name":"Virginia","country_id":233,"country_code":"US","country_name":"United States","latitude":"37.31957000","longitude":"-80.63895000","wikiDataId":"Q1375354"},{"id":124032,"Name":"Pennington Gap","state_id":1427,"state_code":"VA","state_name":"Virginia","country_id":233,"country_code":"US","country_name":"United States","latitude":"36.75842000","longitude":"-83.02711000","wikiDataId":"Q1373754"},{"id":124105,"Name":"Petersburg","state_id":1427,"state_code":"VA","state_name":"Virginia","country_id":233,"country_code":"US","country_name":"United States","latitude":"37.22793000","longitude":"-77.40193000","wikiDataId":"Q511964"},{"id":124205,"Name":"Pimmit Hills","state_id":1427,"state_code":"VA","state_name":"Virginia","country_id":233,"country_code":"US","country_name":"United States","latitude":"38.91289000","longitude":"-77.20081000","wikiDataId":"Q1377350"},{"id":124306,"Name":"Pittsylvania County","state_id":1427,"state_code":"VA","state_name":"Virginia","country_id":233,"country_code":"US","country_name":"United States","latitude":"36.82133000","longitude":"-79.39711000","wikiDataId":"Q513744"},{"id":124393,"Name":"Plum Creek","state_id":1427,"state_code":"VA","state_name":"Virginia","country_id":233,"country_code":"US","country_name":"United States","latitude":"37.12984000","longitude":"-80.50060000","wikiDataId":"Q943998"},{"id":124489,"Name":"Poquoson","state_id":1427,"state_code":"VA","state_name":"Virginia","country_id":233,"country_code":"US","country_name":"United States","latitude":"37.12237000","longitude":"-76.34578000","wikiDataId":"Q349995"},{"id":124569,"Name":"Portsmouth","state_id":1427,"state_code":"VA","state_name":"Virginia","country_id":233,"country_code":"US","country_name":"United States","latitude":"36.83543000","longitude":"-76.29827000","wikiDataId":"Q342803"},{"id":124572,"Name":"Portsmouth Heights","state_id":1427,"state_code":"VA","state_name":"Virginia","country_id":233,"country_code":"US","country_name":"United States","latitude":"36.82098000","longitude":"-76.36883000","wikiDataId":"Q1787188"},{"id":124584,"Name":"Potomac Mills","state_id":1427,"state_code":"VA","state_name":"Virginia","country_id":233,"country_code":"US","country_name":"United States","latitude":"38.64595000","longitude":"-77.29415000","wikiDataId":"Q7235071"},{"id":124618,"Name":"Powhatan County","state_id":1427,"state_code":"VA","state_name":"Virginia","country_id":233,"country_code":"US","country_name":"United States","latitude":"37.55020000","longitude":"-77.91519000","wikiDataId":"Q513792"},{"id":124665,"Name":"Prices Fork","state_id":1427,"state_code":"VA","state_name":"Virginia","country_id":233,"country_code":"US","country_name":"United States","latitude":"37.20985000","longitude":"-80.49005000","wikiDataId":"Q3475081"},{"id":124672,"Name":"Prince Edward County","state_id":1427,"state_code":"VA","state_name":"Virginia","country_id":233,"country_code":"US","country_name":"United States","latitude":"37.22430000","longitude":"-78.44108000","wikiDataId":"Q505884"},{"id":124674,"Name":"Prince George","state_id":1427,"state_code":"VA","state_name":"Virginia","country_id":233,"country_code":"US","country_name":"United States","latitude":"37.22043000","longitude":"-77.28803000","wikiDataId":"Q3474339"},{"id":124675,"Name":"Prince George County","state_id":1427,"state_code":"VA","state_name":"Virginia","country_id":233,"country_code":"US","country_name":"United States","latitude":"37.18653000","longitude":"-77.22413000","wikiDataId":"Q337776"},{"id":124677,"Name":"Prince William County","state_id":1427,"state_code":"VA","state_name":"Virginia","country_id":233,"country_code":"US","country_name":"United States","latitude":"38.70167000","longitude":"-77.47766000","wikiDataId":"Q183263"},{"id":124734,"Name":"Pulaski","state_id":1427,"state_code":"VA","state_name":"Virginia","country_id":233,"country_code":"US","country_name":"United States","latitude":"37.04790000","longitude":"-80.77979000","wikiDataId":"Q1376301"},{"id":124742,"Name":"Pulaski County","state_id":1427,"state_code":"VA","state_name":"Virginia","country_id":233,"country_code":"US","country_name":"United States","latitude":"37.06361000","longitude":"-80.71434000","wikiDataId":"Q514038"},{"id":124754,"Name":"Purcellville","state_id":1427,"state_code":"VA","state_name":"Virginia","country_id":233,"country_code":"US","country_name":"United States","latitude":"39.13677000","longitude":"-77.71472000","wikiDataId":"Q1376808"},{"id":124780,"Name":"Quantico Station","state_id":1427,"state_code":"VA","state_name":"Virginia","country_id":233,"country_code":"US","country_name":"United States","latitude":"38.52263000","longitude":"-77.31834000","wikiDataId":"Q1374564"},{"id":124816,"Name":"Radford","state_id":1427,"state_code":"VA","state_name":"Virginia","country_id":233,"country_code":"US","country_name":"United States","latitude":"37.13179000","longitude":"-80.57645000","wikiDataId":"Q586070"},{"id":124898,"Name":"Rappahannock County","state_id":1427,"state_code":"VA","state_name":"Virginia","country_id":233,"country_code":"US","country_name":"United States","latitude":"38.68471000","longitude":"-78.15925000","wikiDataId":"Q510920"},{"id":124904,"Name":"Raven","state_id":1427,"state_code":"VA","state_name":"Virginia","country_id":233,"country_code":"US","country_name":"United States","latitude":"37.08706000","longitude":"-81.85512000","wikiDataId":"Q1374713"},{"id":124911,"Name":"Ravensworth","state_id":1427,"state_code":"VA","state_name":"Virginia","country_id":233,"country_code":"US","country_name":"United States","latitude":"38.80400000","longitude":"-77.22054000","wikiDataId":"Q6100727"},{"id":125036,"Name":"Reston","state_id":1427,"state_code":"VA","state_name":"Virginia","country_id":233,"country_code":"US","country_name":"United States","latitude":"38.96872000","longitude":"-77.34110000","wikiDataId":"Q1375280"},{"id":125082,"Name":"Richlands","state_id":1427,"state_code":"VA","state_name":"Virginia","country_id":233,"country_code":"US","country_name":"United States","latitude":"37.09317000","longitude":"-81.79373000","wikiDataId":"Q1373601"},{"id":125088,"Name":"Richmond","state_id":1427,"state_code":"VA","state_name":"Virginia","country_id":233,"country_code":"US","country_name":"United States","latitude":"37.55376000","longitude":"-77.46026000","wikiDataId":"Q43421"},{"id":125100,"Name":"Richmond County","state_id":1427,"state_code":"VA","state_name":"Virginia","country_id":233,"country_code":"US","country_name":"United States","latitude":"37.93705000","longitude":"-76.72968000","wikiDataId":"Q505854"},{"id":125228,"Name":"Roanoke","state_id":1427,"state_code":"VA","state_name":"Virginia","country_id":233,"country_code":"US","country_name":"United States","latitude":"37.27097000","longitude":"-79.94143000","wikiDataId":"Q501796"},{"id":125231,"Name":"Roanoke County","state_id":1427,"state_code":"VA","state_name":"Virginia","country_id":233,"country_code":"US","country_name":"United States","latitude":"37.20907000","longitude":"-80.05085000","wikiDataId":"Q513968"},{"id":125292,"Name":"Rockbridge County","state_id":1427,"state_code":"VA","state_name":"Virginia","country_id":233,"country_code":"US","country_name":"United States","latitude":"37.81461000","longitude":"-79.44758000","wikiDataId":"Q513805"},{"id":125306,"Name":"Rockingham County","state_id":1427,"state_code":"VA","state_name":"Virginia","country_id":233,"country_code":"US","country_name":"United States","latitude":"38.51213000","longitude":"-78.87576000","wikiDataId":"Q513919"},{"id":125336,"Name":"Rocky Mount","state_id":1427,"state_code":"VA","state_name":"Virginia","country_id":233,"country_code":"US","country_name":"United States","latitude":"36.99764000","longitude":"-79.89198000","wikiDataId":"Q1373443"},{"id":125405,"Name":"Rose Hill","state_id":1427,"state_code":"VA","state_name":"Virginia","country_id":233,"country_code":"US","country_name":"United States","latitude":"38.78872000","longitude":"-77.11276000","wikiDataId":"Q1375023"},{"id":125452,"Name":"Rosslyn","state_id":1427,"state_code":"VA","state_name":"Virginia","country_id":233,"country_code":"US","country_name":"United States","latitude":"38.89678000","longitude":"-77.07248000","wikiDataId":"Q7369880"},{"id":125502,"Name":"Ruckersville","state_id":1427,"state_code":"VA","state_name":"Virginia","country_id":233,"country_code":"US","country_name":"United States","latitude":"38.23319000","longitude":"-78.36917000","wikiDataId":"Q6113417"},{"id":125518,"Name":"Rural Retreat","state_id":1427,"state_code":"VA","state_name":"Virginia","country_id":233,"country_code":"US","country_name":"United States","latitude":"36.89373000","longitude":"-81.27593000","wikiDataId":"Q1374054"},{"id":125524,"Name":"Rushmere","state_id":1427,"state_code":"VA","state_name":"Virginia","country_id":233,"country_code":"US","country_name":"United States","latitude":"37.06681000","longitude":"-76.67635000","wikiDataId":"Q1376906"},{"id":125539,"Name":"Russell County","state_id":1427,"state_code":"VA","state_name":"Virginia","country_id":233,"country_code":"US","country_name":"United States","latitude":"36.93376000","longitude":"-82.09564000","wikiDataId":"Q507117"},{"id":125546,"Name":"Rustburg","state_id":1427,"state_code":"VA","state_name":"Virginia","country_id":233,"country_code":"US","country_name":"United States","latitude":"37.27681000","longitude":"-79.10085000","wikiDataId":"Q1374576"},{"id":125734,"Name":"Salem","state_id":1427,"state_code":"VA","state_name":"Virginia","country_id":233,"country_code":"US","country_name":"United States","latitude":"37.29347000","longitude":"-80.05476000","wikiDataId":"Q502230"},{"id":125771,"Name":"Saltville","state_id":1427,"state_code":"VA","state_name":"Virginia","country_id":233,"country_code":"US","country_name":"United States","latitude":"36.88150000","longitude":"-81.76206000","wikiDataId":"Q1374247"},{"id":125773,"Name":"Saluda","state_id":1427,"state_code":"VA","state_name":"Virginia","country_id":233,"country_code":"US","country_name":"United States","latitude":"37.60597000","longitude":"-76.59495000","wikiDataId":"Q3561291"},{"id":125873,"Name":"Sandston","state_id":1427,"state_code":"VA","state_name":"Virginia","country_id":233,"country_code":"US","country_name":"United States","latitude":"37.52348000","longitude":"-77.31581000","wikiDataId":"Q6120034"},{"id":126050,"Name":"Scott County","state_id":1427,"state_code":"VA","state_name":"Virginia","country_id":233,"country_code":"US","country_name":"United States","latitude":"36.71422000","longitude":"-82.60298000","wikiDataId":"Q505834"},{"id":126171,"Name":"Seven Corners","state_id":1427,"state_code":"VA","state_name":"Virginia","country_id":233,"country_code":"US","country_name":"United States","latitude":"38.87206000","longitude":"-77.15526000","wikiDataId":"Q1374873"},{"id":126252,"Name":"Shawnee Land","state_id":1427,"state_code":"VA","state_name":"Virginia","country_id":233,"country_code":"US","country_name":"United States","latitude":"39.19149000","longitude":"-78.34556000","wikiDataId":"Q7491537"},{"id":126254,"Name":"Shawsville","state_id":1427,"state_code":"VA","state_name":"Virginia","country_id":233,"country_code":"US","country_name":"United States","latitude":"37.16847000","longitude":"-80.25532000","wikiDataId":"Q429020"},{"id":126303,"Name":"Shenandoah","state_id":1427,"state_code":"VA","state_name":"Virginia","country_id":233,"country_code":"US","country_name":"United States","latitude":"38.48512000","longitude":"-78.62502000","wikiDataId":"Q1373927"},{"id":126305,"Name":"Shenandoah County","state_id":1427,"state_code":"VA","state_name":"Virginia","country_id":233,"country_code":"US","country_name":"United States","latitude":"38.85839000","longitude":"-78.57060000","wikiDataId":"Q510947"},