[{"id":20502,"Name":"Alcalá","state_id":2904,"state_code":"VAC","state_name":"Valle del Cauca","country_id":48,"country_code":"CO","country_name":"Colombia","latitude":"4.67458000","longitude":"-75.77188000","wikiDataId":"Q1526276"},{"id":20519,"Name":"Andalucía","state_id":2904,"state_code":"VAC","state_name":"Valle del Cauca","country_id":48,"country_code":"CO","country_name":"Colombia","latitude":"4.14035000","longitude":"-76.14739000","wikiDataId":"Q1526216"},{"id":20526,"Name":"Ansermanuevo","state_id":2904,"state_code":"VAC","state_name":"Valle del Cauca","country_id":48,"country_code":"CO","country_name":"Colombia","latitude":"4.79722000","longitude":"-75.99500000","wikiDataId":"Q1441179"},{"id":20546,"Name":"Argelia","state_id":2904,"state_code":"VAC","state_name":"Valle del Cauca","country_id":48,"country_code":"CO","country_name":"Colombia","latitude":"4.72904000","longitude":"-76.11637000","wikiDataId":"Q2142901"},{"id":20598,"Name":"Bolívar","state_id":2904,"state_code":"VAC","state_name":"Valle del Cauca","country_id":48,"country_code":"CO","country_name":"Colombia","latitude":"4.37710000","longitude":"-76.34870000","wikiDataId":"Q1880935"},{"id":20605,"Name":"Buenaventura","state_id":2904,"state_code":"VAC","state_name":"Valle del Cauca","country_id":48,"country_code":"CO","country_name":"Colombia","latitude":"3.88010000","longitude":"-77.03116000","wikiDataId":"Q996581"},{"id":20612,"Name":"Bugalagrande","state_id":2904,"state_code":"VAC","state_name":"Valle del Cauca","country_id":48,"country_code":"CO","country_name":"Colombia","latitude":"4.21207000","longitude":"-76.15564000","wikiDataId":"Q686202"},{"id":20622,"Name":"Caicedonia","state_id":2904,"state_code":"VAC","state_name":"Valle del Cauca","country_id":48,"country_code":"CO","country_name":"Colombia","latitude":"4.33240000","longitude":"-75.82665000","wikiDataId":"Q2430520"},{"id":20634,"Name":"Cali","state_id":2904,"state_code":"VAC","state_name":"Valle del Cauca","country_id":48,"country_code":"CO","country_name":"Colombia","latitude":"3.41033000","longitude":"-76.58097000","wikiDataId":"Q51103"},{"id":20636,"Name":"Calima","state_id":2904,"state_code":"VAC","state_name":"Valle del Cauca","country_id":48,"country_code":"CO","country_name":"Colombia","latitude":"3.92511000","longitude":"-76.62654000","wikiDataId":"Q1526288"},{"id":20644,"Name":"Candelaria","state_id":2904,"state_code":"VAC","state_name":"Valle del Cauca","country_id":48,"country_code":"CO","country_name":"Colombia","latitude":"3.38367000","longitude":"-76.42466000","wikiDataId":"Q2430763"},{"id":20661,"Name":"Cartago","state_id":2904,"state_code":"VAC","state_name":"Valle del Cauca","country_id":48,"country_code":"CO","country_name":"Colombia","latitude":"4.74639000","longitude":"-75.91167000","wikiDataId":"Q2004074"},{"id":20774,"Name":"Dagua","state_id":2904,"state_code":"VAC","state_name":"Valle del Cauca","country_id":48,"country_code":"CO","country_name":"Colombia","latitude":"3.65685000","longitude":"-76.68859000","wikiDataId":"Q2406018"},{"id":20835,"Name":"El Águila","state_id":2904,"state_code":"VAC","state_name":"Valle del Cauca","country_id":48,"country_code":"CO","country_name":"Colombia","latitude":"4.91946000","longitude":"-76.05680000","wikiDataId":"Q1578199"},{"id":20789,"Name":"El Cairo","state_id":2904,"state_code":"VAC","state_name":"Valle del Cauca","country_id":48,"country_code":"CO","country_name":"Colombia","latitude":"4.74889000","longitude":"-76.24443000","wikiDataId":"Q1577535"},{"id":20800,"Name":"El Cerrito","state_id":2904,"state_code":"VAC","state_name":"Valle del Cauca","country_id":48,"country_code":"CO","country_name":"Colombia","latitude":"3.64273000","longitude":"-76.20960000","wikiDataId":"Q1093505"},{"id":20806,"Name":"El Dovio","state_id":2904,"state_code":"VAC","state_name":"Valle del Cauca","country_id":48,"country_code":"CO","country_name":"Colombia","latitude":"4.50790000","longitude":"-76.23619000","wikiDataId":"Q606862"},{"id":20851,"Name":"Florida","state_id":2904,"state_code":"VAC","state_name":"Valle del Cauca","country_id":48,"country_code":"CO","country_name":"Colombia","latitude":"3.30940000","longitude":"-76.18989000","wikiDataId":"Q1093490"},{"id":20884,"Name":"Ginebra","state_id":2904,"state_code":"VAC","state_name":"Valle del Cauca","country_id":48,"country_code":"CO","country_name":"Colombia","latitude":"3.74296000","longitude":"-76.19412000","wikiDataId":"Q1525670"},{"id":20897,"Name":"Guacarí","state_id":2904,"state_code":"VAC","state_name":"Valle del Cauca","country_id":48,"country_code":"CO","country_name":"Colombia","latitude":"3.76383000","longitude":"-76.33292000","wikiDataId":"Q2431973"},{"id":20900,"Name":"Guadalajara de Buga","state_id":2904,"state_code":"VAC","state_name":"Valle del Cauca","country_id":48,"country_code":"CO","country_name":"Colombia","latitude":"3.90089000","longitude":"-76.29783000","wikiDataId":"Q934753"},{"id":20958,"Name":"Jamundí","state_id":2904,"state_code":"VAC","state_name":"Valle del Cauca","country_id":48,"country_code":"CO","country_name":"Colombia","latitude":"3.26074000","longitude":"-76.53499000","wikiDataId":"Q1681497"},{"id":20979,"Name":"La Cumbre","state_id":2904,"state_code":"VAC","state_name":"Valle del Cauca","country_id":48,"country_code":"CO","country_name":"Colombia","latitude":"3.72250000","longitude":"-76.02083000","wikiDataId":"Q23706364"},{"id":21006,"Name":"La Unión","state_id":2904,"state_code":"VAC","state_name":"Valle del Cauca","country_id":48,"country_code":"CO","country_name":"Colombia","latitude":"4.53282000","longitude":"-76.10318000","wikiDataId":"Q2022508"},{"id":21013,"Name":"La Victoria","state_id":2904,"state_code":"VAC","state_name":"Valle del Cauca","country_id":48,"country_code":"CO","country_name":"Colombia","latitude":"4.52483000","longitude":"-76.03921000","wikiDataId":"Q1526230"},{"id":21144,"Name":"Obando","state_id":2904,"state_code":"VAC","state_name":"Valle del Cauca","country_id":48,"country_code":"CO","country_name":"Colombia","latitude":"4.59590000","longitude":"-75.94879000","wikiDataId":"Q676377"},{"id":21173,"Name":"Palmira","state_id":2904,"state_code":"VAC","state_name":"Valle del Cauca","country_id":48,"country_code":"CO","country_name":"Colombia","latitude":"3.53969000","longitude":"-76.22607000","wikiDataId":"Q989858"},{"id":21222,"Name":"Pradera","state_id":2904,"state_code":"VAC","state_name":"Valle del Cauca","country_id":48,"country_code":"CO","country_name":"Colombia","latitude":"3.42793000","longitude":"-76.17159000","wikiDataId":"Q2433369"},{"id":21285,"Name":"Restrepo","state_id":2904,"state_code":"VAC","state_name":"Valle del Cauca","country_id":48,"country_code":"CO","country_name":"Colombia","latitude":"3.82203000","longitude":"-76.52242000","wikiDataId":"Q751122"},{"id":21290,"Name":"Riofrío","state_id":2904,"state_code":"VAC","state_name":"Valle del Cauca","country_id":48,"country_code":"CO","country_name":"Colombia","latitude":"4.15710000","longitude":"-76.28852000","wikiDataId":"Q23684473"},{"id":21298,"Name":"Roldanillo","state_id":2904,"state_code":"VAC","state_name":"Valle del Cauca","country_id":48,"country_code":"CO","country_name":"Colombia","latitude":"4.41256000","longitude":"-76.15457000","wikiDataId":"Q1146669"},{"id":21397,"Name":"San Pedro","state_id":2904,"state_code":"VAC","state_name":"Valle del Cauca","country_id":48,"country_code":"CO","country_name":"Colombia","latitude":"3.99936000","longitude":"-76.26123000","wikiDataId":"Q2434300"},{"id":21451,"Name":"Sevilla","state_id":2904,"state_code":"VAC","state_name":"Valle del Cauca","country_id":48,"country_code":"CO","country_name":"Colombia","latitude":"4.19345000","longitude":"-75.88829000","wikiDataId":"Q23682643"},{"id":21544,"Name":"Toro","state_id":2904,"state_code":"VAC","state_name":"Valle del Cauca","country_id":48,"country_code":"CO","country_name":"Colombia","latitude":"4.61167000","longitude":"-76.08139000","wikiDataId":"Q1526212"},{"id":21549,"Name":"Trujillo","state_id":2904,"state_code":"VAC","state_name":"Valle del Cauca","country_id":48,"country_code":"CO","country_name":"Colombia","latitude":"4.23696000","longitude":"-76.34730000","wikiDataId":"Q1525974"},{"id":21551,"Name":"Tuluá","state_id":2904,"state_code":"VAC","state_name":"Valle del Cauca","country_id":48,"country_code":"CO","country_name":"Colombia","latitude":"4.08466000","longitude":"-76.19536000","wikiDataId":"Q1002577"},{"id":21567,"Name":"Ulloa","state_id":2904,"state_code":"VAC","state_name":"Valle del Cauca","country_id":48,"country_code":"CO","country_name":"Colombia","latitude":"4.70745000","longitude":"-75.77781000","wikiDataId":"Q1575644"},{"id":21591,"Name":"Versalles","state_id":2904,"state_code":"VAC","state_name":"Valle del Cauca","country_id":48,"country_code":"CO","country_name":"Colombia","latitude":"4.66335000","longitude":"-76.24649000","wikiDataId":"Q1575339"},{"id":21596,"Name":"Vijes","state_id":2904,"state_code":"VAC","state_name":"Valle del Cauca","country_id":48,"country_code":"CO","country_name":"Colombia","latitude":"3.73283000","longitude":"-76.49363000","wikiDataId":"Q1579084"},{"id":21627,"Name":"Yotoco","state_id":2904,"state_code":"VAC","state_name":"Valle del Cauca","country_id":48,"country_code":"CO","country_name":"Colombia","latitude":"3.86048000","longitude":"-76.38364000","wikiDataId":"Q543996"},{"id":21628,"Name":"Yumbo","state_id":2904,"state_code":"VAC","state_name":"Valle del Cauca","country_id":48,"country_code":"CO","country_name":"Colombia","latitude":"3.58234000","longitude":"-76.49146000","wikiDataId":"Q735378"},{"id":21633,"Name":"Zarzal","state_id":2904,"state_code":"VAC","state_name":"Valle del Cauca","country_id":48,"country_code":"CO","country_name":"Colombia","latitude":"4.39462000","longitude":"-76.07150000","wikiDataId":"Q2434788"}]