[{"id":68017,"Name":"Abasolo del Valle","state_id":3464,"state_code":"VER","state_name":"Veracruz de Ignacio de la Llave","country_id":142,"country_code":"MX","country_name":"Mexico","latitude":"17.78306000","longitude":"-95.54556000","wikiDataId":"Q5654722"},{"id":68021,"Name":"Abrevadero","state_id":3464,"state_code":"VER","state_name":"Veracruz de Ignacio de la Llave","country_id":142,"country_code":"MX","country_name":"Mexico","latitude":"18.28222000","longitude":"-95.21444000","wikiDataId":"Q20129455"},{"id":68028,"Name":"Acajete","state_id":3464,"state_code":"VER","state_name":"Veracruz de Ignacio de la Llave","country_id":142,"country_code":"MX","country_name":"Mexico","latitude":"19.56815000","longitude":"-97.03333000","wikiDataId":"Q4671655"},{"id":68046,"Name":"Acatla","state_id":3464,"state_code":"VER","state_name":"Veracruz de Ignacio de la Llave","country_id":142,"country_code":"MX","country_name":"Mexico","latitude":"18.74944000","longitude":"-97.21833000","wikiDataId":"Q20129755"},{"id":68050,"Name":"Acatlán","state_id":3464,"state_code":"VER","state_name":"Veracruz de Ignacio de la Llave","country_id":142,"country_code":"MX","country_name":"Mexico","latitude":"19.69648000","longitude":"-96.84367000","wikiDataId":"Q8186764"},{"id":68058,"Name":"Acayucan","state_id":3464,"state_code":"VER","state_name":"Veracruz de Ignacio de la Llave","country_id":142,"country_code":"MX","country_name":"Mexico","latitude":"17.94979000","longitude":"-94.91386000","wikiDataId":"Q2384286"},{"id":68059,"Name":"Acazónica","state_id":3464,"state_code":"VER","state_name":"Veracruz de Ignacio de la Llave","country_id":142,"country_code":"MX","country_name":"Mexico","latitude":"19.21284000","longitude":"-96.58978000","wikiDataId":"Q2384286"},{"id":68061,"Name":"Achotal de Moreno","state_id":3464,"state_code":"VER","state_name":"Veracruz de Ignacio de la Llave","country_id":142,"country_code":"MX","country_name":"Mexico","latitude":"17.73652000","longitude":"-95.13395000","wikiDataId":"Q20129909"},{"id":68065,"Name":"Acontitla","state_id":3464,"state_code":"VER","state_name":"Veracruz de Ignacio de la Llave","country_id":142,"country_code":"MX","country_name":"Mexico","latitude":"20.68206000","longitude":"-97.38469000","wikiDataId":"Q20199700"},{"id":68072,"Name":"Actopan","state_id":3464,"state_code":"VER","state_name":"Veracruz de Ignacio de la Llave","country_id":142,"country_code":"MX","country_name":"Mexico","latitude":"19.50427000","longitude":"-96.61668000","wikiDataId":"Q2651815"},{"id":68081,"Name":"Acula","state_id":3464,"state_code":"VER","state_name":"Veracruz de Ignacio de la Llave","country_id":142,"country_code":"MX","country_name":"Mexico","latitude":"18.50563000","longitude":"-95.77427000","wikiDataId":"Q3354618"},{"id":68083,"Name":"Acultzingo","state_id":3464,"state_code":"VER","state_name":"Veracruz de Ignacio de la Llave","country_id":142,"country_code":"MX","country_name":"Mexico","latitude":"18.71894000","longitude":"-97.30367000","wikiDataId":"Q20220404"},{"id":68093,"Name":"Adolfo Moreno","state_id":3464,"state_code":"VER","state_name":"Veracruz de Ignacio de la Llave","country_id":142,"country_code":"MX","country_name":"Mexico","latitude":"19.72472000","longitude":"-97.23806000","wikiDataId":"Q20130314"},{"id":68095,"Name":"Adolfo Ruíz Cortines","state_id":3464,"state_code":"VER","state_name":"Veracruz de Ignacio de la Llave","country_id":142,"country_code":"MX","country_name":"Mexico","latitude":"20.59585000","longitude":"-97.30585000","wikiDataId":"Q20130314"},{"id":68100,"Name":"Agrícola Lázaro Cárdenas","state_id":3464,"state_code":"VER","state_name":"Veracruz de Ignacio de la Llave","country_id":142,"country_code":"MX","country_name":"Mexico","latitude":"18.81361000","longitude":"-97.19833000","wikiDataId":"Q20220433"},{"id":68110,"Name":"Agua Dulce","state_id":3464,"state_code":"VER","state_name":"Veracruz de Ignacio de la Llave","country_id":142,"country_code":"MX","country_name":"Mexico","latitude":"18.13909000","longitude":"-94.14527000","wikiDataId":"Q20131591"},{"id":68128,"Name":"Aguilera","state_id":3464,"state_code":"VER","state_name":"Veracruz de Ignacio de la Llave","country_id":142,"country_code":"MX","country_name":"Mexico","latitude":"17.81083000","longitude":"-95.01500000","wikiDataId":"Q20133137"},{"id":68139,"Name":"Ahuacatán","state_id":3464,"state_code":"VER","state_name":"Veracruz de Ignacio de la Llave","country_id":142,"country_code":"MX","country_name":"Mexico","latitude":"19.78351000","longitude":"-97.29780000","wikiDataId":"Q20133302"},{"id":68144,"Name":"Ahuateno","state_id":3464,"state_code":"VER","state_name":"Veracruz de Ignacio de la Llave","country_id":142,"country_code":"MX","country_name":"Mexico","latitude":"21.00245000","longitude":"-98.15055000","wikiDataId":"Q4518831"},{"id":68159,"Name":"Ahueyahualco","state_id":3464,"state_code":"VER","state_name":"Veracruz de Ignacio de la Llave","country_id":142,"country_code":"MX","country_name":"Mexico","latitude":"19.71974000","longitude":"-97.25984000","wikiDataId":"Q20133603"},{"id":76390,"Name":"Álamo","state_id":3464,"state_code":"VER","state_name":"Veracruz de Ignacio de la Llave","country_id":142,"country_code":"MX","country_name":"Mexico","latitude":"20.91154000","longitude":"-97.67554000","wikiDataId":"Q4060480"},{"id":76391,"Name":"Álamo Temapache","state_id":3464,"state_code":"VER","state_name":"Veracruz de Ignacio de la Llave","country_id":142,"country_code":"MX","country_name":"Mexico","latitude":"20.98922000","longitude":"-97.70592000","wikiDataId":"Q1962146"},{"id":68177,"Name":"Alborada","state_id":3464,"state_code":"VER","state_name":"Veracruz de Ignacio de la Llave","country_id":142,"country_code":"MX","country_name":"Mexico","latitude":"19.44851000","longitude":"-96.87109000","wikiDataId":"Q1998869"},{"id":68205,"Name":"Allende","state_id":3464,"state_code":"VER","state_name":"Veracruz de Ignacio de la Llave","country_id":142,"country_code":"MX","country_name":"Mexico","latitude":"18.15514000","longitude":"-94.39289000","wikiDataId":"Q20268891"},{"id":68209,"Name":"Almagres","state_id":3464,"state_code":"VER","state_name":"Veracruz de Ignacio de la Llave","country_id":142,"country_code":"MX","country_name":"Mexico","latitude":"17.80750000","longitude":"-94.91750000","wikiDataId":"Q20268893"},{"id":68217,"Name":"Alpatláhuac","state_id":3464,"state_code":"VER","state_name":"Veracruz de Ignacio de la Llave","country_id":142,"country_code":"MX","country_name":"Mexico","latitude":"19.10155000","longitude":"-97.12174000","wikiDataId":"Q3365424"},{"id":68227,"Name":"Alto Lucero","state_id":3464,"state_code":"VER","state_name":"Veracruz de Ignacio de la Llave","country_id":142,"country_code":"MX","country_name":"Mexico","latitude":"20.95361000","longitude":"-97.44194000","wikiDataId":"Q20135149"},{"id":68228,"Name":"Altotonga","state_id":3464,"state_code":"VER","state_name":"Veracruz de Ignacio de la Llave","country_id":142,"country_code":"MX","country_name":"Mexico","latitude":"19.76613000","longitude":"-97.24514000","wikiDataId":"Q20251503"},{"id":68230,"Name":"Alvarado","state_id":3464,"state_code":"VER","state_name":"Veracruz de Ignacio de la Llave","country_id":142,"country_code":"MX","country_name":"Mexico","latitude":"18.77143000","longitude":"-95.76181000","wikiDataId":"Q448370"},{"id":68241,"Name":"Amatitlán","state_id":3464,"state_code":"VER","state_name":"Veracruz de Ignacio de la Llave","country_id":142,"country_code":"MX","country_name":"Mexico","latitude":"18.43371000","longitude":"-95.68388000","wikiDataId":"Q630287"},{"id":68243,"Name":"Amatlán","state_id":3464,"state_code":"VER","state_name":"Veracruz de Ignacio de la Llave","country_id":142,"country_code":"MX","country_name":"Mexico","latitude":"21.33519000","longitude":"-97.75704000","wikiDataId":"Q630287"},{"id":68246,"Name":"Amatlán de los Reyes","state_id":3464,"state_code":"VER","state_name":"Veracruz de Ignacio de la Llave","country_id":142,"country_code":"MX","country_name":"Mexico","latitude":"18.84658000","longitude":"-96.91595000","wikiDataId":"Q20135549"},{"id":68267,"Name":"Anahuac","state_id":3464,"state_code":"VER","state_name":"Veracruz de Ignacio de la Llave","country_id":142,"country_code":"MX","country_name":"Mexico","latitude":"22.20275000","longitude":"-97.85506000","wikiDataId":"Q20136240"},{"id":68273,"Name":"Angel R. Cabada","state_id":3464,"state_code":"VER","state_name":"Veracruz de Ignacio de la Llave","country_id":142,"country_code":"MX","country_name":"Mexico","latitude":"18.60798000","longitude":"-95.39724000","wikiDataId":"Q3893285"},{"id":68281,"Name":"Antón Lizardo","state_id":3464,"state_code":"VER","state_name":"Veracruz de Ignacio de la Llave","country_id":142,"country_code":"MX","country_name":"Mexico","latitude":"19.05962000","longitude":"-95.99272000","wikiDataId":"Q2885816"},{"id":68279,"Name":"Antonio J Bermúdez","state_id":3464,"state_code":"VER","state_name":"Veracruz de Ignacio de la Llave","country_id":142,"country_code":"MX","country_name":"Mexico","latitude":"22.15046000","longitude":"-98.15873000","wikiDataId":"Q20136552"},{"id":68304,"Name":"Apazapan","state_id":3464,"state_code":"VER","state_name":"Veracruz de Ignacio de la Llave","country_id":142,"country_code":"MX","country_name":"Mexico","latitude":"19.33175000","longitude":"-96.65058000","wikiDataId":"Q3847117"},{"id":68316,"Name":"Aquila","state_id":3464,"state_code":"VER","state_name":"Veracruz de Ignacio de la Llave","country_id":142,"country_code":"MX","country_name":"Mexico","latitude":"18.78958000","longitude":"-97.32319000","wikiDataId":"Q3847202"},{"id":68319,"Name":"Aquiles Serdán","state_id":3464,"state_code":"VER","state_name":"Veracruz de Ignacio de la Llave","country_id":142,"country_code":"MX","country_name":"Mexico","latitude":"21.87206000","longitude":"-98.14794000","wikiDataId":"Q20227607"},{"id":68335,"Name":"Arboledas","state_id":3464,"state_code":"VER","state_name":"Veracruz de Ignacio de la Llave","country_id":142,"country_code":"MX","country_name":"Mexico","latitude":"19.20722000","longitude":"-96.21444000","wikiDataId":"Q20220665"},{"id":68337,"Name":"Arbolillo","state_id":3464,"state_code":"VER","state_name":"Veracruz de Ignacio de la Llave","country_id":142,"country_code":"MX","country_name":"Mexico","latitude":"18.81631000","longitude":"-95.83601000","wikiDataId":"Q20137124"},{"id":68347,"Name":"Arenal Santa Ana","state_id":3464,"state_code":"VER","state_name":"Veracruz de Ignacio de la Llave","country_id":142,"country_code":"MX","country_name":"Mexico","latitude":"17.78951000","longitude":"-95.76970000","wikiDataId":"Q20274548"},{"id":68370,"Name":"Arroyo del Maíz Uno","state_id":3464,"state_code":"VER","state_name":"Veracruz de Ignacio de la Llave","country_id":142,"country_code":"MX","country_name":"Mexico","latitude":"20.53667000","longitude":"-97.41528000","wikiDataId":"Q20220707"},{"id":68371,"Name":"Arroyo del Potrero","state_id":3464,"state_code":"VER","state_name":"Veracruz de Ignacio de la Llave","country_id":142,"country_code":"MX","country_name":"Mexico","latitude":"20.14554000","longitude":"-97.06520000","wikiDataId":"Q20220707"},{"id":68360,"Name":"Arroyo Hondo","state_id":3464,"state_code":"VER","state_name":"Veracruz de Ignacio de la Llave","country_id":142,"country_code":"MX","country_name":"Mexico","latitude":"20.02317000","longitude":"-96.87372000","wikiDataId":"Q20229027"},{"id":68364,"Name":"Arroyo San Isidro","state_id":3464,"state_code":"VER","state_name":"Veracruz de Ignacio de la Llave","country_id":142,"country_code":"MX","country_name":"Mexico","latitude":"18.48667000","longitude":"-95.41333000","wikiDataId":"Q20138603"},{"id":68381,"Name":"Astacinga","state_id":3464,"state_code":"VER","state_name":"Veracruz de Ignacio de la Llave","country_id":142,"country_code":"MX","country_name":"Mexico","latitude":"18.56900000","longitude":"-97.10376000","wikiDataId":"Q513993"},{"id":68412,"Name":"Atlahuilco","state_id":3464,"state_code":"VER","state_name":"Veracruz de Ignacio de la Llave","country_id":142,"country_code":"MX","country_name":"Mexico","latitude":"18.68308000","longitude":"-97.11553000","wikiDataId":"Q3847260"},{"id":68433,"Name":"Atoyac","state_id":3464,"state_code":"VER","state_name":"Veracruz de Ignacio de la Llave","country_id":142,"country_code":"MX","country_name":"Mexico","latitude":"18.93182000","longitude":"-96.80203000","wikiDataId":"Q2651766"},{"id":68436,"Name":"Atzacan","state_id":3464,"state_code":"VER","state_name":"Veracruz de Ignacio de la Llave","country_id":142,"country_code":"MX","country_name":"Mexico","latitude":"18.90724000","longitude":"-97.08307000","wikiDataId":"Q3847285"},{"id":68439,"Name":"Atzalan","state_id":3464,"state_code":"VER","state_name":"Veracruz de Ignacio de la Llave","country_id":142,"country_code":"MX","country_name":"Mexico","latitude":"19.78864000","longitude":"-97.24195000","wikiDataId":"Q3847243"},{"id":68452,"Name":"Axochío","state_id":3464,"state_code":"VER","state_name":"Veracruz de Ignacio de la Llave","country_id":142,"country_code":"MX","country_name":"Mexico","latitude":"18.37175000","longitude":"-95.29985000","wikiDataId":"Q2651949"},{"id":68458,"Name":"Ayahualulco","state_id":3464,"state_code":"VER","state_name":"Veracruz de Ignacio de la Llave","country_id":142,"country_code":"MX","country_name":"Mexico","latitude":"19.38613000","longitude":"-97.14853000","wikiDataId":"Q3847133"},{"id":68466,"Name":"Ayotuxtla","state_id":3464,"state_code":"VER","state_name":"Veracruz de Ignacio de la Llave","country_id":142,"country_code":"MX","country_name":"Mexico","latitude":"20.64885000","longitude":"-98.30264000","wikiDataId":"Q3893079"},{"id":68511,"Name":"Banderas","state_id":3464,"state_code":"VER","state_name":"Veracruz de Ignacio de la Llave","country_id":142,"country_code":"MX","country_name":"Mexico","latitude":"20.99083000","longitude":"-97.39361000","wikiDataId":"Q20264030"},{"id":68514,"Name":"Banderilla","state_id":3464,"state_code":"VER","state_name":"Veracruz de Ignacio de la Llave","country_id":142,"country_code":"MX","country_name":"Mexico","latitude":"19.58893000","longitude":"-96.93727000","wikiDataId":"Q20253078"},{"id":68516,"Name":"Bara de Chachalacas","state_id":3464,"state_code":"VER","state_name":"Veracruz de Ignacio de la Llave","country_id":142,"country_code":"MX","country_name":"Mexico","latitude":"19.40643000","longitude":"-96.34159000","wikiDataId":"Q20253078"},{"id":68518,"Name":"Barra de Cazones","state_id":3464,"state_code":"VER","state_name":"Veracruz de Ignacio de la Llave","country_id":142,"country_code":"MX","country_name":"Mexico","latitude":"20.72307000","longitude":"-97.20320000","wikiDataId":"Q20253078"},{"id":68520,"Name":"Barrancas","state_id":3464,"state_code":"VER","state_name":"Veracruz de Ignacio de la Llave","country_id":142,"country_code":"MX","country_name":"Mexico","latitude":"18.06918000","longitude":"-94.58691000","wikiDataId":"Q27767804"},{"id":68550,"Name":"Barrio de San Miguel","state_id":3464,"state_code":"VER","state_name":"Veracruz de Ignacio de la Llave","country_id":142,"country_code":"MX","country_name":"Mexico","latitude":"19.64333000","longitude":"-97.12389000","wikiDataId":"Q20253424"},{"id":68575,"Name":"Bella Esperanza","state_id":3464,"state_code":"VER","state_name":"Veracruz de Ignacio de la Llave","country_id":142,"country_code":"MX","country_name":"Mexico","latitude":"19.43329000","longitude":"-96.86648000","wikiDataId":"Q20253861"},{"id":68594,"Name":"Benito Juárez","state_id":3464,"state_code":"VER","state_name":"Veracruz de Ignacio de la Llave","country_id":142,"country_code":"MX","country_name":"Mexico","latitude":"20.88635000","longitude":"-98.20594000","wikiDataId":"Q4888100"},{"id":68617,"Name":"Blanca Espuma","state_id":3464,"state_code":"VER","state_name":"Veracruz de Ignacio de la Llave","country_id":142,"country_code":"MX","country_name":"Mexico","latitude":"19.58117000","longitude":"-96.68819000","wikiDataId":"Q20274868"},{"id":68621,"Name":"Boca del Monte","state_id":3464,"state_code":"VER","state_name":"Veracruz de Ignacio de la Llave","country_id":142,"country_code":"MX","country_name":"Mexico","latitude":"19.15451000","longitude":"-96.83270000","wikiDataId":"Q20220968"},{"id":68622,"Name":"Boca del Rio","state_id":3464,"state_code":"VER","state_name":"Veracruz de Ignacio de la Llave","country_id":142,"country_code":"MX","country_name":"Mexico","latitude":"19.10464000","longitude":"-96.10405000","wikiDataId":"Q888954"},{"id":68659,"Name":"Buena Vista","state_id":3464,"state_code":"VER","state_name":"Veracruz de Ignacio de la Llave","country_id":142,"country_code":"MX","country_name":"Mexico","latitude":"19.04278000","longitude":"-96.85667000","wikiDataId":"Q20145790"},{"id":68669,"Name":"Buenavista","state_id":3464,"state_code":"VER","state_name":"Veracruz de Ignacio de la Llave","country_id":142,"country_code":"MX","country_name":"Mexico","latitude":"18.89306000","longitude":"-97.03694000","wikiDataId":"Q20221044"},{"id":68685,"Name":"Buenos Aires","state_id":3464,"state_code":"VER","state_name":"Veracruz de Ignacio de la Llave","country_id":142,"country_code":"MX","country_name":"Mexico","latitude":"18.46463000","longitude":"-95.24879000","wikiDataId":"Q20229054"},{"id":68691,"Name":"Buenos Aires (San Isidro)","state_id":3464,"state_code":"VER","state_name":"Veracruz de Ignacio de la Llave","country_id":142,"country_code":"MX","country_name":"Mexico","latitude":"20.84028000","longitude":"-97.60139000","wikiDataId":"Q20268941"},{"id":68703,"Name":"Cabezas","state_id":3464,"state_code":"VER","state_name":"Veracruz de Ignacio de la Llave","country_id":142,"country_code":"MX","country_name":"Mexico","latitude":"19.37167000","longitude":"-96.38278000","wikiDataId":"Q20147049"},{"id":68706,"Name":"Cacahuatal","state_id":3464,"state_code":"VER","state_name":"Veracruz de Ignacio de la Llave","country_id":142,"country_code":"MX","country_name":"Mexico","latitude":"18.83098000","longitude":"-96.84192000","wikiDataId":"Q20254830"},{"id":68728,"Name":"Calcahualco","state_id":3464,"state_code":"VER","state_name":"Veracruz de Ignacio de la Llave","country_id":142,"country_code":"MX","country_name":"Mexico","latitude":"19.13698000","longitude":"-97.14201000","wikiDataId":"Q3892704"},{"id":68734,"Name":"Calería","state_id":3464,"state_code":"VER","state_name":"Veracruz de Ignacio de la Llave","country_id":142,"country_code":"MX","country_name":"Mexico","latitude":"18.42883000","longitude":"-95.17737000","wikiDataId":"Q20147578"},{"id":68735,"Name":"Calichar Palma Sola","state_id":3464,"state_code":"VER","state_name":"Veracruz de Ignacio de la Llave","country_id":142,"country_code":"MX","country_name":"Mexico","latitude":"20.44155000","longitude":"-97.55103000","wikiDataId":"Q20147578"},{"id":68755,"Name":"Calzadas","state_id":3464,"state_code":"VER","state_name":"Veracruz de Ignacio de la Llave","country_id":142,"country_code":"MX","country_name":"Mexico","latitude":"18.10121000","longitude":"-94.45524000","wikiDataId":"Q2656541"},{"id":68760,"Name":"Camarón de Tejeda","state_id":3464,"state_code":"VER","state_name":"Veracruz de Ignacio de la Llave","country_id":142,"country_code":"MX","country_name":"Mexico","latitude":"19.00810000","longitude":"-96.56807000","wikiDataId":"Q5024980"},{"id":68763,"Name":"Camerino Z. Mendoza","state_id":3464,"state_code":"VER","state_name":"Veracruz de Ignacio de la Llave","country_id":142,"country_code":"MX","country_name":"Mexico","latitude":"18.78246000","longitude":"-97.16016000","wikiDataId":"Q1997984"},{"id":68776,"Name":"Campo Chico","state_id":3464,"state_code":"VER","state_name":"Veracruz de Ignacio de la Llave","country_id":142,"country_code":"MX","country_name":"Mexico","latitude":"18.83639000","longitude":"-97.02802000","wikiDataId":"Q20148604"},{"id":68780,"Name":"Campo de Águila","state_id":3464,"state_code":"VER","state_name":"Veracruz de Ignacio de la Llave","country_id":142,"country_code":"MX","country_name":"Mexico","latitude":"18.06750000","longitude":"-94.98611000","wikiDataId":"Q20268951"},{"id":68777,"Name":"Campo Grande","state_id":3464,"state_code":"VER","state_name":"Veracruz de Ignacio de la Llave","country_id":142,"country_code":"MX","country_name":"Mexico","latitude":"18.82296000","longitude":"-97.01265000","wikiDataId":"Q20148604"},{"id":68807,"Name":"Capoluca","state_id":3464,"state_code":"VER","state_name":"Veracruz de Ignacio de la Llave","country_id":142,"country_code":"MX","country_name":"Mexico","latitude":"18.80639000","longitude":"-97.02722000","wikiDataId":"Q20256434"},{"id":68823,"Name":"Caristay","state_id":3464,"state_code":"VER","state_name":"Veracruz de Ignacio de la Llave","country_id":142,"country_code":"MX","country_name":"Mexico","latitude":"20.64538000","longitude":"-97.30593000","wikiDataId":"Q15043366"},{"id":68824,"Name":"Carlos A. Carrillo","state_id":3464,"state_code":"VER","state_name":"Veracruz de Ignacio de la Llave","country_id":142,"country_code":"MX","country_name":"Mexico","latitude":"18.37477000","longitude":"-95.75444000","wikiDataId":"Q20256568"},{"id":68840,"Name":"Carrillo Puerto","state_id":3464,"state_code":"VER","state_name":"Veracruz de Ignacio de la Llave","country_id":142,"country_code":"MX","country_name":"Mexico","latitude":"18.81314000","longitude":"-96.58230000","wikiDataId":"Q3894268"},{"id":68841,"Name":"Carrizal","state_id":3464,"state_code":"VER","state_name":"Veracruz de Ignacio de la Llave","country_id":142,"country_code":"MX","country_name":"Mexico","latitude":"20.59552000","longitude":"-97.25676000","wikiDataId":"Q3894268"},{"id":68857,"Name":"Casitas","state_id":3464,"state_code":"VER","state_name":"Veracruz de Ignacio de la Llave","country_id":142,"country_code":"MX","country_name":"Mexico","latitude":"20.25532000","longitude":"-96.80114000","wikiDataId":"Q20275318"},{"id":68860,"Name":"Castillo de Teayo","state_id":3464,"state_code":"VER","state_name":"Veracruz de Ignacio de la Llave","country_id":142,"country_code":"MX","country_name":"Mexico","latitude":"20.74927000","longitude":"-97.63030000","wikiDataId":"Q5049941"},{"id":68863,"Name":"Catemaco","state_id":3464,"state_code":"VER","state_name":"Veracruz de Ignacio de la Llave","country_id":142,"country_code":"MX","country_name":"Mexico","latitude":"18.42131000","longitude":"-95.11398000","wikiDataId":"Q20221358"},{"id":68867,"Name":"Caxapa","state_id":3464,"state_code":"VER","state_name":"Veracruz de Ignacio de la Llave","country_id":142,"country_code":"MX","country_name":"Mexico","latitude":"18.43103000","longitude":"-96.77456000","wikiDataId":"Q20275325"},{"id":68872,"Name":"Cazones de Herrera","state_id":3464,"state_code":"VER","state_name":"Veracruz de Ignacio de la Llave","country_id":142,"country_code":"MX","country_name":"Mexico","latitude":"20.70423000","longitude":"-97.30994000","wikiDataId":"Q20221367"},{"id":68886,"Name":"Cecilio Terán","state_id":3464,"state_code":"VER","state_name":"Veracruz de Ignacio de la Llave","country_id":142,"country_code":"MX","country_name":"Mexico","latitude":"18.81480000","longitude":"-97.22526000","wikiDataId":"Q20218036"},{"id":68894,"Name":"Cementeras del Pital","state_id":3464,"state_code":"VER","state_name":"Veracruz de Ignacio de la Llave","country_id":142,"country_code":"MX","country_name":"Mexico","latitude":"20.17694000","longitude":"-96.89583000","wikiDataId":"Q20268976"},{"id":68901,"Name":"Centro de Readaptación Social","state_id":3464,"state_code":"VER","state_name":"Veracruz de Ignacio de la Llave","country_id":142,"country_code":"MX","country_name":"Mexico","latitude":"19.62500000","longitude":"-97.22028000","wikiDataId":"Q20264544"},{"id":68914,"Name":"Cerritos","state_id":3464,"state_code":"VER","state_name":"Veracruz de Ignacio de la Llave","country_id":142,"country_code":"MX","country_name":"Mexico","latitude":"19.13329000","longitude":"-96.60931000","wikiDataId":"Q20257423"},{"id":68922,"Name":"Cerro Azul","state_id":3464,"state_code":"VER","state_name":"Veracruz de Ignacio de la Llave","country_id":142,"country_code":"MX","country_name":"Mexico","latitude":"21.19200000","longitude":"-97.74088000","wikiDataId":"Q27772333"},{"id":68925,"Name":"Cerro Gordo","state_id":3464,"state_code":"VER","state_name":"Veracruz de Ignacio de la Llave","country_id":142,"country_code":"MX","country_name":"Mexico","latitude":"19.56951000","longitude":"-96.64835000","wikiDataId":"Q20257875"},{"id":68929,"Name":"Cerro Grande","state_id":3464,"state_code":"VER","state_name":"Veracruz de Ignacio de la Llave","country_id":142,"country_code":"MX","country_name":"Mexico","latitude":"20.23861000","longitude":"-97.68194000","wikiDataId":"Q20221539"},{"id":68930,"Name":"Cerro Guzmán","state_id":3464,"state_code":"VER","state_name":"Veracruz de Ignacio de la Llave","country_id":142,"country_code":"MX","country_name":"Mexico","latitude":"19.23543000","longitude":"-96.37856000","wikiDataId":"Q20221539"},{"id":68940,"Name":"Cerro las Iguanas","state_id":3464,"state_code":"VER","state_name":"Veracruz de Ignacio de la Llave","country_id":142,"country_code":"MX","country_name":"Mexico","latitude":"18.41083000","longitude":"-95.19972000","wikiDataId":"Q20257918"},{"id":68945,"Name":"Chacalapa","state_id":3464,"state_code":"VER","state_name":"Veracruz de Ignacio de la Llave","country_id":142,"country_code":"MX","country_name":"Mexico","latitude":"18.07860000","longitude":"-94.70280000","wikiDataId":"Q20268995"},{"id":68947,"Name":"Chacaltianguis","state_id":3464,"state_code":"VER","state_name":"Veracruz de Ignacio de la Llave","country_id":142,"country_code":"MX","country_name":"Mexico","latitude":"18.30528000","longitude":"-95.84167000","wikiDataId":"Q3847197"},{"id":68964,"Name":"Chalma","state_id":3464,"state_code":"VER","state_name":"Veracruz de Ignacio de la Llave","country_id":142,"country_code":"MX","country_name":"Mexico","latitude":"21.20799000","longitude":"-98.37526000","wikiDataId":"Q4936711"},{"id":68984,"Name":"Chapopote Chico","state_id":3464,"state_code":"VER","state_name":"Veracruz de Ignacio de la Llave","country_id":142,"country_code":"MX","country_name":"Mexico","latitude":"21.13704000","longitude":"-98.24780000","wikiDataId":"Q3844596"},{"id":68985,"Name":"Chapopote Núñez","state_id":3464,"state_code":"VER","state_name":"Veracruz de Ignacio de la Llave","country_id":142,"country_code":"MX","country_name":"Mexico","latitude":"20.93167000","longitude":"-97.68274000","wikiDataId":"Q3844596"},{"id":69001,"Name":"Chavarrillo","state_id":3464,"state_code":"VER","state_name":"Veracruz de Ignacio de la Llave","country_id":142,"country_code":"MX","country_name":"Mexico","latitude":"19.42551000","longitude":"-96.79458000","wikiDataId":"Q50024901"},{"id":69003,"Name":"Chavaxtla","state_id":3464,"state_code":"VER","state_name":"Veracruz de Ignacio de la Llave","country_id":142,"country_code":"MX","country_name":"Mexico","latitude":"19.13016000","longitude":"-96.83054000","wikiDataId":"Q50024901"},{"id":69024,"Name":"Chichicaxtle","state_id":3464,"state_code":"VER","state_name":"Veracruz de Ignacio de la Llave","country_id":142,"country_code":"MX","country_name":"Mexico","latitude":"19.34306000","longitude":"-96.46861000","wikiDataId":"Q20264777"},{"id":69035,"Name":"Chicola","state_id":3464,"state_code":"VER","state_name":"Veracruz de Ignacio de la Llave","country_id":142,"country_code":"MX","country_name":"Mexico","latitude":"18.90139000","longitude":"-97.10806000","wikiDataId":"Q20221666"},{"id":69039,"Name":"Chiconamel","state_id":3464,"state_code":"VER","state_name":"Veracruz de Ignacio de la Llave","country_id":142,"country_code":"MX","country_name":"Mexico","latitude":"21.24326000","longitude":"-98.45426000","wikiDataId":"Q591603"},{"id":69043,"Name":"Chiconquiaco","state_id":3464,"state_code":"VER","state_name":"Veracruz de Ignacio de la Llave","country_id":142,"country_code":"MX","country_name":"Mexico","latitude":"19.74208000","longitude":"-96.81851000","wikiDataId":"Q3847193"},{"id":69044,"Name":"Chicontepec","state_id":3464,"state_code":"VER","state_name":"Veracruz de Ignacio de la Llave","country_id":142,"country_code":"MX","country_name":"Mexico","latitude":"20.97214000","longitude":"-98.17239000","wikiDataId":"Q4968555"},{"id":69046,"Name":"Chicualoque","state_id":3464,"state_code":"VER","state_name":"Veracruz de Ignacio de la Llave","country_id":142,"country_code":"MX","country_name":"Mexico","latitude":"20.38272000","longitude":"-97.66163000","wikiDataId":"Q20264801"},{"id":69047,"Name":"Chicuasen","state_id":3464,"state_code":"VER","state_name":"Veracruz de Ignacio de la Llave","country_id":142,"country_code":"MX","country_name":"Mexico","latitude":"19.52785000","longitude":"-96.67224000","wikiDataId":"Q20264801"},{"id":69063,"Name":"Chilapa","state_id":3464,"state_code":"VER","state_name":"Veracruz de Ignacio de la Llave","country_id":142,"country_code":"MX","country_name":"Mexico","latitude":"18.98861000","longitude":"-97.15417000","wikiDataId":"Q20264844"},{"id":69074,"Name":"Chiltoyac","state_id":3464,"state_code":"VER","state_name":"Veracruz de Ignacio de la Llave","country_id":142,"country_code":"MX","country_name":"Mexico","latitude":"19.57708000","longitude":"-96.86660000","wikiDataId":"Q207935"},{"id":69082,"Name":"Chinameca","state_id":3464,"state_code":"VER","state_name":"Veracruz de Ignacio de la Llave","country_id":142,"country_code":"MX","country_name":"Mexico","latitude":"18.02195000","longitude":"-94.67945000","wikiDataId":"Q20269033"},{"id":69083,"Name":"Chinampa de Gorostiza","state_id":3464,"state_code":"VER","state_name":"Veracruz de Ignacio de la Llave","country_id":142,"country_code":"MX","country_name":"Mexico","latitude":"21.35959000","longitude":"-97.73484000","wikiDataId":"Q3844933"},{"id":69097,"Name":"Chocamán","state_id":3464,"state_code":"VER","state_name":"Veracruz de Ignacio de la Llave","country_id":142,"country_code":"MX","country_name":"Mexico","latitude":"19.01214000","longitude":"-97.03291000","wikiDataId":"Q5103501"},{"id":69104,"Name":"Chonegal","state_id":3464,"state_code":"VER","state_name":"Veracruz de Ignacio de la Llave","country_id":142,"country_code":"MX","country_name":"Mexico","latitude":"18.57523000","longitude":"-95.39347000","wikiDataId":"Q1007232"},{"id":69107,"Name":"Chontla","state_id":3464,"state_code":"VER","state_name":"Veracruz de Ignacio de la Llave","country_id":142,"country_code":"MX","country_name":"Mexico","latitude":"21.39198000","longitude":"-97.97877000","wikiDataId":"Q3847273"},{"id":69115,"Name":"Chumatlán","state_id":3464,"state_code":"VER","state_name":"Veracruz de Ignacio de la Llave","country_id":142,"country_code":"MX","country_name":"Mexico","latitude":"20.20574000","longitude":"-97.59402000","wikiDataId":"Q3847206"},{"id":69120,"Name":"Chuniapan de Arriba","state_id":3464,"state_code":"VER","state_name":"Veracruz de Ignacio de la Llave","country_id":142,"country_code":"MX","country_name":"Mexico","latitude":"18.34803000","longitude":"-95.18156000","wikiDataId":"Q368220"},{"id":69140,"Name":"Citlaltépec","state_id":3464,"state_code":"VER","state_name":"Veracruz de Ignacio de la Llave","country_id":142,"country_code":"MX","country_name":"Mexico","latitude":"21.32912000","longitude":"-97.87861000","wikiDataId":"Q5770455"},{"id":69141,"Name":"Citlaltépetl","state_id":3464,"state_code":"VER","state_name":"Veracruz de Ignacio de la Llave","country_id":142,"country_code":"MX","country_name":"Mexico","latitude":"21.34351000","longitude":"-97.89201000","wikiDataId":"Q5770480"},{"id":69152,"Name":"Ciudad Cuauhtémoc","state_id":3464,"state_code":"VER","state_name":"Veracruz de Ignacio de la Llave","country_id":142,"country_code":"MX","country_name":"Mexico","latitude":"22.18439000","longitude":"-97.83472000","wikiDataId":"Q20273969"},{"id":69170,"Name":"Ciudad Mendoza","state_id":3464,"state_code":"VER","state_name":"Veracruz de Ignacio de la Llave","country_id":142,"country_code":"MX","country_name":"Mexico","latitude":"18.80645000","longitude":"-97.17870000","wikiDataId":"Q4448359"},{"id":69206,"Name":"Coacoatzintla","state_id":3464,"state_code":"VER","state_name":"Veracruz de Ignacio de la Llave","country_id":142,"country_code":"MX","country_name":"Mexico","latitude":"19.65163000","longitude":"-96.94043000","wikiDataId":"Q20265009"},{"id":69207,"Name":"Coacotla","state_id":3464,"state_code":"VER","state_name":"Veracruz de Ignacio de la Llave","country_id":142,"country_code":"MX","country_name":"Mexico","latitude":"17.93656000","longitude":"-94.66711000","wikiDataId":"Q20265009"},{"id":69216,"Name":"Coahuitlán","state_id":3464,"state_code":"VER","state_name":"Veracruz de Ignacio de la Llave","country_id":142,"country_code":"MX","country_name":"Mexico","latitude":"20.27543000","longitude":"-97.70022000","wikiDataId":"Q5137678"},{"id":69224,"Name":"Coatepec","state_id":3464,"state_code":"VER","state_name":"Veracruz de Ignacio de la Llave","country_id":142,"country_code":"MX","country_name":"Mexico","latitude":"19.45229000","longitude":"-96.96148000","wikiDataId":"Q1104455"},{"id":69231,"Name":"Coatzacoalcos","state_id":3464,"state_code":"VER","state_name":"Veracruz de Ignacio de la Llave","country_id":142,"country_code":"MX","country_name":"Mexico","latitude":"18.14905000","longitude":"-94.44470000","wikiDataId":"Q502023"},{"id":69233,"Name":"Coatzintla","state_id":3464,"state_code":"VER","state_name":"Veracruz de Ignacio de la Llave","country_id":142,"country_code":"MX","country_name":"Mexico","latitude":"20.48699000","longitude":"-97.46823000","wikiDataId":"Q2448176"},{"id":69246,"Name":"Coetzala","state_id":3464,"state_code":"VER","state_name":"Veracruz de Ignacio de la Llave","country_id":142,"country_code":"MX","country_name":"Mexico","latitude":"18.78521000","longitude":"-96.91697000","wikiDataId":"Q3847083"},{"id":69256,"Name":"Colatlán","state_id":3464,"state_code":"VER","state_name":"Veracruz de Ignacio de la Llave","country_id":142,"country_code":"MX","country_name":"Mexico","latitude":"20.81642000","longitude":"-98.09697000","wikiDataId":"Q20236962"},{"id":69261,"Name":"Colipa","state_id":3464,"state_code":"VER","state_name":"Veracruz de Ignacio de la Llave","country_id":142,"country_code":"MX","country_name":"Mexico","latitude":"19.92323000","longitude":"-96.72713000","wikiDataId":"Q3847092"},{"id":69272,"Name":"Colonia Adolfo Ruiz Cortines (Colonia Obrera)","state_id":3464,"state_code":"VER","state_name":"Veracruz de Ignacio de la Llave","country_id":142,"country_code":"MX","country_name":"Mexico","latitude":"18.25694000","longitude":"-96.16139000","wikiDataId":"Q20265072"},{"id":69287,"Name":"Colonia Chalchihuecan","state_id":3464,"state_code":"VER","state_name":"Veracruz de Ignacio de la Llave","country_id":142,"country_code":"MX","country_name":"Mexico","latitude":"19.21417000","longitude":"-96.21444000","wikiDataId":"Q20265121"},{"id":69390,"Name":"Colonia el Renacimiento","state_id":3464,"state_code":"VER","state_name":"Veracruz de Ignacio de la Llave","country_id":142,"country_code":"MX","country_name":"Mexico","latitude":"19.21889000","longitude":"-96.21639000","wikiDataId":"Q20221959"},{"id":69397,"Name":"Colonia las Flores","state_id":3464,"state_code":"VER","state_name":"Veracruz de Ignacio de la Llave","country_id":142,"country_code":"MX","country_name":"Mexico","latitude":"21.36167000","longitude":"-97.69306000","wikiDataId":"Q20222016"},{"id":69320,"Name":"Colonia Lealtad","state_id":3464,"state_code":"VER","state_name":"Veracruz de Ignacio de la Llave","country_id":142,"country_code":"MX","country_name":"Mexico","latitude":"17.96306000","longitude":"-94.90250000","wikiDataId":"Q20265238"},{"id":69321,"Name":"Colonia Libertad","state_id":3464,"state_code":"VER","state_name":"Veracruz de Ignacio de la Llave","country_id":142,"country_code":"MX","country_name":"Mexico","latitude":"19.67734000","longitude":"-97.21262000","wikiDataId":"Q20265238"},{"id":69327,"Name":"Colonia Manuel González","state_id":3464,"state_code":"VER","state_name":"Veracruz de Ignacio de la Llave","country_id":142,"country_code":"MX","country_name":"Mexico","latitude":"19.11495000","longitude":"-96.85939000","wikiDataId":"Q20130268"},{"id":69369,"Name":"Colonia Santa Bárbara","state_id":3464,"state_code":"VER","state_name":"Veracruz de Ignacio de la Llave","country_id":142,"country_code":"MX","country_name":"Mexico","latitude":"19.50191000","longitude":"-96.87817000","wikiDataId":"Q20265289"},{"id":69407,"Name":"Colonia Úrsulo Galván","state_id":3464,"state_code":"VER","state_name":"Veracruz de Ignacio de la Llave","country_id":142,"country_code":"MX","country_name":"Mexico","latitude":"19.42862000","longitude":"-96.97842000","wikiDataId":"Q20235641"},{"id":69408,"Name":"Colonias Pedernales","state_id":3464,"state_code":"VER","state_name":"Veracruz de Ignacio de la Llave","country_id":142,"country_code":"MX","country_name":"Mexico","latitude":"20.04583000","longitude":"-97.05139000","wikiDataId":"Q20265300"},{"id":69410,"Name":"Colorines","state_id":3464,"state_code":"VER","state_name":"Veracruz de Ignacio de la Llave","country_id":142,"country_code":"MX","country_name":"Mexico","latitude":"18.88472000","longitude":"-96.97833000","wikiDataId":"Q20132864"},{"id":69423,"Name":"Comapa","state_id":3464,"state_code":"VER","state_name":"Veracruz de Ignacio de la Llave","country_id":142,"country_code":"MX","country_name":"Mexico","latitude":"19.13889000","longitude":"-96.71374000","wikiDataId":"Q20270882"},{"id":69424,"Name":"Comején","state_id":3464,"state_code":"VER","state_name":"Veracruz de Ignacio de la Llave","country_id":142,"country_code":"MX","country_name":"Mexico","latitude":"18.06126000","longitude":"-94.88552000","wikiDataId":"Q20270882"},{"id":69426,"Name":"Comoapan","state_id":3464,"state_code":"VER","state_name":"Veracruz de Ignacio de la Llave","country_id":142,"country_code":"MX","country_name":"Mexico","latitude":"18.40684000","longitude":"-95.17415000","wikiDataId":"Q20133070"},{"id":69454,"Name":"Congregación el Tajín","state_id":3464,"state_code":"VER","state_name":"Veracruz de Ignacio de la Llave","country_id":142,"country_code":"MX","country_name":"Mexico","latitude":"20.43047000","longitude":"-97.38183000","wikiDataId":"Q20133515"},{"id":69451,"Name":"Congregación Hidalgo","state_id":3464,"state_code":"VER","state_name":"Veracruz de Ignacio de la Llave","country_id":142,"country_code":"MX","country_name":"Mexico","latitude":"17.93750000","longitude":"-94.97056000","wikiDataId":"Q20265315"},{"id":69661,"Name":"Córdoba","state_id":3464,"state_code":"VER","state_name":"Veracruz de Ignacio de la Llave","country_id":142,"country_code":"MX","country_name":"Mexico","latitude":"18.88420000","longitude":"-96.92559000","wikiDataId":"Q27769955"},{"id":69662,"Name":"Córdoba (Santa Leticia)","state_id":3464,"state_code":"VER","state_name":"Veracruz de Ignacio de la Llave","country_id":142,"country_code":"MX","country_name":"Mexico","latitude":"18.90861000","longitude":"-96.97889000","wikiDataId":"Q20265333"},{"id":69483,"Name":"Corozal","state_id":3464,"state_code":"VER","state_name":"Veracruz de Ignacio de la Llave","country_id":142,"country_code":"MX","country_name":"Mexico","latitude":"21.54627000","longitude":"-98.55444000","wikiDataId":"Q2651332"},{"id":69485,"Name":"Corral Nuevo","state_id":3464,"state_code":"VER","state_name":"Veracruz de Ignacio de la Llave","country_id":142,"country_code":"MX","country_name":"Mexico","latitude":"18.11461000","longitude":"-95.11542000","wikiDataId":"Q20134629"},{"id":69492,"Name":"Corralillos","state_id":3464,"state_code":"VER","state_name":"Veracruz de Ignacio de la Llave","country_id":142,"country_code":"MX","country_name":"Mexico","latitude":"20.48273000","longitude":"-97.52582000","wikiDataId":"Q20222152"},{"id":69497,"Name":"Cosamaloapan","state_id":3464,"state_code":"VER","state_name":"Veracruz de Ignacio de la Llave","country_id":142,"country_code":"MX","country_name":"Mexico","latitude":"18.36759000","longitude":"-95.79857000","wikiDataId":"Q506848"},{"id":69498,"Name":"Cosamaloapan de Carpio","state_id":3464,"state_code":"VER","state_name":"Veracruz de Ignacio de la Llave","country_id":142,"country_code":"MX","country_name":"Mexico","latitude":"18.30163000","longitude":"-95.95967000","wikiDataId":"Q5655703"},{"id":69499,"Name":"Cosautlán","state_id":3464,"state_code":"VER","state_name":"Veracruz de Ignacio de la Llave","country_id":142,"country_code":"MX","country_name":"Mexico","latitude":"19.33196000","longitude":"-96.99030000","wikiDataId":"Q20269086"},{"id":69500,"Name":"Cosautlán de Carvajal","state_id":3464,"state_code":"VER","state_name":"Veracruz de Ignacio de la Llave","country_id":142,"country_code":"MX","country_name":"Mexico","latitude":"19.32878000","longitude":"-96.97719000","wikiDataId":"Q3847170"},{"id":69502,"Name":"Coscomatepec de Bravo","state_id":3464,"state_code":"VER","state_name":"Veracruz de Ignacio de la Llave","country_id":142,"country_code":"MX","country_name":"Mexico","latitude":"19.07275000","longitude":"-97.04685000","wikiDataId":"Q543592"},{"id":69503,"Name":"Cosolapa","state_id":3464,"state_code":"VER","state_name":"Veracruz de Ignacio de la Llave","country_id":142,"country_code":"MX","country_name":"Mexico","latitude":"18.60055000","longitude":"-96.68524000","wikiDataId":"Q20265355"},{"id":69504,"Name":"Cosoleacaque","state_id":3464,"state_code":"VER","state_name":"Veracruz de Ignacio de la Llave","country_id":142,"country_code":"MX","country_name":"Mexico","latitude":"17.99913000","longitude":"-94.63590000","wikiDataId":"Q27769965"},{"id":69508,"Name":"Cotaxtla","state_id":3464,"state_code":"VER","state_name":"Veracruz de Ignacio de la Llave","country_id":142,"country_code":"MX","country_name":"Mexico","latitude":"18.83555000","longitude":"-96.39640000","wikiDataId":"Q3847123"},{"id":69513,"Name":"Coxquihui","state_id":3464,"state_code":"VER","state_name":"Veracruz de Ignacio de la Llave","country_id":142,"country_code":"MX","country_name":"Mexico","latitude":"20.18398000","longitude":"-97.58568000","wikiDataId":"Q20135304"},{"id":69518,"Name":"Coyolito","state_id":3464,"state_code":"VER","state_name":"Veracruz de Ignacio de la Llave","country_id":142,"country_code":"MX","country_name":"Mexico","latitude":"19.22777000","longitude":"-96.87039000","wikiDataId":"Q661315"},{"id":69529,"Name":"Coyutla","state_id":3464,"state_code":"VER","state_name":"Veracruz de Ignacio de la Llave","country_id":142,"country_code":"MX","country_name":"Mexico","latitude":"20.24720000","longitude":"-97.65824000","wikiDataId":"Q3847216"},{"id":69541,"Name":"Cruz Blanca","state_id":3464,"state_code":"VER","state_name":"Veracruz de Ignacio de la Llave","country_id":142,"country_code":"MX","country_name":"Mexico","latitude":"19.63744000","longitude":"-97.16691000","wikiDataId":"Q20226524"},{"id":69547,"Name":"Cruz del Milagro","state_id":3464,"state_code":"VER","state_name":"Veracruz de Ignacio de la Llave","country_id":142,"country_code":"MX","country_name":"Mexico","latitude":"17.90833000","longitude":"-95.01083000","wikiDataId":"Q20136343"},{"id":69545,"Name":"Cruz Verde","state_id":3464,"state_code":"VER","state_name":"Veracruz de Ignacio de la Llave","country_id":142,"country_code":"MX","country_name":"Mexico","latitude":"19.13750000","longitude":"-97.10861000","wikiDataId":"Q20269091"},{"id":69574,"Name":"Cuauhtamingo","state_id":3464,"state_code":"VER","state_name":"Veracruz de Ignacio de la Llave","country_id":142,"country_code":"MX","country_name":"Mexico","latitude":"19.76472000","longitude":"-97.31417000","wikiDataId":"Q20137392"},{"id":69594,"Name":"Cuautlapán","state_id":3464,"state_code":"VER","state_name":"Veracruz de Ignacio de la Llave","country_id":142,"country_code":"MX","country_name":"Mexico","latitude":"18.87747000","longitude":"-97.02291000","wikiDataId":"Q20222295"},{"id":69604,"Name":"Cucharas","state_id":3464,"state_code":"VER","state_name":"Veracruz de Ignacio de la Llave","country_id":142,"country_code":"MX","country_name":"Mexico","latitude":"21.61568000","longitude":"-97.66099000","wikiDataId":"Q5138674"},{"id":69617,"Name":"Cuesta Amarilla","state_id":3464,"state_code":"VER","state_name":"Veracruz de Ignacio de la Llave","country_id":142,"country_code":"MX","country_name":"Mexico","latitude":"18.34667000","longitude":"-95.23389000","wikiDataId":"Q20137897"},{"id":69619,"Name":"Cuesta de Laja","state_id":3464,"state_code":"VER","state_name":"Veracruz de Ignacio de la Llave","country_id":142,"country_code":"MX","country_name":"Mexico","latitude":"18.29333000","longitude":"-95.22111000","wikiDataId":"Q20137970"},{"id":69626,"Name":"Cuichapa","state_id":3464,"state_code":"VER","state_name":"Veracruz de Ignacio de la Llave","country_id":142,"country_code":"MX","country_name":"Mexico","latitude":"17.93889000","longitude":"-94.28000000","wikiDataId":"Q20138157"},{"id":69628,"Name":"Cuitláhuac","state_id":3464,"state_code":"VER","state_name":"Veracruz de Ignacio de la Llave","country_id":142,"country_code":"MX","country_name":"Mexico","latitude":"18.81429000","longitude":"-96.72281000","wikiDataId":"Q20222319"},{"id":69630,"Name":"Cuiyachapa","state_id":3464,"state_code":"VER","state_name":"Veracruz de Ignacio de la Llave","country_id":142,"country_code":"MX","country_name":"Mexico","latitude":"19.04569000","longitude":"-97.17436000","wikiDataId":"Q20265505"},{"id":69671,"Name":"Dehesa","state_id":3464,"state_code":"VER","state_name":"Veracruz de Ignacio de la Llave","country_id":142,"country_code":"MX","country_name":"Mexico","latitude":"17.94167000","longitude":"-94.99806000","wikiDataId":"Q20222342"},{"id":69673,"Name":"Delfino Victoria (Santa Fe)","state_id":3464,"state_code":"VER","state_name":"Veracruz de Ignacio de la Llave","country_id":142,"country_code":"MX","country_name":"Mexico","latitude":"19.20750000","longitude":"-96.27333000","wikiDataId":"Q20269102"},{"id":69698,"Name":"Doctor Montes de Oca","state_id":3464,"state_code":"VER","state_name":"Veracruz de Ignacio de la Llave","country_id":142,"country_code":"MX","country_name":"Mexico","latitude":"20.93477000","longitude":"-97.55585000","wikiDataId":"Q20139320"},{"id":69717,"Name":"Dos Bocas","state_id":3464,"state_code":"VER","state_name":"Veracruz de Ignacio de la Llave","country_id":142,"country_code":"MX","country_name":"Mexico","latitude":"18.41087000","longitude":"-95.70732000","wikiDataId":"Q20258219"},{"id":69720,"Name":"Dos Ríos","state_id":3464,"state_code":"VER","state_name":"Veracruz de Ignacio de la Llave","country_id":142,"country_code":"MX","country_name":"Mexico","latitude":"19.48417000","longitude":"-96.79944000","wikiDataId":"Q20140402"},{"id":69757,"Name":"Ejidal","state_id":3464,"state_code":"VER","state_name":"Veracruz de Ignacio de la Llave","country_id":142,"country_code":"MX","country_name":"Mexico","latitude":"18.90380000","longitude":"-96.22583000","wikiDataId":"Q20140685"},{"id":69816,"Name":"Ejido la Piña (Maromilla)","state_id":3464,"state_code":"VER","state_name":"Veracruz de Ignacio de la Llave","country_id":142,"country_code":"MX","country_name":"Mexico","latitude":"19.02861000","longitude":"-96.78361000","wikiDataId":"Q20141428"},{"id":69825,"Name":"El Aguacate","state_id":3464,"state_code":"VER","state_name":"Veracruz de Ignacio de la Llave","country_id":142,"country_code":"MX","country_name":"Mexico","latitude":"18.19808000","longitude":"-94.97053000","wikiDataId":"Q1144317"},{"id":70265,"Name":"El Águila","state_id":3464,"state_code":"VER","state_name":"Veracruz de Ignacio de la Llave","country_id":142,"country_code":"MX","country_name":"Mexico","latitude":"20.63072000","longitude":"-97.45632000","wikiDataId":"Q20219114"},{"id":69829,"Name":"El Anono","state_id":3464,"state_code":"VER","state_name":"Veracruz de Ignacio de la Llave","country_id":142,"country_code":"MX","country_name":"Mexico","latitude":"21.25559000","longitude":"-97.65648000","wikiDataId":"Q1144317"},{"id":69834,"Name":"El Arenal","state_id":3464,"state_code":"VER","state_name":"Veracruz de Ignacio de la Llave","country_id":142,"country_code":"MX","country_name":"Mexico","latitude":"20.26829000","longitude":"-97.59250000","wikiDataId":"Q2652273"},{"id":69846,"Name":"El Blanco","state_id":3464,"state_code":"VER","state_name":"Veracruz de Ignacio de la Llave","country_id":142,"country_code":"MX","country_name":"Mexico","latitude":"18.07418000","longitude":"-95.28053000","wikiDataId":"Q56650617"},{"id":69886,"Name":"El Castillo","state_id":3464,"state_code":"VER","state_name":"Veracruz de Ignacio de la Llave","country_id":142,"country_code":"MX","country_name":"Mexico","latitude":"19.54661000","longitude":"-96.86425000","wikiDataId":"Q20222798"},{"id":69900,"Name":"El Chico","state_id":3464,"state_code":"VER","state_name":"Veracruz de Ignacio de la Llave","country_id":142,"country_code":"MX","country_name":"Mexico","latitude":"19.46570000","longitude":"-96.83642000","wikiDataId":"Q20277919"},{"id":69903,"Name":"El Chote","state_id":3464,"state_code":"VER","state_name":"Veracruz de Ignacio de la Llave","country_id":142,"country_code":"MX","country_name":"Mexico","latitude":"20.40167000","longitude":"-97.34389000","wikiDataId":"Q20222925"},{"id":69908,"Name":"El Cocuite","state_id":3464,"state_code":"VER","state_name":"Veracruz de Ignacio de la Llave","country_id":142,"country_code":"MX","country_name":"Mexico","latitude":"18.71765000","longitude":"-96.08442000","wikiDataId":"Q20206482"},{"id":69917,"Name":"El Conejo","state_id":3464,"state_code":"VER","state_name":"Veracruz de Ignacio de la Llave","country_id":142,"country_code":"MX","country_name":"Mexico","latitude":"19.53140000","longitude":"-97.15383000","wikiDataId":"Q20278144"},{"id":69927,"Name":"El Corte","state_id":3464,"state_code":"VER","state_name":"Veracruz de Ignacio de la Llave","country_id":142,"country_code":"MX","country_name":"Mexico","latitude":"18.45226000","longitude":"-95.73510000","wikiDataId":"Q20220716"},{"id":69955,"Name":"El Escobillo","state_id":3464,"state_code":"VER","state_name":"Veracruz de Ignacio de la Llave","country_id":142,"country_code":"MX","country_name":"Mexico","latitude":"19.51450000","longitude":"-97.19791000","wikiDataId":"Q20238057"},{"id":69961,"Name":"El Espinal","state_id":3464,"state_code":"VER","state_name":"Veracruz de Ignacio de la Llave","country_id":142,"country_code":"MX","country_name":"Mexico","latitude":"19.62444000","longitude":"-96.87250000","wikiDataId":"Q20223249"},{"id":69981,"Name":"El Hatito","state_id":3464,"state_code":"VER","state_name":"Veracruz de Ignacio de la Llave","country_id":142,"country_code":"MX","country_name":"Mexico","latitude":"19.27750000","longitude":"-96.39361000","wikiDataId":"Q20223364"},{"id":69983,"Name":"El Higo","state_id":3464,"state_code":"VER","state_name":"Veracruz de Ignacio de la Llave","country_id":142,"country_code":"MX","country_name":"Mexico","latitude":"21.76708000","longitude":"-98.45186000","wikiDataId":"Q3891411"},{"id":69994,"Name":"El Huérfano","state_id":3464,"state_code":"VER","state_name":"Veracruz de Ignacio de la Llave","country_id":142,"country_code":"MX","country_name":"Mexico","latitude":"19.74082000","longitude":"-96.74528000","wikiDataId":"Q5822143"},{"id":69989,"Name":"El Huidero","state_id":3464,"state_code":"VER","state_name":"Veracruz de Ignacio de la Llave","country_id":142,"country_code":"MX","country_name":"Mexico","latitude":"18.38750000","longitude":"-95.17917000","wikiDataId":"Q20223402"},{"id":69993,"Name":"El Humo","state_id":3464,"state_code":"VER","state_name":"Veracruz de Ignacio de la Llave","country_id":142,"country_code":"MX","country_name":"Mexico","latitude":"21.17568000","longitude":"-97.94169000","wikiDataId":"Q5822143"},{"id":70006,"Name":"El Jobo","state_id":3464,"state_code":"VER","state_name":"Veracruz de Ignacio de la Llave","country_id":142,"country_code":"MX","country_name":"Mexico","latitude":"20.01405000","longitude":"-97.16461000","wikiDataId":"Q20230841"},{"id":70008,"Name":"El Juile","state_id":3464,"state_code":"VER","state_name":"Veracruz de Ignacio de la Llave","country_id":142,"country_code":"MX","country_name":"Mexico","latitude":"17.74412000","longitude":"-94.98946000","wikiDataId":"Q20230841"},{"id":70010,"Name":"El Laurel","state_id":3464,"state_code":"VER","state_name":"Veracruz de Ignacio de la Llave","country_id":142,"country_code":"MX","country_name":"Mexico","latitude":"18.27409000","longitude":"-95.32900000","wikiDataId":"Q20220807"},{"id":70011,"Name":"El Lencero","state_id":3464,"state_code":"VER","state_name":"Veracruz de Ignacio de la Llave","country_id":142,"country_code":"MX","country_name":"Mexico","latitude":"19.48897000","longitude":"-96.81622000","wikiDataId":"Q20220807"},{"id":70019,"Name":"El Lindero","state_id":3464,"state_code":"VER","state_name":"Veracruz de Ignacio de la Llave","country_id":142,"country_code":"MX","country_name":"Mexico","latitude":"21.31278000","longitude":"-98.22000000","wikiDataId":"Q20223530"},{"id":70028,"Name":"El Maguey","state_id":3464,"state_code":"VER","state_name":"Veracruz de Ignacio de la Llave","country_id":142,"country_code":"MX","country_name":"Mexico","latitude":"18.83295000","longitude":"-96.73434000","wikiDataId":"Q20238120"},{"id":70038,"Name":"El Mirador","state_id":3464,"state_code":"VER","state_name":"Veracruz de Ignacio de la Llave","country_id":142,"country_code":"MX","country_name":"Mexico","latitude":"21.01168000","longitude":"-97.94387000","wikiDataId":"Q20206792"},{"id":70043,"Name":"El Molino","state_id":3464,"state_code":"VER","state_name":"Veracruz de Ignacio de la Llave","country_id":142,"country_code":"MX","country_name":"Mexico","latitude":"21.91602000","longitude":"-98.29885000","wikiDataId":"Q20238151"},{"id":70048,"Name":"El Mollejon","state_id":3464,"state_code":"VER","state_name":"Veracruz de Ignacio de la Llave","country_id":142,"country_code":"MX","country_name":"Mexico","latitude":"20.54222000","longitude":"-97.41111000","wikiDataId":"Q20223726"},{"id":70056,"Name":"El Naranjito","state_id":3464,"state_code":"VER","state_name":"Veracruz de Ignacio de la Llave","country_id":142,"country_code":"MX","country_name":"Mexico","latitude":"17.99785000","longitude":"-94.60666000","wikiDataId":"Q20206594"},{"id":70062,"Name":"El Nigromante","state_id":3464,"state_code":"VER","state_name":"Veracruz de Ignacio de la Llave","country_id":142,"country_code":"MX","country_name":"Mexico","latitude":"17.76472000","longitude":"-95.75722000","wikiDataId":"Q20220862"},{"id":70079,"Name":"El Palmar","state_id":3464,"state_code":"VER","state_name":"Veracruz de Ignacio de la Llave","country_id":142,"country_code":"MX","country_name":"Mexico","latitude":"18.80330000","longitude":"-96.66560000","wikiDataId":"Q20238188"},{"id":70085,"Name":"El Panorama","state_id":3464,"state_code":"VER","state_name":"Veracruz de Ignacio de la Llave","country_id":142,"country_code":"MX","country_name":"Mexico","latitude":"20.28918000","longitude":"-97.63554000","wikiDataId":"Q20213439"},{"id":70088,"Name":"El Paraíso","state_id":3464,"state_code":"VER","state_name":"Veracruz de Ignacio de la Llave","country_id":142,"country_code":"MX","country_name":"Mexico","latitude":"17.51592000","longitude":"-95.14271000","wikiDataId":"Q20223959"},{"id":70092,"Name":"El Paraíso (La Charca)","state_id":3464,"state_code":"VER","state_name":"Veracruz de Ignacio de la Llave","country_id":142,"country_code":"MX","country_name":"Mexico","latitude":"19.42889000","longitude":"-96.35500000","wikiDataId":"Q20223973"},{"id":70108,"Name":"El Pital","state_id":3464,"state_code":"VER","state_name":"Veracruz de Ignacio de la Llave","country_id":142,"country_code":"MX","country_name":"Mexico","latitude":"20.15695000","longitude":"-96.89805000","wikiDataId":"Q20253523"},{"id":70117,"Name":"El Porvenir","state_id":3464,"state_code":"VER","state_name":"Veracruz de Ignacio de la Llave","country_id":142,"country_code":"MX","country_name":"Mexico","latitude":"18.92083000","longitude":"-96.92583000","wikiDataId":"Q20224095"},{"id":70125,"Name":"El Potrero","state_id":3464,"state_code":"VER","state_name":"Veracruz de Ignacio de la Llave","country_id":142,"country_code":"MX","country_name":"Mexico","latitude":"18.67822000","longitude":"-97.25499000","wikiDataId":"Q20254039"},{"id":70134,"Name":"El Progreso","state_id":3464,"state_code":"VER","state_name":"Veracruz de Ignacio de la Llave","country_id":142,"country_code":"MX","country_name":"Mexico","latitude":"20.11417000","longitude":"-97.01444000","wikiDataId":"Q20224148"},{"id":70137,"Name":"El Pueblito","state_id":3464,"state_code":"VER","state_name":"Veracruz de Ignacio de la Llave","country_id":142,"country_code":"MX","country_name":"Mexico","latitude":"18.88639000","longitude":"-96.96946000","wikiDataId":"Q1962054"},{"id":70138,"Name":"El Pueblito (Garbanzal)","state_id":3464,"state_code":"VER","state_name":"Veracruz de Ignacio de la Llave","country_id":142,"country_code":"MX","country_name":"Mexico","latitude":"19.59389000","longitude":"-96.92417000","wikiDataId":"Q20224156"},{"id":70157,"Name":"El Remolino","state_id":3464,"state_code":"VER","state_name":"Veracruz de Ignacio de la Llave","country_id":142,"country_code":"MX","country_name":"Mexico","latitude":"20.38921000","longitude":"-97.21213000","wikiDataId":"Q20280633"},{"id":70193,"Name":"El Salto de Eyipantla","state_id":3464,"state_code":"VER","state_name":"Veracruz de Ignacio de la Llave","country_id":142,"country_code":"MX","country_name":"Mexico","latitude":"18.38954000","longitude":"-95.20285000","wikiDataId":"Q20206883"},{"id":70213,"Name":"El Tejar","state_id":3464,"state_code":"VER","state_name":"Veracruz de Ignacio de la Llave","country_id":142,"country_code":"MX","country_name":"Mexico","latitude":"19.07433000","longitude":"-96.16097000","wikiDataId":"Q20265947"},{"id":70222,"Name":"El Terrero","state_id":3464,"state_code":"VER","state_name":"Veracruz de Ignacio de la Llave","country_id":142,"country_code":"MX","country_name":"Mexico","latitude":"19.53709000","longitude":"-96.79907000","wikiDataId":"Q50012188"},{"id":70236,"Name":"El Triunfo","state_id":3464,"state_code":"VER","state_name":"Veracruz de Ignacio de la Llave","country_id":142,"country_code":"MX","country_name":"Mexico","latitude":"19.42136000","longitude":"-97.22002000","wikiDataId":"Q20228543"},{"id":70243,"Name":"El Tulín","state_id":3464,"state_code":"VER","state_name":"Veracruz de Ignacio de la Llave","country_id":142,"country_code":"MX","country_name":"Mexico","latitude":"18.24750000","longitude":"-94.95373000","wikiDataId":"Q2990973"},{"id":70258,"Name":"El Volador","state_id":3464,"state_code":"VER","state_name":"Veracruz de Ignacio de la Llave","country_id":142,"country_code":"MX","country_name":"Mexico","latitude":"20.64294000","longitude":"-97.24885000","wikiDataId":"Q20219114"},{"id":70262,"Name":"El Zapote Bravo","state_id":3464,"state_code":"VER","state_name":"Veracruz de Ignacio de la Llave","country_id":142,"country_code":"MX","country_name":"Mexico","latitude":"20.66200000","longitude":"-97.99907000","wikiDataId":"Q20219114"},{"id":70271,"Name":"Elotepec","state_id":3464,"state_code":"VER","state_name":"Veracruz de Ignacio de la Llave","country_id":142,"country_code":"MX","country_name":"Mexico","latitude":"19.18820000","longitude":"-97.03768000","wikiDataId":"Q11077460"},{"id":70290,"Name":"Emiliano Zapata","state_id":3464,"state_code":"VER","state_name":"Veracruz de Ignacio de la Llave","country_id":142,"country_code":"MX","country_name":"Mexico","latitude":"19.45766000","longitude":"-96.76584000","wikiDataId":"Q5371735"},{"id":70306,"Name":"Entabladero","state_id":3464,"state_code":"VER","state_name":"Veracruz de Ignacio de la Llave","country_id":142,"country_code":"MX","country_name":"Mexico","latitude":"20.27515000","longitude":"-97.55114000","wikiDataId":"Q1548691"},{"id":70320,"Name":"Escolín de Olarte","state_id":3464,"state_code":"VER","state_name":"Veracruz de Ignacio de la Llave","country_id":142,"country_code":"MX","country_name":"Mexico","latitude":"20.49840000","longitude":"-97.42336000","wikiDataId":"Q20281581"},{"id":70330,"Name":"Espinal","state_id":3464,"state_code":"VER","state_name":"Veracruz de Ignacio de la Llave","country_id":142,"country_code":"MX","country_name":"Mexico","latitude":"20.26997000","longitude":"-97.48927000","wikiDataId":"Q8778635"},{"id":70342,"Name":"Estación Dobladero","state_id":3464,"state_code":"VER","state_name":"Veracruz de Ignacio de la Llave","country_id":142,"country_code":"MX","country_name":"Mexico","latitude":"18.11500000","longitude":"-95.76611000","wikiDataId":"Q20135893"},{"id":70345,"Name":"Estación Juanita","state_id":3464,"state_code":"VER","state_name":"Veracruz de Ignacio de la Llave","country_id":142,"country_code":"MX","country_name":"Mexico","latitude":"17.80889000","longitude":"-95.21750000","wikiDataId":"Q20135918"},{"id":70365,"Name":"Estanzuela","state_id":3464,"state_code":"VER","state_name":"Veracruz de Ignacio de la Llave","country_id":142,"country_code":"MX","country_name":"Mexico","latitude":"19.46081000","longitude":"-96.85819000","wikiDataId":"Q20207085"},{"id":70369,"Name":"Estero de Milpas","state_id":3464,"state_code":"VER","state_name":"Veracruz de Ignacio de la Llave","country_id":142,"country_code":"MX","country_name":"Mexico","latitude":"21.25370000","longitude":"-97.45082000","wikiDataId":"Q20259160"},{"id":70370,"Name":"Estero del Ídolo","state_id":3464,"state_code":"VER","state_name":"Veracruz de Ignacio de la Llave","country_id":142,"country_code":"MX","country_name":"Mexico","latitude":"20.88953000","longitude":"-97.65878000","wikiDataId":"Q20259160"},{"id":70389,"Name":"Ex-hacienda la Concepción","state_id":3464,"state_code":"VER","state_name":"Veracruz de Ignacio de la Llave","country_id":142,"country_code":"MX","country_name":"Mexico","latitude":"18.84855000","longitude":"-96.82437000","wikiDataId":"Q20136559"},{"id":70390,"Name":"Excola","state_id":3464,"state_code":"VER","state_name":"Veracruz de Ignacio de la Llave","country_id":142,"country_code":"MX","country_name":"Mexico","latitude":"19.13876000","longitude":"-97.12251000","wikiDataId":"Q20136559"},{"id":70396,"Name":"Felipe Carrillo Puerto","state_id":3464,"state_code":"VER","state_name":"Veracruz de Ignacio de la Llave","country_id":142,"country_code":"MX","country_name":"Mexico","latitude":"20.13578000","longitude":"-96.95164000","wikiDataId":"Q1403187"},{"id":70402,"Name":"Filomeno Mata","state_id":3464,"state_code":"VER","state_name":"Veracruz de Ignacio de la Llave","country_id":142,"country_code":"MX","country_name":"Mexico","latitude":"20.20004000","longitude":"-97.70392000","wikiDataId":"Q20262201"},{"id":70410,"Name":"Fortín de las Flores","state_id":3464,"state_code":"VER","state_name":"Veracruz de Ignacio de la Llave","country_id":142,"country_code":"MX","country_name":"Mexico","latitude":"18.90806000","longitude":"-97.00000000","wikiDataId":"Q2652472"},{"id":70411,"Name":"Fraccionamiento Arboledas San Ramón","state_id":3464,"state_code":"VER","state_name":"Veracruz de Ignacio de la Llave","country_id":142,"country_code":"MX","country_name":"Mexico","latitude":"19.09417000","longitude":"-96.15667000","wikiDataId":"Q20266259"},{"id":70413,"Name":"Fraccionamiento Ciudad Olmeca","state_id":3464,"state_code":"VER","state_name":"Veracruz de Ignacio de la Llave","country_id":142,"country_code":"MX","country_name":"Mexico","latitude":"18.15056000","longitude":"-94.55250000","wikiDataId":"Q20138891"},{"id":70418,"Name":"Fraccionamiento Costa Dorada","state_id":3464,"state_code":"VER","state_name":"Veracruz de Ignacio de la Llave","country_id":142,"country_code":"MX","country_name":"Mexico","latitude":"19.20833000","longitude":"-96.21639000","wikiDataId":"Q20266261"},{"id":70422,"Name":"Fraccionamiento Geovillas los Pinos","state_id":3464,"state_code":"VER","state_name":"Veracruz de Ignacio de la Llave","country_id":142,"country_code":"MX","country_name":"Mexico","latitude":"19.21722000","longitude":"-96.22639000","wikiDataId":"Q20269183"},{"id":70450,"Name":"Fraccionamiento la Florida","state_id":3464,"state_code":"VER","state_name":"Veracruz de Ignacio de la Llave","country_id":142,"country_code":"MX","country_name":"Mexico","latitude":"20.58667000","longitude":"-97.42833000","wikiDataId":"Q20266269"},{"id":70455,"Name":"Fraccionamiento las Fuentes","state_id":3464,"state_code":"VER","state_name":"Veracruz de Ignacio de la Llave","country_id":142,"country_code":"MX","country_name":"Mexico","latitude":"19.49611000","longitude":"-96.88639000","wikiDataId":"Q20139105"},{"id":70458,"Name":"Fraccionamiento los Álamos","state_id":3464,"state_code":"VER","state_name":"Veracruz de Ignacio de la Llave","country_id":142,"country_code":"MX","country_name":"Mexico","latitude":"18.92389000","longitude":"-96.97528000","wikiDataId":"Q20139156"},{"id":70457,"Name":"Fraccionamiento los Prados","state_id":3464,"state_code":"VER","state_name":"Veracruz de Ignacio de la Llave","country_id":142,"country_code":"MX","country_name":"Mexico","latitude":"17.97778000","longitude":"-94.63917000","wikiDataId":"Q20139183"},{"id":70442,"Name":"Fraccionamiento Santa Cruz","state_id":3464,"state_code":"VER","state_name":"Veracruz de Ignacio de la Llave","country_id":142,"country_code":"MX","country_name":"Mexico","latitude":"17.97194000","longitude":"-94.89500000","wikiDataId":"Q20139388"},{"id":70444,"Name":"Fraccionamiento Valle Dorado","state_id":3464,"state_code":"VER","state_name":"Veracruz de Ignacio de la Llave","country_id":142,"country_code":"MX","country_name":"Mexico","latitude":"18.86889000","longitude":"-97.12222000","wikiDataId":"Q20266281"},{"id":70447,"Name":"Fraccionamiento Villas de la Llave","state_id":3464,"state_code":"VER","state_name":"Veracruz de Ignacio de la Llave","country_id":142,"country_code":"MX","country_name":"Mexico","latitude":"18.91583000","longitude":"-96.99111000","wikiDataId":"Q20139449"},{"id":70465,"Name":"Francisco I. Madero","state_id":3464,"state_code":"VER","state_name":"Veracruz de Ignacio de la Llave","country_id":142,"country_code":"MX","country_name":"Mexico","latitude":"19.52718000","longitude":"-97.27067000","wikiDataId":"Q20266297"},{"id":70487,"Name":"Fredepo","state_id":3464,"state_code":"VER","state_name":"Veracruz de Ignacio de la Llave","country_id":142,"country_code":"MX","country_name":"Mexico","latitude":"18.88056000","longitude":"-96.97694000","wikiDataId":"Q20140119"},{"id":70500,"Name":"Gabino Barreda","state_id":3464,"state_code":"VER","state_name":"Veracruz de Ignacio de la Llave","country_id":142,"country_code":"MX","country_name":"Mexico","latitude":"18.17922000","longitude":"-96.09162000","wikiDataId":"Q2445418"},{"id":70525,"Name":"General Alatriste (San Joaquín)","state_id":3464,"state_code":"VER","state_name":"Veracruz de Ignacio de la Llave","country_id":142,"country_code":"MX","country_name":"Mexico","latitude":"18.84028000","longitude":"-96.79361000","wikiDataId":"Q20269198"},{"id":70536,"Name":"General Juan José Baz (San José del Corral)","state_id":3464,"state_code":"VER","state_name":"Veracruz de Ignacio de la Llave","country_id":142,"country_code":"MX","country_name":"Mexico","latitude":"18.82167000","longitude":"-96.81806000","wikiDataId":"Q20140902"},{"id":70542,"Name":"General Miguel Alemán","state_id":3464,"state_code":"VER","state_name":"Veracruz de Ignacio de la Llave","country_id":142,"country_code":"MX","country_name":"Mexico","latitude":"18.89346000","longitude":"-96.79239000","wikiDataId":"Q20239615"},{"id":70570,"Name":"Guadalupe","state_id":3464,"state_code":"VER","state_name":"Veracruz de Ignacio de la Llave","country_id":142,"country_code":"MX","country_name":"Mexico","latitude":"18.81560000","longitude":"-96.92444000","wikiDataId":"Q10762837"},{"id":70603,"Name":"Guadalupe Victoria","state_id":3464,"state_code":"VER","state_name":"Veracruz de Ignacio de la Llave","country_id":142,"country_code":"MX","country_name":"Mexico","latitude":"19.55472000","longitude":"-96.96056000","wikiDataId":"Q20269225"},{"id":70624,"Name":"Guayalejo","state_id":3464,"state_code":"VER","state_name":"Veracruz de Ignacio de la Llave","country_id":142,"country_code":"MX","country_name":"Mexico","latitude":"22.38306000","longitude":"-98.48306000","wikiDataId":"Q20269241"},{"id":70634,"Name":"Guillermo Prieto","state_id":3464,"state_code":"VER","state_name":"Veracruz de Ignacio de la Llave","country_id":142,"country_code":"MX","country_name":"Mexico","latitude":"18.16077000","longitude":"-94.27658000","wikiDataId":"Q957163"},{"id":70642,"Name":"Gutiérrez Zamora","state_id":3464,"state_code":"VER","state_name":"Veracruz de Ignacio de la Llave","country_id":142,"country_code":"MX","country_name":"Mexico","latitude":"20.45347000","longitude":"-97.08588000","wikiDataId":"Q27769204"},{"id":70654,"Name":"Hacienda Sotavento","state_id":3464,"state_code":"VER","state_name":"Veracruz de Ignacio de la Llave","country_id":142,"country_code":"MX","country_name":"Mexico","latitude":"19.13361000","longitude":"-96.18139000","wikiDataId":"Q20225227"},{"id":70665,"Name":"Helio García Alfaro","state_id":3464,"state_code":"VER","state_name":"Veracruz de Ignacio de la Llave","country_id":142,"country_code":"MX","country_name":"Mexico","latitude":"17.25968000","longitude":"-94.28849000","wikiDataId":"Q2284273"},{"id":70667,"Name":"Hermanos Cedillo","state_id":3464,"state_code":"VER","state_name":"Veracruz de Ignacio de la Llave","country_id":142,"country_code":"MX","country_name":"Mexico","latitude":"17.25194000","longitude":"-94.61129000","wikiDataId":"Q20283184"},{"id":70671,"Name":"Hermenegildo J. Aldana","state_id":3464,"state_code":"VER","state_name":"Veracruz de Ignacio de la Llave","country_id":142,"country_code":"MX","country_name":"Mexico","latitude":"18.00611000","longitude":"-94.61222000","wikiDataId":"Q20269271"},{"id":70687,"Name":"Hidalgo Amajac","state_id":3464,"state_code":"VER","state_name":"Veracruz de Ignacio de la Llave","country_id":142,"country_code":"MX","country_name":"Mexico","latitude":"20.90500000","longitude":"-97.62944000","wikiDataId":"Q20144877"},{"id":70690,"Name":"Hidalgotitlán","state_id":3464,"state_code":"VER","state_name":"Veracruz de Ignacio de la Llave","country_id":142,"country_code":"MX","country_name":"Mexico","latitude":"17.77051000","longitude":"-94.64703000","wikiDataId":"Q3308449"},{"id":70711,"Name":"Hornitos","state_id":3464,"state_code":"VER","state_name":"Veracruz de Ignacio de la Llave","country_id":142,"country_code":"MX","country_name":"Mexico","latitude":"19.46083000","longitude":"-96.42111000","wikiDataId":"Q20225290"},{"id":70743,"Name":"Huatusco","state_id":3464,"state_code":"VER","state_name":"Veracruz de Ignacio de la Llave","country_id":142,"country_code":"MX","country_name":"Mexico","latitude":"19.14876000","longitude":"-96.96760000","wikiDataId":"Q2448188"},{"id":70751,"Name":"Huayacanes","state_id":3464,"state_code":"VER","state_name":"Veracruz de Ignacio de la Llave","country_id":142,"country_code":"MX","country_name":"Mexico","latitude":"17.91844000","longitude":"-95.27767000","wikiDataId":"Q27769221"},{"id":70752,"Name":"Huayacocotla","state_id":3464,"state_code":"VER","state_name":"Veracruz de Ignacio de la Llave","country_id":142,"country_code":"MX","country_name":"Mexico","latitude":"20.53671000","longitude":"-98.48080000","wikiDataId":"Q5926420"},{"id":70755,"Name":"Huazuntlán","state_id":3464,"state_code":"VER","state_name":"Veracruz de Ignacio de la Llave","country_id":142,"country_code":"MX","country_name":"Mexico","latitude":"18.15667000","longitude":"-94.79306000","wikiDataId":"Q20145618"},{"id":70772,"Name":"Huexotitla","state_id":3464,"state_code":"VER","state_name":"Veracruz de Ignacio de la Llave","country_id":142,"country_code":"MX","country_name":"Mexico","latitude":"20.76984000","longitude":"-98.08872000","wikiDataId":"Q2651175"},{"id":70776,"Name":"Hueyapan de Ocampo","state_id":3464,"state_code":"VER","state_name":"Veracruz de Ignacio de la Llave","country_id":142,"country_code":"MX","country_name":"Mexico","latitude":"18.14479000","longitude":"-95.14873000","wikiDataId":"Q3847301"},{"id":70784,"Name":"Hueytepec","state_id":3464,"state_code":"VER","state_name":"Veracruz de Ignacio de la Llave","country_id":142,"country_code":"MX","country_name":"Mexico","latitude":"20.32635000","longitude":"-97.02680000","wikiDataId":"Q20230241"},{"id":70793,"Name":"Huiloapan","state_id":3464,"state_code":"VER","state_name":"Veracruz de Ignacio de la Llave","country_id":142,"country_code":"MX","country_name":"Mexico","latitude":"18.75000000","longitude":"-97.31667000","wikiDataId":"Q20146462"},{"id":70794,"Name":"Huiloapan de Cuauhtémoc","state_id":3464,"state_code":"VER","state_name":"Veracruz de Ignacio de la Llave","country_id":142,"country_code":"MX","country_name":"Mexico","latitude":"18.81722000","longitude":"-97.15444000","wikiDataId":"Q3847180"},{"id":70805,"Name":"Huitzila","state_id":3464,"state_code":"VER","state_name":"Veracruz de Ignacio de la Llave","country_id":142,"country_code":"MX","country_name":"Mexico","latitude":"18.71898000","longitude":"-97.17033000","wikiDataId":"Q27769233"},{"id":70817,"Name":"Huixcolotla","state_id":3464,"state_code":"VER","state_name":"Veracruz de Ignacio de la Llave","country_id":142,"country_code":"MX","country_name":"Mexico","latitude":"18.66556000","longitude":"-96.49750000","wikiDataId":"Q20225339"},{"id":70860,"Name":"Ignacio de la Llave","state_id":3464,"state_code":"VER","state_name":"Veracruz de Ignacio de la Llave","country_id":142,"country_code":"MX","country_name":"Mexico","latitude":"18.72580000","longitude":"-95.98696000","wikiDataId":"Q20252795"},{"id":70849,"Name":"Ignacio Zaragoza","state_id":3464,"state_code":"VER","state_name":"Veracruz de Ignacio de la Llave","country_id":142,"country_code":"MX","country_name":"Mexico","latitude":"19.71222000","longitude":"-97.22500000","wikiDataId":"Q20269318"},{"id":70864,"Name":"Ilamatlán","state_id":3464,"state_code":"VER","state_name":"Veracruz de Ignacio de la Llave","country_id":142,"country_code":"MX","country_name":"Mexico","latitude":"20.78053000","longitude":"-98.44320000","wikiDataId":"Q3846970"},{"id":70882,"Name":"Isla","state_id":3464,"state_code":"VER","state_name":"Veracruz de Ignacio de la Llave","country_id":142,"country_code":"MX","country_name":"Mexico","latitude":"18.06369000","longitude":"-95.55320000","wikiDataId":"Q4204016"},{"id":70899,"Name":"Ixcapantla","state_id":3464,"state_code":"VER","state_name":"Veracruz de Ignacio de la Llave","country_id":142,"country_code":"MX","country_name":"Mexico","latitude":"19.02571000","longitude":"-96.97052000","wikiDataId":"Q6793335"},{"id":70904,"Name":"Ixcatepec","state_id":3464,"state_code":"VER","state_name":"Veracruz de Ignacio de la Llave","country_id":142,"country_code":"MX","country_name":"Mexico","latitude":"21.23695000","longitude":"-98.00689000","wikiDataId":"Q3846947"},{"id":70905,"Name":"Ixcatla","state_id":3464,"state_code":"VER","state_name":"Veracruz de Ignacio de la Llave","country_id":142,"country_code":"MX","country_name":"Mexico","latitude":"19.07528000","longitude":"-96.91889000","wikiDataId":"Q20269347"},{"id":70909,"Name":"Ixhuacán de los Reyes","state_id":3464,"state_code":"VER","state_name":"Veracruz de Ignacio de la Llave","country_id":142,"country_code":"MX","country_name":"Mexico","latitude":"19.35526000","longitude":"-97.11751000","wikiDataId":"Q3888173"},{"id":70910,"Name":"Ixhuapan","state_id":3464,"state_code":"VER","state_name":"Veracruz de Ignacio de la Llave","country_id":142,"country_code":"MX","country_name":"Mexico","latitude":"18.01333000","longitude":"-94.87667000","wikiDataId":"Q20147927"},{"id":70913,"Name":"Ixhuatlán de Madero","state_id":3464,"state_code":"VER","state_name":"Veracruz de Ignacio de la Llave","country_id":142,"country_code":"MX","country_name":"Mexico","latitude":"20.68879000","longitude":"-98.01177000","wikiDataId":"Q3846681"},{"id":70914,"Name":"Ixhuatlán del Café","state_id":3464,"state_code":"VER","state_name":"Veracruz de Ignacio de la Llave","country_id":142,"country_code":"MX","country_name":"Mexico","latitude":"19.04179000","longitude":"-96.92694000","wikiDataId":"Q3846759"},{"id":70915,"Name":"Ixhuatlán del Sureste","state_id":3464,"state_code":"VER","state_name":"Veracruz de Ignacio de la Llave","country_id":142,"country_code":"MX","country_name":"Mexico","latitude":"18.01368000","longitude":"-94.37794000","wikiDataId":"Q3846842"},{"id":70912,"Name":"Ixhuatlancillo","state_id":3464,"state_code":"VER","state_name":"Veracruz de Ignacio de la Llave","country_id":142,"country_code":"MX","country_name":"Mexico","latitude":"18.89766000","longitude":"-97.14899000","wikiDataId":"Q3391844"},{"id":70920,"Name":"Ixpila","state_id":3464,"state_code":"VER","state_name":"Veracruz de Ignacio de la Llave","country_id":142,"country_code":"MX","country_name":"Mexico","latitude":"19.11837000","longitude":"-96.96675000","wikiDataId":"Q4968045"},{"id":70922,"Name":"Ixtacapa el Chico","state_id":3464,"state_code":"VER","state_name":"Veracruz de Ignacio de la Llave","country_id":142,"country_code":"MX","country_name":"Mexico","latitude":"18.49001000","longitude":"-96.74246000","wikiDataId":"Q2330345"},{"id":70924,"Name":"Ixtaczoquitlán","state_id":3464,"state_code":"VER","state_name":"Veracruz de Ignacio de la Llave","country_id":142,"country_code":"MX","country_name":"Mexico","latitude":"18.85364000","longitude":"-97.06229000","wikiDataId":"Q2559772"},{"id":70958,"Name":"Jacarandas","state_id":3464,"state_code":"VER","state_name":"Veracruz de Ignacio de la Llave","country_id":142,"country_code":"MX","country_name":"Mexico","latitude":"19.49556000","longitude":"-96.85278000","wikiDataId":"Q20269353"},{"id":70963,"Name":"Jalacingo","state_id":3464,"state_code":"VER","state_name":"Veracruz de Ignacio de la Llave","country_id":142,"country_code":"MX","country_name":"Mexico","latitude":"19.80333000","longitude":"-97.30830000","wikiDataId":"Q6125824"},{"id":70967,"Name":"Jalapilla","state_id":3464,"state_code":"VER","state_name":"Veracruz de Ignacio de la Llave","country_id":142,"country_code":"MX","country_name":"Mexico","latitude":"18.82642000","longitude":"-97.08865000","wikiDataId":"Q20269354"},{"id":70970,"Name":"Jalcomulco","state_id":3464,"state_code":"VER","state_name":"Veracruz de Ignacio de la Llave","country_id":142,"country_code":"MX","country_name":"Mexico","latitude":"19.33185000","longitude":"-96.76250000","wikiDataId":"Q3845106"},{"id":71148,"Name":"Jáltipan de Morelos","state_id":3464,"state_code":"VER","state_name":"Veracruz de Ignacio de la Llave","country_id":142,"country_code":"MX","country_name":"Mexico","latitude":"17.96542000","longitude":"-94.71396000","wikiDataId":"Q20230341"},{"id":70997,"Name":"Jamapa","state_id":3464,"state_code":"VER","state_name":"Veracruz de Ignacio de la Llave","country_id":142,"country_code":"MX","country_name":"Mexico","latitude":"19.04179000","longitude":"-96.24143000","wikiDataId":"Q2447646"},{"id":71022,"Name":"Jesús Carranza","state_id":3464,"state_code":"VER","state_name":"Veracruz de Ignacio de la Llave","country_id":142,"country_code":"MX","country_name":"Mexico","latitude":"17.43526000","longitude":"-95.02637000","wikiDataId":"Q20225433"},{"id":71044,"Name":"Jilotepec","state_id":3464,"state_code":"VER","state_name":"Veracruz de Ignacio de la Llave","country_id":142,"country_code":"MX","country_name":"Mexico","latitude":"19.61184000","longitude":"-96.95169000","wikiDataId":"Q20269360"},{"id":71062,"Name":"Joachín","state_id":3464,"state_code":"VER","state_name":"Veracruz de Ignacio de la Llave","country_id":142,"country_code":"MX","country_name":"Mexico","latitude":"18.63855000","longitude":"-96.23318000","wikiDataId":"Q984646"},{"id":71088,"Name":"José Cardel","state_id":3464,"state_code":"VER","state_name":"Veracruz de Ignacio de la Llave","country_id":142,"country_code":"MX","country_name":"Mexico","latitude":"19.36810000","longitude":"-96.36951000","wikiDataId":"Q20284654"},{"id":71091,"Name":"José F. Gutiérrez","state_id":3464,"state_code":"VER","state_name":"Veracruz de Ignacio de la Llave","country_id":142,"country_code":"MX","country_name":"Mexico","latitude":"18.02526000","longitude":"-94.61028000","wikiDataId":"Q4594274"},{"id":71116,"Name":"Juan Díaz Covarrubias","state_id":3464,"state_code":"VER","state_name":"Veracruz de Ignacio de la Llave","country_id":142,"country_code":"MX","country_name":"Mexico","latitude":"18.15964000","longitude":"-95.18675000","wikiDataId":"Q6299095"},{"id":71120,"Name":"Juan Jacobo Torres [Bodega de Totontepec]","state_id":3464,"state_code":"VER","state_name":"Veracruz de Ignacio de la Llave","country_id":142,"country_code":"MX","country_name":"Mexico","latitude":"18.33645000","longitude":"-95.26033000","wikiDataId":"Q20269404"},{"id":71122,"Name":"Juan Marcos (San José Buenavista)","state_id":3464,"state_code":"VER","state_name":"Veracruz de Ignacio de la Llave","country_id":142,"country_code":"MX","country_name":"Mexico","latitude":"19.72917000","longitude":"-97.19667000","wikiDataId":"Q20269406"},{"id":71126,"Name":"Juan Rodríguez Clara","state_id":3464,"state_code":"VER","state_name":"Veracruz de Ignacio de la Llave","country_id":142,"country_code":"MX","country_name":"Mexico","latitude":"17.99283000","longitude":"-95.40099000","wikiDataId":"Q15153937"},{"id":71131,"Name":"Juchique de Ferrer","state_id":3464,"state_code":"VER","state_name":"Veracruz de Ignacio de la Llave","country_id":142,"country_code":"MX","country_name":"Mexico","latitude":"19.83985000","longitude":"-96.69463000","wikiDataId":"Q3846692"},{"id":71175,"Name":"La Antigua","state_id":3464,"state_code":"VER","state_name":"Veracruz de Ignacio de la Llave","country_id":142,"country_code":"MX","country_name":"Mexico","latitude":"19.31619000","longitude":"-96.31736000","wikiDataId":"Q1002990"},{"id":71193,"Name":"La Camelia","state_id":3464,"state_code":"VER","state_name":"Veracruz de Ignacio de la Llave","country_id":142,"country_code":"MX","country_name":"Mexico","latitude":"20.89631000","longitude":"-97.77247000","wikiDataId":"Q20239236"},{"id":71201,"Name":"La Capilla","state_id":3464,"state_code":"VER","state_name":"Veracruz de Ignacio de la Llave","country_id":142,"country_code":"MX","country_name":"Mexico","latitude":"18.89442000","longitude":"-96.24132000","wikiDataId":"Q20264226"},{"id":71213,"Name":"La Cerquilla","state_id":3464,"state_code":"VER","state_name":"Veracruz de Ignacio de la Llave","country_id":142,"country_code":"MX","country_name":"Mexico","latitude":"17.90786000","longitude":"-95.05497000","wikiDataId":"Q20264429"},{"id":71221,"Name":"La Colonia Guadalupe","state_id":3464,"state_code":"VER","state_name":"Veracruz de Ignacio de la Llave","country_id":142,"country_code":"MX","country_name":"Mexico","latitude":"20.34387000","longitude":"-97.62223000","wikiDataId":"Q20287902"},{"id":71229,"Name":"La Concepción","state_id":3464,"state_code":"VER","state_name":"Veracruz de Ignacio de la Llave","country_id":142,"country_code":"MX","country_name":"Mexico","latitude":"19.60620000","longitude":"-96.90016000","wikiDataId":"Q20287965"},{"id":71254,"Name":"La Cuesta","state_id":3464,"state_code":"VER","state_name":"Veracruz de Ignacio de la Llave","country_id":142,"country_code":"MX","country_name":"Mexico","latitude":"18.79028000","longitude":"-97.16806000","wikiDataId":"Q20269663"},{"id":71258,"Name":"La Defensa","state_id":3464,"state_code":"VER","state_name":"Veracruz de Ignacio de la Llave","country_id":142,"country_code":"MX","country_name":"Mexico","latitude":"20.10507000","longitude":"-96.96079000","wikiDataId":"Q20269680"},{"id":71300,"Name":"La Gloria","state_id":3464,"state_code":"VER","state_name":"Veracruz de Ignacio de la Llave","country_id":142,"country_code":"MX","country_name":"Mexico","latitude":"19.42631000","longitude":"-96.40211000","wikiDataId":"Q15241114"},{"id":71311,"Name":"La Guadalupe","state_id":3464,"state_code":"VER","state_name":"Veracruz de Ignacio de la Llave","country_id":142,"country_code":"MX","country_name":"Mexico","latitude":"20.37336000","longitude":"-96.91925000","wikiDataId":"Q20250596"},{"id":71313,"Name":"La Guásima","state_id":3464,"state_code":"VER","state_name":"Veracruz de Ignacio de la Llave","country_id":142,"country_code":"MX","country_name":"Mexico","latitude":"20.53973000","longitude":"-97.24950000","wikiDataId":"Q20250596"},{"id":71318,"Name":"La Horqueta (Poblado Doce)","state_id":3464,"state_code":"VER","state_name":"Veracruz de Ignacio de la Llave","country_id":142,"country_code":"MX","country_name":"Mexico","latitude":"17.21012000","longitude":"-94.20249000","wikiDataId":"Q20239725"},{"id":71325,"Name":"La Isla","state_id":3464,"state_code":"VER","state_name":"Veracruz de Ignacio de la Llave","country_id":142,"country_code":"MX","country_name":"Mexico","latitude":"18.60000000","longitude":"-96.15000000","wikiDataId":"Q20269861"},{"id":71326,"Name":"La Isla (Kilómetro 10)","state_id":3464,"state_code":"VER","state_name":"Veracruz de Ignacio de la Llave","country_id":142,"country_code":"MX","country_name":"Mexico","latitude":"20.60806000","longitude":"-97.50139000","wikiDataId":"Q20251261"},{"id":71328,"Name":"La Isla de Chapachapa","state_id":3464,"state_code":"VER","state_name":"Veracruz de Ignacio de la Llave","country_id":142,"country_code":"MX","country_name":"Mexico","latitude":"20.12186000","longitude":"-96.88208000","wikiDataId":"Q20251261"},{"id":71327,"Name":"La Isla Km 10","state_id":3464,"state_code":"VER","state_name":"Veracruz de Ignacio de la Llave","country_id":142,"country_code":"MX","country_name":"Mexico","latitude":"20.60677000","longitude":"-97.49950000","wikiDataId":"Q20251261"},{"id":71329,"Name":"La Joya","state_id":3464,"state_code":"VER","state_name":"Veracruz de Ignacio de la Llave","country_id":142,"country_code":"MX","country_name":"Mexico","latitude":"19.61099000","longitude":"-97.02687000","wikiDataId":"Q20269867"},{"id":71335,"Name":"La Junta","state_id":3464,"state_code":"VER","state_name":"Veracruz de Ignacio de la Llave","country_id":142,"country_code":"MX","country_name":"Mexico","latitude":"18.49136000","longitude":"-96.65720000","wikiDataId":"Q20238842"},{"id":71344,"Name":"La Laguna","state_id":3464,"state_code":"VER","state_name":"Veracruz de Ignacio de la Llave","country_id":142,"country_code":"MX","country_name":"Mexico","latitude":"19.48214000","longitude":"-96.93366000","wikiDataId":"Q56527491"},{"id":71347,"Name":"La Laguna y Monte del Castillo","state_id":3464,"state_code":"VER","state_name":"Veracruz de Ignacio de la Llave","country_id":142,"country_code":"MX","country_name":"Mexico","latitude":"18.98334000","longitude":"-96.07806000","wikiDataId":"Q20226680"},{"id":71353,"Name":"La Libertad","state_id":3464,"state_code":"VER","state_name":"Veracruz de Ignacio de la Llave","country_id":142,"country_code":"MX","country_name":"Mexico","latitude":"20.05345000","longitude":"-96.97314000","wikiDataId":"Q20216167"},{"id":71410,"Name":"La Nueva Era","state_id":3464,"state_code":"VER","state_name":"Veracruz de Ignacio de la Llave","country_id":142,"country_code":"MX","country_name":"Mexico","latitude":"17.69861000","longitude":"-95.80833000","wikiDataId":"Q20128665"},{"id":71411,"Name":"La Nueva Victoria","state_id":3464,"state_code":"VER","state_name":"Veracruz de Ignacio de la Llave","country_id":142,"country_code":"MX","country_name":"Mexico","latitude":"18.65639000","longitude":"-95.25806000","wikiDataId":"Q20129072"},{"id":71413,"Name":"La Orduña","state_id":3464,"state_code":"VER","state_name":"Veracruz de Ignacio de la Llave","country_id":142,"country_code":"MX","country_name":"Mexico","latitude":"19.45141000","longitude":"-96.93598000","wikiDataId":"Q20129072"},{"id":71419,"Name":"La Palma","state_id":3464,"state_code":"VER","state_name":"Veracruz de Ignacio de la Llave","country_id":142,"country_code":"MX","country_name":"Mexico","latitude":"20.17941000","longitude":"-97.06718000","wikiDataId":"Q20129271"},{"id":71428,"Name":"La Palmilla","state_id":3464,"state_code":"VER","state_name":"Veracruz de Ignacio de la Llave","country_id":142,"country_code":"MX","country_name":"Mexico","latitude":"20.02041000","longitude":"-97.14553000","wikiDataId":"Q20292994"},{"id":71441,"Name":"La Perla","state_id":3464,"state_code":"VER","state_name":"Veracruz de Ignacio de la Llave","country_id":142,"country_code":"MX","country_name":"Mexico","latitude":"18.92817000","longitude":"-97.13362000","wikiDataId":"Q20131414"},{"id":71464,"Name":"La Providencia","state_id":3464,"state_code":"VER","state_name":"Veracruz de Ignacio de la Llave","country_id":142,"country_code":"MX","country_name":"Mexico","latitude":"18.75304000","longitude":"-96.77087000","wikiDataId":"Q20133535"},{"id":71473,"Name":"La Reforma","state_id":3464,"state_code":"VER","state_name":"Veracruz de Ignacio de la Llave","country_id":142,"country_code":"MX","country_name":"Mexico","latitude":"19.59664000","longitude":"-96.63302000","wikiDataId":"Q7731295"},{"id":71488,"Name":"La Sidra","state_id":3464,"state_code":"VER","state_name":"Veracruz de Ignacio de la Llave","country_id":142,"country_code":"MX","country_name":"Mexico","latitude":"18.93380000","longitude":"-97.07989000","wikiDataId":"Q20135979"},{"id":71497,"Name":"La Sombra","state_id":3464,"state_code":"VER","state_name":"Veracruz de Ignacio de la Llave","country_id":142,"country_code":"MX","country_name":"Mexico","latitude":"19.75076000","longitude":"-96.71420000","wikiDataId":"Q20136257"},{"id":71503,"Name":"La Tinaja","state_id":3464,"state_code":"VER","state_name":"Veracruz de Ignacio de la Llave","country_id":142,"country_code":"MX","country_name":"Mexico","latitude":"18.76082000","longitude":"-96.46283000","wikiDataId":"Q20293791"},{"id":71505,"Name":"La Toma","state_id":3464,"state_code":"VER","state_name":"Veracruz de Ignacio de la Llave","country_id":142,"country_code":"MX","country_name":"Mexico","latitude":"19.45278000","longitude":"-97.19361000","wikiDataId":"Q20137470"},{"id":71523,"Name":"La Unión","state_id":3464,"state_code":"VER","state_name":"Veracruz de Ignacio de la Llave","country_id":142,"country_code":"MX","country_name":"Mexico","latitude":"20.89222000","longitude":"-97.66528000","wikiDataId":"Q20138201"},{"id":71525,"Name":"La Unión Paso Largo","state_id":3464,"state_code":"VER","state_name":"Veracruz de Ignacio de la Llave","country_id":142,"country_code":"MX","country_name":"Mexico","latitude":"20.14224000","longitude":"-96.99995000","wikiDataId":"Q20138180"},{"id":71532,"Name":"La Victoria","state_id":3464,"state_code":"VER","state_name":"Veracruz de Ignacio de la Llave","country_id":142,"country_code":"MX","country_name":"Mexico","latitude":"18.37486000","longitude":"-95.12213000","wikiDataId":"Q20239873"},{"id":71535,"Name":"La Victoria (La Peñita)","state_id":3464,"state_code":"VER","state_name":"Veracruz de Ignacio de la Llave","country_id":142,"country_code":"MX","country_name":"Mexico","latitude":"20.93694000","longitude":"-97.37250000","wikiDataId":"Q20139095"},{"id":71547,"Name":"Laguna Chica (Pueblo Nuevo)","state_id":3464,"state_code":"VER","state_name":"Veracruz de Ignacio de la Llave","country_id":142,"country_code":"MX","country_name":"Mexico","latitude":"18.54306000","longitude":"-96.73306000","wikiDataId":"Q20227219"},{"id":71551,"Name":"Laguna de Farfán","state_id":3464,"state_code":"VER","state_name":"Veracruz de Ignacio de la Llave","country_id":142,"country_code":"MX","country_name":"Mexico","latitude":"19.80327000","longitude":"-96.64386000","wikiDataId":"Q20227219"},{"id":71560,"Name":"Laguneta","state_id":3464,"state_code":"VER","state_name":"Veracruz de Ignacio de la Llave","country_id":142,"country_code":"MX","country_name":"Mexico","latitude":"18.34298000","longitude":"-95.15181000","wikiDataId":"Q474420"},{"id":71569,"Name":"Landero y Coss","state_id":3464,"state_code":"VER","state_name":"Veracruz de Ignacio de la Llave","country_id":142,"country_code":"MX","country_name":"Mexico","latitude":"19.73935000","longitude":"-96.85009000","wikiDataId":"Q3846402"},{"id":71573,"Name":"Las Amapolas","state_id":3464,"state_code":"VER","state_name":"Veracruz de Ignacio de la Llave","country_id":142,"country_code":"MX","country_name":"Mexico","latitude":"19.15194000","longitude":"-96.19778000","wikiDataId":"Q20141092"},{"id":71577,"Name":"Las Barrillas","state_id":3464,"state_code":"VER","state_name":"Veracruz de Ignacio de la Llave","country_id":142,"country_code":"MX","country_name":"Mexico","latitude":"18.18617000","longitude":"-94.59542000","wikiDataId":"Q20294885"},{"id":71587,"Name":"Las Choapas","state_id":3464,"state_code":"VER","state_name":"Veracruz de Ignacio de la Llave","country_id":142,"country_code":"MX","country_name":"Mexico","latitude":"17.91177000","longitude":"-94.09646000","wikiDataId":"Q3847143"},{"id":71602,"Name":"Las Higueras","state_id":3464,"state_code":"VER","state_name":"Veracruz de Ignacio de la Llave","country_id":142,"country_code":"MX","country_name":"Mexico","latitude":"20.03693000","longitude":"-96.62199000","wikiDataId":"Q20216801"},{"id":71612,"Name":"Las Lomas","state_id":3464,"state_code":"VER","state_name":"Veracruz de Ignacio de la Llave","country_id":142,"country_code":"MX","country_name":"Mexico","latitude":"20.26067000","longitude":"-97.61528000","wikiDataId":"Q20227388"},{"id":71614,"Name":"Las Lomas de Tacamichapan","state_id":3464,"state_code":"VER","state_name":"Veracruz de Ignacio de la Llave","country_id":142,"country_code":"MX","country_name":"Mexico","latitude":"17.86611000","longitude":"-94.70833000","wikiDataId":"Q20227387"},{"id":71624,"Name":"Las Minas","state_id":3464,"state_code":"VER","state_name":"Veracruz de Ignacio de la Llave","country_id":142,"country_code":"MX","country_name":"Mexico","latitude":"19.70449000","longitude":"-97.14699000","wikiDataId":"Q5970594"},{"id":71639,"Name":"Las Sabanetas","state_id":3464,"state_code":"VER","state_name":"Veracruz de Ignacio de la Llave","country_id":142,"country_code":"MX","country_name":"Mexico","latitude":"18.12661000","longitude":"-95.82265000","wikiDataId":"Q20296680"},{"id":71640,"Name":"Las Sabinas","state_id":3464,"state_code":"VER","state_name":"Veracruz de Ignacio de la Llave","country_id":142,"country_code":"MX","country_name":"Mexico","latitude":"21.31806000","longitude":"-97.88083000","wikiDataId":"Q20227482"},{"id":71645,"Name":"Las Trancas","state_id":3464,"state_code":"VER","state_name":"Veracruz de Ignacio de la Llave","country_id":142,"country_code":"MX","country_name":"Mexico","latitude":"19.50444000","longitude":"-96.86444000","wikiDataId":"Q20227492"},{"id":71653,"Name":"Las Vigas de Ramírez","state_id":3464,"state_code":"VER","state_name":"Veracruz de Ignacio de la Llave","country_id":142,"country_code":"MX","country_name":"Mexico","latitude":"19.63722000","longitude":"-97.09821000","wikiDataId":"Q20227510"},{"id":71900,"Name":"Lázaro Cárdenas (Santana)","state_id":3464,"state_code":"VER","state_name":"Veracruz de Ignacio de la Llave","country_id":142,"country_code":"MX","country_name":"Mexico","latitude":"20.22500000","longitude":"-97.59306000","wikiDataId":"Q20227519"},{"id":71662,"Name":"Lerdo de Tejada","state_id":3464,"state_code":"VER","state_name":"Veracruz de Ignacio de la Llave","country_id":142,"country_code":"MX","country_name":"Mexico","latitude":"18.62936000","longitude":"-95.51968000","wikiDataId":"Q20227551"},{"id":71678,"Name":"Limones","state_id":3464,"state_code":"VER","state_name":"Veracruz de Ignacio de la Llave","country_id":142,"country_code":"MX","country_name":"Mexico","latitude":"19.33820000","longitude":"-96.92336000","wikiDataId":"Q20258442"},{"id":71680,"Name":"Lindavista","state_id":3464,"state_code":"VER","state_name":"Veracruz de Ignacio de la Llave","country_id":142,"country_code":"MX","country_name":"Mexico","latitude":"18.08899000","longitude":"-95.77597000","wikiDataId":"Q991413"},{"id":71691,"Name":"Llano de Enmedio","state_id":3464,"state_code":"VER","state_name":"Veracruz de Ignacio de la Llave","country_id":142,"country_code":"MX","country_name":"Mexico","latitude":"20.78328000","longitude":"-98.01364000","wikiDataId":"Q20270009"},{"id":71685,"Name":"Llano Grande","state_id":3464,"state_code":"VER","state_name":"Veracruz de Ignacio de la Llave","country_id":142,"country_code":"MX","country_name":"Mexico","latitude":"19.37035000","longitude":"-96.88002000","wikiDataId":"Q20208349"},{"id":71711,"Name":"Loma Angosta","state_id":3464,"state_code":"VER","state_name":"Veracruz de Ignacio de la Llave","country_id":142,"country_code":"MX","country_name":"Mexico","latitude":"18.78309000","longitude":"-96.67588000","wikiDataId":"Q20282672"},{"id":71736,"Name":"Loma de los Carmona","state_id":3464,"state_code":"VER","state_name":"Veracruz de Ignacio de la Llave","country_id":142,"country_code":"MX","country_name":"Mexico","latitude":"19.10556000","longitude":"-96.39369000","wikiDataId":"Q20208609"},{"id":71732,"Name":"Loma de Sogotegoyo","state_id":3464,"state_code":"VER","state_name":"Veracruz de Ignacio de la Llave","country_id":142,"country_code":"MX","country_name":"Mexico","latitude":"18.21896000","longitude":"-94.97373000","wikiDataId":"Q20270136"},{"id":71719,"Name":"Loma Grande","state_id":3464,"state_code":"VER","state_name":"Veracruz de Ignacio de la Llave","country_id":142,"country_code":"MX","country_name":"Mexico","latitude":"18.92250000","longitude":"-97.23083000","wikiDataId":"Q20270191"},{"id":71745,"Name":"Lomas de Barrillas","state_id":3464,"state_code":"VER","state_name":"Veracruz de Ignacio de la Llave","country_id":142,"country_code":"MX","country_name":"Mexico","latitude":"18.14806000","longitude":"-94.52639000","wikiDataId":"Q20128655"},{"id":71748,"Name":"Lomas de Río Medio Cuatro","state_id":3464,"state_code":"VER","state_name":"Veracruz de Ignacio de la Llave","country_id":142,"country_code":"MX","country_name":"Mexico","latitude":"19.19333000","longitude":"-96.21056000","wikiDataId":"Q20270218"},{"id":71742,"Name":"Lomas Verdes","state_id":3464,"state_code":"VER","state_name":"Veracruz de Ignacio de la Llave","country_id":142,"country_code":"MX","country_name":"Mexico","latitude":"19.50446000","longitude":"-96.88899000","wikiDataId":"Q20270224"},{"id":71768,"Name":"Los Altos","state_id":3464,"state_code":"VER","state_name":"Veracruz de Ignacio de la Llave","country_id":142,"country_code":"MX","country_name":"Mexico","latitude":"21.50976000","longitude":"-97.75705000","wikiDataId":"Q20270237"},{"id":71787,"Name":"Los Cerritos","state_id":3464,"state_code":"VER","state_name":"Veracruz de Ignacio de la Llave","country_id":142,"country_code":"MX","country_name":"Mexico","latitude":"18.07884000","longitude":"-94.61668000","wikiDataId":"Q20210814"},{"id":71873,"Name":"Los Ídolos","state_id":3464,"state_code":"VER","state_name":"Veracruz de Ignacio de la Llave","country_id":142,"country_code":"MX","country_name":"Mexico","latitude":"19.41173000","longitude":"-96.51808000","wikiDataId":"Q20208663"},{"id":71810,"Name":"Los Lirios","state_id":3464,"state_code":"VER","state_name":"Veracruz de Ignacio de la Llave","country_id":142,"country_code":"MX","country_name":"Mexico","latitude":"18.50058000","longitude":"-95.38828000","wikiDataId":"Q20136843"},{"id":71814,"Name":"Los Mangos","state_id":3464,"state_code":"VER","state_name":"Veracruz de Ignacio de la Llave","country_id":142,"country_code":"MX","country_name":"Mexico","latitude":"18.24361000","longitude":"-95.12222000","wikiDataId":"Q20270389"},{"id":71818,"Name":"Los Molinos","state_id":3464,"state_code":"VER","state_name":"Veracruz de Ignacio de la Llave","country_id":142,"country_code":"MX","country_name":"Mexico","latitude":"19.59565000","longitude":"-97.21513000","wikiDataId":"Q752460"},