[{"id":97489,"Name":"Abramovka","state_id":1906,"state_code":"VOR","state_name":"Voronezh Oblast","country_id":182,"country_code":"RU","country_name":"Russia","latitude":"51.18860000","longitude":"41.02020000","wikiDataId":"Q558757"},{"id":97633,"Name":"Anna","state_id":1906,"state_code":"VOR","state_name":"Voronezh Oblast","country_id":182,"country_code":"RU","country_name":"Russia","latitude":"51.48420000","longitude":"40.42990000","wikiDataId":"Q31883756"},{"id":97637,"Name":"Anninskiy Rayon","state_id":1906,"state_code":"VOR","state_name":"Voronezh Oblast","country_id":182,"country_code":"RU","country_name":"Russia","latitude":"51.41667000","longitude":"40.25000000","wikiDataId":"Q1650963"},{"id":97855,"Name":"Belogor’ye","state_id":1906,"state_code":"VOR","state_name":"Voronezh Oblast","country_id":182,"country_code":"RU","country_name":"Russia","latitude":"50.49040000","longitude":"40.00950000","wikiDataId":"Q31913762"},{"id":97955,"Name":"Bobrov","state_id":1906,"state_code":"VOR","state_name":"Voronezh Oblast","country_id":182,"country_code":"RU","country_name":"Russia","latitude":"51.09611000","longitude":"40.03333000","wikiDataId":"Q105215"},{"id":97959,"Name":"Bobrovskiy Rayon","state_id":1906,"state_code":"VOR","state_name":"Voronezh Oblast","country_id":182,"country_code":"RU","country_name":"Russia","latitude":"51.25000000","longitude":"40.00000000","wikiDataId":"Q832764"},{"id":97983,"Name":"Boguchar","state_id":1906,"state_code":"VOR","state_name":"Voronezh Oblast","country_id":182,"country_code":"RU","country_name":"Russia","latitude":"49.93577000","longitude":"40.54500000","wikiDataId":"Q105264"},{"id":98024,"Name":"Borisoglebsk","state_id":1906,"state_code":"VOR","state_name":"Voronezh Oblast","country_id":182,"country_code":"RU","country_name":"Russia","latitude":"51.36713000","longitude":"42.08494000","wikiDataId":"Q132698"},{"id":98088,"Name":"Buturlinovka","state_id":1906,"state_code":"VOR","state_name":"Voronezh Oblast","country_id":182,"country_code":"RU","country_name":"Russia","latitude":"50.82389000","longitude":"40.60917000","wikiDataId":"Q132939"},{"id":98089,"Name":"Buturlinovskiy Rayon","state_id":1906,"state_code":"VOR","state_name":"Voronezh Oblast","country_id":182,"country_code":"RU","country_name":"Russia","latitude":"50.83333000","longitude":"40.66667000","wikiDataId":"Q1651081"},{"id":98251,"Name":"Davydovka","state_id":1906,"state_code":"VOR","state_name":"Voronezh Oblast","country_id":182,"country_code":"RU","country_name":"Russia","latitude":"51.15781000","longitude":"39.42915000","wikiDataId":"Q34800748"},{"id":98271,"Name":"Devitsa","state_id":1906,"state_code":"VOR","state_name":"Voronezh Oblast","country_id":182,"country_code":"RU","country_name":"Russia","latitude":"51.63520000","longitude":"38.94500000","wikiDataId":"Q34801616"},{"id":98324,"Name":"Drakino","state_id":1906,"state_code":"VOR","state_name":"Voronezh Oblast","country_id":182,"country_code":"RU","country_name":"Russia","latitude":"51.13898000","longitude":"39.40215000","wikiDataId":"Q37783800"},{"id":98401,"Name":"Ertil’","state_id":1906,"state_code":"VOR","state_name":"Voronezh Oblast","country_id":182,"country_code":"RU","country_name":"Russia","latitude":"51.84056000","longitude":"40.80556000","wikiDataId":"Q198753"},{"id":98402,"Name":"Ertil’skiy Rayon","state_id":1906,"state_code":"VOR","state_name":"Voronezh Oblast","country_id":182,"country_code":"RU","country_name":"Russia","latitude":"51.75000000","longitude":"40.75000000","wikiDataId":"Q4025627"},{"id":98587,"Name":"Gribanovskiy","state_id":1906,"state_code":"VOR","state_name":"Voronezh Oblast","country_id":182,"country_code":"RU","country_name":"Russia","latitude":"51.45792000","longitude":"41.97637000","wikiDataId":"Q37804943"},{"id":98588,"Name":"Gribanovskiy Rayon","state_id":1906,"state_code":"VOR","state_name":"Voronezh Oblast","country_id":182,"country_code":"RU","country_name":"Russia","latitude":"51.50000000","longitude":"42.00000000","wikiDataId":"Q264578"},{"id":98664,"Name":"Imeni Pervogo Maya","state_id":1906,"state_code":"VOR","state_name":"Voronezh Oblast","country_id":182,"country_code":"RU","country_name":"Russia","latitude":"50.88997000","longitude":"39.59190000","wikiDataId":"Q546318"},{"id":98778,"Name":"Kalach","state_id":1906,"state_code":"VOR","state_name":"Voronezh Oblast","country_id":182,"country_code":"RU","country_name":"Russia","latitude":"50.42580000","longitude":"41.02610000","wikiDataId":"Q143557"},{"id":98810,"Name":"Kamenka","state_id":1906,"state_code":"VOR","state_name":"Voronezh Oblast","country_id":182,"country_code":"RU","country_name":"Russia","latitude":"51.32230000","longitude":"42.76780000","wikiDataId":"Q19804834"},{"id":98822,"Name":"Kamenskiy Rayon","state_id":1906,"state_code":"VOR","state_name":"Voronezh Oblast","country_id":182,"country_code":"RU","country_name":"Russia","latitude":"51.31667000","longitude":"42.76667000","wikiDataId":"Q3812685"},{"id":98846,"Name":"Kantemirovka","state_id":1906,"state_code":"VOR","state_name":"Voronezh Oblast","country_id":182,"country_code":"RU","country_name":"Russia","latitude":"49.70887000","longitude":"39.85922000","wikiDataId":"Q2109878"},{"id":98894,"Name":"Kashirskiy Rayon","state_id":1906,"state_code":"VOR","state_name":"Voronezh Oblast","country_id":182,"country_code":"RU","country_name":"Russia","latitude":"51.41667000","longitude":"39.61667000","wikiDataId":"Q3814199"},{"id":98895,"Name":"Kashirskoye","state_id":1906,"state_code":"VOR","state_name":"Voronezh Oblast","country_id":182,"country_code":"RU","country_name":"Russia","latitude":"51.41945000","longitude":"39.61248000","wikiDataId":"Q37824568"},{"id":99014,"Name":"Khrenovoye","state_id":1906,"state_code":"VOR","state_name":"Voronezh Oblast","country_id":182,"country_code":"RU","country_name":"Russia","latitude":"51.12000000","longitude":"40.28889000","wikiDataId":"Q35695553"},{"id":99139,"Name":"Kolodeznyy","state_id":1906,"state_code":"VOR","state_name":"Voronezh Oblast","country_id":182,"country_code":"RU","country_name":"Russia","latitude":"51.33333000","longitude":"39.18333000","wikiDataId":"Q37845330"},{"id":99217,"Name":"Korotoyak","state_id":1906,"state_code":"VOR","state_name":"Voronezh Oblast","country_id":182,"country_code":"RU","country_name":"Russia","latitude":"50.98665000","longitude":"39.17677000","wikiDataId":"Q35699889"},{"id":99267,"Name":"Kozlovka","state_id":1906,"state_code":"VOR","state_name":"Voronezh Oblast","country_id":182,"country_code":"RU","country_name":"Russia","latitude":"50.86222000","longitude":"40.45556000","wikiDataId":"Q35701313"},{"id":99327,"Name":"Krasnolesnyy","state_id":1906,"state_code":"VOR","state_name":"Voronezh Oblast","country_id":182,"country_code":"RU","country_name":"Russia","latitude":"51.88072000","longitude":"39.58772000","wikiDataId":"Q35702426"},{"id":99546,"Name":"Latnaya","state_id":1906,"state_code":"VOR","state_name":"Voronezh Oblast","country_id":182,"country_code":"RU","country_name":"Russia","latitude":"51.65860000","longitude":"38.90110000","wikiDataId":"Q4254994"},{"id":99637,"Name":"Liski","state_id":1906,"state_code":"VOR","state_name":"Voronezh Oblast","country_id":182,"country_code":"RU","country_name":"Russia","latitude":"50.98405000","longitude":"39.51545000","wikiDataId":"Q157622"},{"id":99638,"Name":"Liskinskiy Rayon","state_id":1906,"state_code":"VOR","state_name":"Voronezh Oblast","country_id":182,"country_code":"RU","country_name":"Russia","latitude":"50.91667000","longitude":"39.50000000","wikiDataId":"Q1652789"},{"id":99665,"Name":"Losevo","state_id":1906,"state_code":"VOR","state_name":"Voronezh Oblast","country_id":182,"country_code":"RU","country_name":"Russia","latitude":"50.67667000","longitude":"40.04500000","wikiDataId":"Q35719444"},{"id":99811,"Name":"Maslovka","state_id":1906,"state_code":"VOR","state_name":"Voronezh Oblast","country_id":182,"country_code":"RU","country_name":"Russia","latitude":"51.55346000","longitude":"39.23573000","wikiDataId":"Q35725898"},{"id":99932,"Name":"Mitrofanovka","state_id":1906,"state_code":"VOR","state_name":"Voronezh Oblast","country_id":182,"country_code":"RU","country_name":"Russia","latitude":"49.97083000","longitude":"39.69389000","wikiDataId":"Q35730783"},{"id":100151,"Name":"Nizhnedevitsk","state_id":1906,"state_code":"VOR","state_name":"Voronezh Oblast","country_id":182,"country_code":"RU","country_name":"Russia","latitude":"51.54190000","longitude":"38.36570000","wikiDataId":"Q37896676"},{"id":100152,"Name":"Nizhnedevitskiy Rayon","state_id":1906,"state_code":"VOR","state_name":"Voronezh Oblast","country_id":182,"country_code":"RU","country_name":"Russia","latitude":"51.50000000","longitude":"38.41667000","wikiDataId":"Q1653589"},{"id":100168,"Name":"Nizhniy Kislyay","state_id":1906,"state_code":"VOR","state_name":"Voronezh Oblast","country_id":182,"country_code":"RU","country_name":"Russia","latitude":"50.84970000","longitude":"40.17190000","wikiDataId":"Q37896952"},{"id":100172,"Name":"Nizhniy Mamon","state_id":1906,"state_code":"VOR","state_name":"Voronezh Oblast","country_id":182,"country_code":"RU","country_name":"Russia","latitude":"50.19370000","longitude":"40.50830000","wikiDataId":"Q4319162"},{"id":100202,"Name":"Novaya Chigla","state_id":1906,"state_code":"VOR","state_name":"Voronezh Oblast","country_id":182,"country_code":"RU","country_name":"Russia","latitude":"51.22333000","longitude":"40.47806000","wikiDataId":"Q18406045"},{"id":100211,"Name":"Novaya Usman’","state_id":1906,"state_code":"VOR","state_name":"Voronezh Oblast","country_id":182,"country_code":"RU","country_name":"Russia","latitude":"51.64177000","longitude":"39.40863000","wikiDataId":"Q37898171"},{"id":100249,"Name":"Novokhopërsk","state_id":1906,"state_code":"VOR","state_name":"Voronezh Oblast","country_id":182,"country_code":"RU","country_name":"Russia","latitude":"51.09690000","longitude":"41.62520000","wikiDataId":"Q175407"},{"id":100248,"Name":"Novokhoperskiy Rayon","state_id":1906,"state_code":"VOR","state_name":"Voronezh Oblast","country_id":182,"country_code":"RU","country_name":"Russia","latitude":"51.08333000","longitude":"41.58333000","wikiDataId":"Q3879092"},{"id":100323,"Name":"Novousmanskiy Rayon","state_id":1906,"state_code":"VOR","state_name":"Voronezh Oblast","country_id":182,"country_code":"RU","country_name":"Russia","latitude":"51.58333000","longitude":"39.41667000","wikiDataId":"Q1654862"},{"id":100329,"Name":"Novovoronezh","state_id":1906,"state_code":"VOR","state_name":"Voronezh Oblast","country_id":182,"country_code":"RU","country_name":"Russia","latitude":"51.30719000","longitude":"39.21732000","wikiDataId":"Q173943"},{"id":100336,"Name":"Novozhivotinnoye","state_id":1906,"state_code":"VOR","state_name":"Voronezh Oblast","country_id":182,"country_code":"RU","country_name":"Russia","latitude":"51.88770000","longitude":"39.16894000","wikiDataId":"Q37898832"},{"id":100437,"Name":"Ol’khovatka","state_id":1906,"state_code":"VOR","state_name":"Voronezh Oblast","country_id":182,"country_code":"RU","country_name":"Russia","latitude":"50.28308000","longitude":"39.28715000","wikiDataId":"Q37901170"},{"id":100438,"Name":"Ol’khovatskiy Rayon","state_id":1906,"state_code":"VOR","state_name":"Voronezh Oblast","country_id":182,"country_code":"RU","country_name":"Russia","latitude":"50.25000000","longitude":"39.25000000","wikiDataId":"Q2003555"},{"id":100472,"Name":"Orlovo","state_id":1906,"state_code":"VOR","state_name":"Voronezh Oblast","country_id":182,"country_code":"RU","country_name":"Russia","latitude":"51.75397000","longitude":"39.58731000","wikiDataId":"Q37903600"},{"id":100495,"Name":"Ostrogozhsk","state_id":1906,"state_code":"VOR","state_name":"Voronezh Oblast","country_id":182,"country_code":"RU","country_name":"Russia","latitude":"50.86640000","longitude":"39.07561000","wikiDataId":"Q177737"},{"id":100535,"Name":"Panino","state_id":1906,"state_code":"VOR","state_name":"Voronezh Oblast","country_id":182,"country_code":"RU","country_name":"Russia","latitude":"51.64670000","longitude":"40.13460000","wikiDataId":"Q37959342"},{"id":100536,"Name":"Paninskiy Rayon","state_id":1906,"state_code":"VOR","state_name":"Voronezh Oblast","country_id":182,"country_code":"RU","country_name":"Russia","latitude":"51.66667000","longitude":"40.16667000","wikiDataId":"Q1884296"},{"id":100572,"Name":"Pavlovsk","state_id":1906,"state_code":"VOR","state_name":"Voronezh Oblast","country_id":182,"country_code":"RU","country_name":"Russia","latitude":"50.45778000","longitude":"40.10806000","wikiDataId":"Q177867"},{"id":100580,"Name":"Pavlovskiy Rayon","state_id":1906,"state_code":"VOR","state_name":"Voronezh Oblast","country_id":182,"country_code":"RU","country_name":"Russia","latitude":"50.41667000","longitude":"40.16667000","wikiDataId":"Q3898356"},{"id":100598,"Name":"Pereleshino","state_id":1906,"state_code":"VOR","state_name":"Voronezh Oblast","country_id":182,"country_code":"RU","country_name":"Russia","latitude":"51.73760000","longitude":"40.13880000","wikiDataId":"Q37959230"},{"id":100599,"Name":"Pereleshinskiy","state_id":1906,"state_code":"VOR","state_name":"Voronezh Oblast","country_id":182,"country_code":"RU","country_name":"Russia","latitude":"51.71480000","longitude":"40.19530000","wikiDataId":"Q37959228"},{"id":100713,"Name":"Podgorenskiy","state_id":1906,"state_code":"VOR","state_name":"Voronezh Oblast","country_id":182,"country_code":"RU","country_name":"Russia","latitude":"50.40498000","longitude":"39.64295000","wikiDataId":"Q37959018"},{"id":100714,"Name":"Podgorenskiy Rayon","state_id":1906,"state_code":"VOR","state_name":"Voronezh Oblast","country_id":182,"country_code":"RU","country_name":"Russia","latitude":"50.50000000","longitude":"39.58333000","wikiDataId":"Q1653945"},{"id":100716,"Name":"Podgornoye","state_id":1906,"state_code":"VOR","state_name":"Voronezh Oblast","country_id":182,"country_code":"RU","country_name":"Russia","latitude":"51.73504000","longitude":"39.14961000","wikiDataId":"Q37959010"},{"id":100719,"Name":"Podkletnoye","state_id":1906,"state_code":"VOR","state_name":"Voronezh Oblast","country_id":182,"country_code":"RU","country_name":"Russia","latitude":"51.58993000","longitude":"39.46230000","wikiDataId":"Q37959004"},{"id":100794,"Name":"Povorino","state_id":1906,"state_code":"VOR","state_name":"Voronezh Oblast","country_id":182,"country_code":"RU","country_name":"Russia","latitude":"51.19450000","longitude":"42.24570000","wikiDataId":"Q179495"},{"id":100795,"Name":"Povorinskiy Rayon","state_id":1906,"state_code":"VOR","state_name":"Voronezh Oblast","country_id":182,"country_code":"RU","country_name":"Russia","latitude":"51.18333000","longitude":"42.20000000","wikiDataId":"Q1654021"},{"id":100818,"Name":"Pridonskoy","state_id":1906,"state_code":"VOR","state_name":"Voronezh Oblast","country_id":182,"country_code":"RU","country_name":"Russia","latitude":"51.68406000","longitude":"39.07270000","wikiDataId":"Q37958836"},{"id":100940,"Name":"Ramon’","state_id":1906,"state_code":"VOR","state_name":"Voronezh Oblast","country_id":182,"country_code":"RU","country_name":"Russia","latitude":"51.91569000","longitude":"39.33609000","wikiDataId":"Q385986"},{"id":100939,"Name":"Ramonskiy Rayon","state_id":1906,"state_code":"VOR","state_name":"Voronezh Oblast","country_id":182,"country_code":"RU","country_name":"Russia","latitude":"51.91667000","longitude":"39.33333000","wikiDataId":"Q1654556"},{"id":100963,"Name":"Rep’yevskiy Rayon","state_id":1906,"state_code":"VOR","state_name":"Voronezh Oblast","country_id":182,"country_code":"RU","country_name":"Russia","latitude":"51.16667000","longitude":"38.66667000","wikiDataId":"Q3933139"},{"id":101004,"Name":"Rossosh’","state_id":1906,"state_code":"VOR","state_name":"Voronezh Oblast","country_id":182,"country_code":"RU","country_name":"Russia","latitude":"51.12090000","longitude":"38.51160000","wikiDataId":"Q37958530"},{"id":101003,"Name":"Rossoshanskiy Rayon","state_id":1906,"state_code":"VOR","state_name":"Voronezh Oblast","country_id":182,"country_code":"RU","country_name":"Russia","latitude":"50.16667000","longitude":"39.58333000","wikiDataId":"Q1654431"},{"id":101064,"Name":"Sadovoye","state_id":1906,"state_code":"VOR","state_name":"Voronezh Oblast","country_id":182,"country_code":"RU","country_name":"Russia","latitude":"51.53111000","longitude":"40.50194000","wikiDataId":"Q37958374"},{"id":101165,"Name":"Semiluki","state_id":1906,"state_code":"VOR","state_name":"Voronezh Oblast","country_id":182,"country_code":"RU","country_name":"Russia","latitude":"51.68525000","longitude":"39.02787000","wikiDataId":"Q105520"},{"id":101166,"Name":"Semilukskiy Rayon","state_id":1906,"state_code":"VOR","state_name":"Voronezh Oblast","country_id":182,"country_code":"RU","country_name":"Russia","latitude":"51.66667000","longitude":"39.00000000","wikiDataId":"Q1654015"},{"id":101316,"Name":"Shilovo","state_id":1906,"state_code":"VOR","state_name":"Voronezh Oblast","country_id":182,"country_code":"RU","country_name":"Russia","latitude":"51.54583000","longitude":"39.08917000","wikiDataId":"Q37957738"},{"id":101407,"Name":"Sloboda","state_id":1906,"state_code":"VOR","state_name":"Voronezh Oblast","country_id":182,"country_code":"RU","country_name":"Russia","latitude":"51.14210000","longitude":"40.30210000","wikiDataId":"Q37957499"},{"id":101475,"Name":"Somovo","state_id":1906,"state_code":"VOR","state_name":"Voronezh Oblast","country_id":182,"country_code":"RU","country_name":"Russia","latitude":"51.74098000","longitude":"39.36655000","wikiDataId":"Q37957336"},{"id":101546,"Name":"Sredniy Ikorets","state_id":1906,"state_code":"VOR","state_name":"Voronezh Oblast","country_id":182,"country_code":"RU","country_name":"Russia","latitude":"51.06749000","longitude":"39.75838000","wikiDataId":"Q37957190"},{"id":101625,"Name":"Strelitsa","state_id":1906,"state_code":"VOR","state_name":"Voronezh Oblast","country_id":182,"country_code":"RU","country_name":"Russia","latitude":"51.60830000","longitude":"38.91020000","wikiDataId":"Q37957017"},{"id":101755,"Name":"Talovaya","state_id":1906,"state_code":"VOR","state_name":"Voronezh Oblast","country_id":182,"country_code":"RU","country_name":"Russia","latitude":"51.11444000","longitude":"40.73000000","wikiDataId":"Q4450545"},{"id":101834,"Name":"Ternovka","state_id":1906,"state_code":"VOR","state_name":"Voronezh Oblast","country_id":182,"country_code":"RU","country_name":"Russia","latitude":"51.67803000","longitude":"41.63750000","wikiDataId":"Q37956545"},{"id":101835,"Name":"Ternovskiy Rayon","state_id":1906,"state_code":"VOR","state_name":"Voronezh Oblast","country_id":182,"country_code":"RU","country_name":"Russia","latitude":"51.66667000","longitude":"41.25000000","wikiDataId":"Q1655750"},{"id":102039,"Name":"Uglyanets","state_id":1906,"state_code":"VOR","state_name":"Voronezh Oblast","country_id":182,"country_code":"RU","country_name":"Russia","latitude":"51.81908000","longitude":"39.59606000","wikiDataId":"Q37956145"},{"id":102093,"Name":"Uryv-Pokrovka","state_id":1906,"state_code":"VOR","state_name":"Voronezh Oblast","country_id":182,"country_code":"RU","country_name":"Russia","latitude":"51.11590000","longitude":"39.16394000","wikiDataId":"Q37956000"},{"id":102256,"Name":"Verkhniy Mamon","state_id":1906,"state_code":"VOR","state_name":"Voronezh Oblast","country_id":182,"country_code":"RU","country_name":"Russia","latitude":"50.16350000","longitude":"40.38320000","wikiDataId":"Q37955459"},{"id":102267,"Name":"Verkhnyaya Khava","state_id":1906,"state_code":"VOR","state_name":"Voronezh Oblast","country_id":182,"country_code":"RU","country_name":"Russia","latitude":"51.84045000","longitude":"39.94134000","wikiDataId":"Q37955440"},{"id":102273,"Name":"Verkhnyaya Tishanka","state_id":1906,"state_code":"VOR","state_name":"Voronezh Oblast","country_id":182,"country_code":"RU","country_name":"Russia","latitude":"51.32389000","longitude":"40.53278000","wikiDataId":"Q4108984"},{"id":102368,"Name":"Volya","state_id":1906,"state_code":"VOR","state_name":"Voronezh Oblast","country_id":182,"country_code":"RU","country_name":"Russia","latitude":"51.76510000","longitude":"39.54040000","wikiDataId":"Q37955149"},{"id":102378,"Name":"Vorob’yevskiy Rayon","state_id":1906,"state_code":"VOR","state_name":"Voronezh Oblast","country_id":182,"country_code":"RU","country_name":"Russia","latitude":"50.65000000","longitude":"40.93333000","wikiDataId":"Q4016457"},{"id":102380,"Name":"Voronezh","state_id":1906,"state_code":"VOR","state_name":"Voronezh Oblast","country_id":182,"country_code":"RU","country_name":"Russia","latitude":"51.67204000","longitude":"39.18430000","wikiDataId":"Q3426"},{"id":102381,"Name":"Vorontsovka","state_id":1906,"state_code":"VOR","state_name":"Voronezh Oblast","country_id":182,"country_code":"RU","country_name":"Russia","latitude":"50.61320000","longitude":"40.35490000","wikiDataId":"Q37955112"},{"id":102535,"Name":"Yelan’-Koleno","state_id":1906,"state_code":"VOR","state_name":"Voronezh Oblast","country_id":182,"country_code":"RU","country_name":"Russia","latitude":"51.15230000","longitude":"41.23060000","wikiDataId":"Q37963083"},{"id":102536,"Name":"Yelan’-Kolenovskiy","state_id":1906,"state_code":"VOR","state_name":"Voronezh Oblast","country_id":182,"country_code":"RU","country_name":"Russia","latitude":"51.16320000","longitude":"41.15100000","wikiDataId":"Q37963083"},{"id":102625,"Name":"Zabolotovka","state_id":1906,"state_code":"VOR","state_name":"Voronezh Oblast","country_id":182,"country_code":"RU","country_name":"Russia","latitude":"50.27799000","longitude":"39.31439000","wikiDataId":"Q33523913"},{"id":102705,"Name":"Zemlyansk","state_id":1906,"state_code":"VOR","state_name":"Voronezh Oblast","country_id":182,"country_code":"RU","country_name":"Russia","latitude":"51.90410000","longitude":"38.73340000","wikiDataId":"Q2269363"}]