[{"id":111039,"Name":"Addison","state_id":1409,"state_code":"VT","state_name":"Vermont","country_id":233,"country_code":"US","country_name":"United States","latitude":"44.08867000","longitude":"-73.30262000","wikiDataId":"Q353095"},{"id":111040,"Name":"Addison County","state_id":1409,"state_code":"VT","state_name":"Vermont","country_id":233,"country_code":"US","country_name":"United States","latitude":"44.03091000","longitude":"-73.14094000","wikiDataId":"Q353108"},{"id":111469,"Name":"Arlington","state_id":1409,"state_code":"VT","state_name":"Vermont","country_id":233,"country_code":"US","country_name":"United States","latitude":"43.07480000","longitude":"-73.15400000","wikiDataId":"Q675558"},{"id":111842,"Name":"Barre","state_id":1409,"state_code":"VT","state_name":"Vermont","country_id":233,"country_code":"US","country_name":"United States","latitude":"44.19701000","longitude":"-72.50205000","wikiDataId":"Q808841"},{"id":112124,"Name":"Bellows Falls","state_id":1409,"state_code":"VT","state_name":"Vermont","country_id":233,"country_code":"US","country_name":"United States","latitude":"43.13341000","longitude":"-72.44398000","wikiDataId":"Q816044"},{"id":112177,"Name":"Bennington","state_id":1409,"state_code":"VT","state_name":"Vermont","country_id":233,"country_code":"US","country_name":"United States","latitude":"42.87813000","longitude":"-73.19677000","wikiDataId":"Q817921"},{"id":112178,"Name":"Bennington County","state_id":1409,"state_code":"VT","state_name":"Vermont","country_id":233,"country_code":"US","country_name":"United States","latitude":"43.03546000","longitude":"-73.09295000","wikiDataId":"Q511647"},{"id":112690,"Name":"Brandon","state_id":1409,"state_code":"VT","state_name":"Vermont","country_id":233,"country_code":"US","country_name":"United States","latitude":"43.79812000","longitude":"-73.08761000","wikiDataId":"Q14711902"},{"id":112699,"Name":"Brattleboro","state_id":1409,"state_code":"VT","state_name":"Vermont","country_id":233,"country_code":"US","country_name":"United States","latitude":"42.85092000","longitude":"-72.55787000","wikiDataId":"Q899813"},{"id":112780,"Name":"Bridport","state_id":1409,"state_code":"VT","state_name":"Vermont","country_id":233,"country_code":"US","country_name":"United States","latitude":"43.98506000","longitude":"-73.31262000","wikiDataId":"Q1870856"},{"id":112810,"Name":"Bristol","state_id":1409,"state_code":"VT","state_name":"Vermont","country_id":233,"country_code":"US","country_name":"United States","latitude":"44.13339000","longitude":"-73.07901000","wikiDataId":"Q1871330"},{"id":113072,"Name":"Burlington","state_id":1409,"state_code":"VT","state_name":"Vermont","country_id":233,"country_code":"US","country_name":"United States","latitude":"44.47588000","longitude":"-73.21207000","wikiDataId":"Q31058"},{"id":113193,"Name":"Caledonia County","state_id":1409,"state_code":"VT","state_name":"Vermont","country_id":233,"country_code":"US","country_name":"United States","latitude":"44.46472000","longitude":"-72.10219000","wikiDataId":"Q515205"},{"id":113552,"Name":"Castleton","state_id":1409,"state_code":"VT","state_name":"Vermont","country_id":233,"country_code":"US","country_name":"United States","latitude":"43.61062000","longitude":"-73.17983000","wikiDataId":"Q1049714"},{"id":113780,"Name":"Charlotte","state_id":1409,"state_code":"VT","state_name":"Vermont","country_id":233,"country_code":"US","country_name":"United States","latitude":"44.30977000","longitude":"-73.26096000","wikiDataId":"Q1957159"},{"id":113835,"Name":"Chelsea","state_id":1409,"state_code":"VT","state_name":"Vermont","country_id":233,"country_code":"US","country_name":"United States","latitude":"43.98979000","longitude":"-72.44760000","wikiDataId":"Q1025389"},{"id":113891,"Name":"Chester","state_id":1409,"state_code":"VT","state_name":"Vermont","country_id":233,"country_code":"US","country_name":"United States","latitude":"43.26285000","longitude":"-72.59509000","wikiDataId":"Q3474976"},{"id":113982,"Name":"Chittenden","state_id":1409,"state_code":"VT","state_name":"Vermont","country_id":233,"country_code":"US","country_name":"United States","latitude":"43.70784000","longitude":"-72.94816000","wikiDataId":"Q2972399"},{"id":113983,"Name":"Chittenden County","state_id":1409,"state_code":"VT","state_name":"Vermont","country_id":233,"country_code":"US","country_name":"United States","latitude":"44.46098000","longitude":"-73.08092000","wikiDataId":"Q509770"},{"id":114111,"Name":"Clarendon","state_id":1409,"state_code":"VT","state_name":"Vermont","country_id":233,"country_code":"US","country_name":"United States","latitude":"43.51618000","longitude":"-72.96983000","wikiDataId":"Q2972468"},{"id":114384,"Name":"Colchester","state_id":1409,"state_code":"VT","state_name":"Vermont","country_id":233,"country_code":"US","country_name":"United States","latitude":"44.54394000","longitude":"-73.14791000","wikiDataId":"Q978718"},{"id":115017,"Name":"Danby","state_id":1409,"state_code":"VT","state_name":"Vermont","country_id":233,"country_code":"US","country_name":"United States","latitude":"43.34618000","longitude":"-72.99538000","wikiDataId":"Q1159292"},{"id":115452,"Name":"Dover","state_id":1409,"state_code":"VT","state_name":"Vermont","country_id":233,"country_code":"US","country_name":"United States","latitude":"42.94369000","longitude":"-72.80399000","wikiDataId":"Q1252918"},{"id":116146,"Name":"Enosburg Falls","state_id":1409,"state_code":"VT","state_name":"Vermont","country_id":233,"country_code":"US","country_name":"United States","latitude":"44.90699000","longitude":"-72.80652000","wikiDataId":"Q3054523"},{"id":116197,"Name":"Essex County","state_id":1409,"state_code":"VT","state_name":"Vermont","country_id":233,"country_code":"US","country_name":"United States","latitude":"44.72779000","longitude":"-71.73605000","wikiDataId":"Q509826"},{"id":116199,"Name":"Essex Junction","state_id":1409,"state_code":"VT","state_name":"Vermont","country_id":233,"country_code":"US","country_name":"United States","latitude":"44.49061000","longitude":"-73.11096000","wikiDataId":"Q648356"},{"id":116283,"Name":"Fair Haven","state_id":1409,"state_code":"VT","state_name":"Vermont","country_id":233,"country_code":"US","country_name":"United States","latitude":"43.59479000","longitude":"-73.26567000","wikiDataId":"Q515582"},{"id":116495,"Name":"Ferrisburgh","state_id":1409,"state_code":"VT","state_name":"Vermont","country_id":233,"country_code":"US","country_name":"United States","latitude":"44.20561000","longitude":"-73.24623000","wikiDataId":"Q1874592"},{"id":116863,"Name":"Franklin County","state_id":1409,"state_code":"VT","state_name":"Vermont","country_id":233,"country_code":"US","country_name":"United States","latitude":"44.85748000","longitude":"-72.91200000","wikiDataId":"Q509880"},{"id":117464,"Name":"Grand Isle County","state_id":1409,"state_code":"VT","state_name":"Vermont","country_id":233,"country_code":"US","country_name":"United States","latitude":"44.79683000","longitude":"-73.29483000","wikiDataId":"Q1124720"},{"id":117783,"Name":"Guildhall","state_id":1409,"state_code":"VT","state_name":"Vermont","country_id":233,"country_code":"US","country_name":"United States","latitude":"44.56506000","longitude":"-71.55981000","wikiDataId":"Q1978874"},{"id":118010,"Name":"Hardwick","state_id":1409,"state_code":"VT","state_name":"Vermont","country_id":233,"country_code":"US","country_name":"United States","latitude":"44.50478000","longitude":"-72.36816000","wikiDataId":"Q1398082"},{"id":118092,"Name":"Hartford","state_id":1409,"state_code":"VT","state_name":"Vermont","country_id":233,"country_code":"US","country_name":"United States","latitude":"43.66063000","longitude":"-72.33842000","wikiDataId":"Q1587168"},{"id":118481,"Name":"Hinesburg","state_id":1409,"state_code":"VT","state_name":"Vermont","country_id":233,"country_code":"US","country_name":"United States","latitude":"44.32922000","longitude":"-73.11068000","wikiDataId":"Q1619395"},{"id":118852,"Name":"Hyde Park","state_id":1409,"state_code":"VT","state_name":"Vermont","country_id":233,"country_code":"US","country_name":"United States","latitude":"44.59394000","longitude":"-72.61651000","wikiDataId":"Q2051042"},{"id":119112,"Name":"Jamaica","state_id":1409,"state_code":"VT","state_name":"Vermont","country_id":233,"country_code":"US","country_name":"United States","latitude":"43.10036000","longitude":"-72.77843000","wikiDataId":"Q3450853"},{"id":119225,"Name":"Jericho","state_id":1409,"state_code":"VT","state_name":"Vermont","country_id":233,"country_code":"US","country_name":"United States","latitude":"44.50394000","longitude":"-72.99763000","wikiDataId":"Q1016601"},{"id":119255,"Name":"Johnson","state_id":1409,"state_code":"VT","state_name":"Vermont","country_id":233,"country_code":"US","country_name":"United States","latitude":"44.63561000","longitude":"-72.68040000","wikiDataId":"Q2057226"},{"id":120072,"Name":"Lamoille County","state_id":1409,"state_code":"VT","state_name":"Vermont","country_id":233,"country_code":"US","country_name":"United States","latitude":"44.60576000","longitude":"-72.64145000","wikiDataId":"Q505405"},{"id":120338,"Name":"Leicester","state_id":1409,"state_code":"VT","state_name":"Vermont","country_id":233,"country_code":"US","country_name":"United States","latitude":"43.86673000","longitude":"-73.10789000","wikiDataId":"Q1877569"},{"id":120508,"Name":"Lincoln","state_id":1409,"state_code":"VT","state_name":"Vermont","country_id":233,"country_code":"US","country_name":"United States","latitude":"44.10589000","longitude":"-72.99706000","wikiDataId":"Q1892234"},{"id":120724,"Name":"Londonderry","state_id":1409,"state_code":"VT","state_name":"Vermont","country_id":233,"country_code":"US","country_name":"United States","latitude":"43.22646000","longitude":"-72.80649000","wikiDataId":"Q3709175"},{"id":120888,"Name":"Lunenburg","state_id":1409,"state_code":"VT","state_name":"Vermont","country_id":233,"country_code":"US","country_name":"United States","latitude":"44.46311000","longitude":"-71.68203000","wikiDataId":"Q1987253"},{"id":120924,"Name":"Lyndon","state_id":1409,"state_code":"VT","state_name":"Vermont","country_id":233,"country_code":"US","country_name":"United States","latitude":"44.51422000","longitude":"-72.01093000","wikiDataId":"Q1388877"},{"id":120925,"Name":"Lyndonville","state_id":1409,"state_code":"VT","state_name":"Vermont","country_id":233,"country_code":"US","country_name":"United States","latitude":"44.53367000","longitude":"-72.00315000","wikiDataId":"Q6708760"},{"id":121103,"Name":"Manchester Center","state_id":1409,"state_code":"VT","state_name":"Vermont","country_id":233,"country_code":"US","country_name":"United States","latitude":"43.17702000","longitude":"-73.05705000","wikiDataId":"Q6747299"},{"id":121654,"Name":"Mendon","state_id":1409,"state_code":"VT","state_name":"Vermont","country_id":233,"country_code":"US","country_name":"United States","latitude":"43.65198000","longitude":"-72.92780000","wikiDataId":"Q265798"},{"id":121773,"Name":"Middlebury (village)","state_id":1409,"state_code":"VT","state_name":"Vermont","country_id":233,"country_code":"US","country_name":"United States","latitude":"44.01553000","longitude":"-73.16937000","wikiDataId":"Q1012392"},{"id":121919,"Name":"Milton","state_id":1409,"state_code":"VT","state_name":"Vermont","country_id":233,"country_code":"US","country_name":"United States","latitude":"44.63977000","longitude":"-73.11041000","wikiDataId":"Q1789757"},{"id":122137,"Name":"Montgomery","state_id":1409,"state_code":"VT","state_name":"Vermont","country_id":233,"country_code":"US","country_name":"United States","latitude":"44.90255000","longitude":"-72.63818000","wikiDataId":"Q1946270"},{"id":122177,"Name":"Montpelier","state_id":1409,"state_code":"VT","state_name":"Vermont","country_id":233,"country_code":"US","country_name":"United States","latitude":"44.26006000","longitude":"-72.57539000","wikiDataId":"Q26426"},{"id":122232,"Name":"Moretown","state_id":1409,"state_code":"VT","state_name":"Vermont","country_id":233,"country_code":"US","country_name":"United States","latitude":"44.25089000","longitude":"-72.76095000","wikiDataId":"Q3475608"},{"id":122283,"Name":"Morristown","state_id":1409,"state_code":"VT","state_name":"Vermont","country_id":233,"country_code":"US","country_name":"United States","latitude":"44.55727000","longitude":"-72.62373000","wikiDataId":"Q1948575"},{"id":122287,"Name":"Morrisville","state_id":1409,"state_code":"VT","state_name":"Vermont","country_id":233,"country_code":"US","country_name":"United States","latitude":"44.56172000","longitude":"-72.59845000","wikiDataId":"Q285464"},{"id":122350,"Name":"Mount Holly","state_id":1409,"state_code":"VT","state_name":"Vermont","country_id":233,"country_code":"US","country_name":"United States","latitude":"43.45229000","longitude":"-72.82482000","wikiDataId":"Q3451033"},{"id":122827,"Name":"Newfane","state_id":1409,"state_code":"VT","state_name":"Vermont","country_id":233,"country_code":"US","country_name":"United States","latitude":"42.98564000","longitude":"-72.65593000","wikiDataId":"Q127187"},{"id":122850,"Name":"Newport","state_id":1409,"state_code":"VT","state_name":"Vermont","country_id":233,"country_code":"US","country_name":"United States","latitude":"44.93644000","longitude":"-72.20510000","wikiDataId":"Q1012011"},{"id":122986,"Name":"North Bennington","state_id":1409,"state_code":"VT","state_name":"Vermont","country_id":233,"country_code":"US","country_name":"United States","latitude":"42.93036000","longitude":"-73.24261000","wikiDataId":"Q7054162"},{"id":123038,"Name":"North Hero","state_id":1409,"state_code":"VT","state_name":"Vermont","country_id":233,"country_code":"US","country_name":"United States","latitude":"44.83125000","longitude":"-73.27323000","wikiDataId":"Q754769"},{"id":123154,"Name":"Northfield","state_id":1409,"state_code":"VT","state_name":"Vermont","country_id":233,"country_code":"US","country_name":"United States","latitude":"44.15117000","longitude":"-72.65650000","wikiDataId":"Q1406285"},{"id":123520,"Name":"Orange County","state_id":1409,"state_code":"VT","state_name":"Vermont","country_id":233,"country_code":"US","country_name":"United States","latitude":"44.00560000","longitude":"-72.37661000","wikiDataId":"Q505444"},{"id":123566,"Name":"Orleans County","state_id":1409,"state_code":"VT","state_name":"Vermont","country_id":233,"country_code":"US","country_name":"United States","latitude":"44.82881000","longitude":"-72.24381000","wikiDataId":"Q513758"},{"id":123931,"Name":"Pawlet","state_id":1409,"state_code":"VT","state_name":"Vermont","country_id":233,"country_code":"US","country_name":"United States","latitude":"43.34674000","longitude":"-73.17622000","wikiDataId":"Q3447840"},{"id":124604,"Name":"Poultney","state_id":1409,"state_code":"VT","state_name":"Vermont","country_id":233,"country_code":"US","country_name":"United States","latitude":"43.51701000","longitude":"-73.23622000","wikiDataId":"Q11700187"},{"id":124619,"Name":"Pownal","state_id":1409,"state_code":"VT","state_name":"Vermont","country_id":233,"country_code":"US","country_name":"United States","latitude":"42.76564000","longitude":"-73.23594000","wikiDataId":"Q1940266"},{"id":124868,"Name":"Randolph","state_id":1409,"state_code":"VT","state_name":"Vermont","country_id":233,"country_code":"US","country_name":"United States","latitude":"43.92507000","longitude":"-72.66594000","wikiDataId":"Q1441076"},{"id":125065,"Name":"Richford","state_id":1409,"state_code":"VT","state_name":"Vermont","country_id":233,"country_code":"US","country_name":"United States","latitude":"44.99699000","longitude":"-72.67124000","wikiDataId":"Q2151175"},{"id":125304,"Name":"Rockingham","state_id":1409,"state_code":"VT","state_name":"Vermont","country_id":233,"country_code":"US","country_name":"United States","latitude":"43.18758000","longitude":"-72.48898000","wikiDataId":"Q1621936"},{"id":125557,"Name":"Rutland","state_id":1409,"state_code":"VT","state_name":"Vermont","country_id":233,"country_code":"US","country_name":"United States","latitude":"43.61062000","longitude":"-72.97261000","wikiDataId":"Q25893"},{"id":125558,"Name":"Rutland County","state_id":1409,"state_code":"VT","state_name":"Vermont","country_id":233,"country_code":"US","country_name":"United States","latitude":"43.58009000","longitude":"-73.03661000","wikiDataId":"Q513878"},{"id":125596,"Name":"Saint Albans","state_id":1409,"state_code":"VT","state_name":"Vermont","country_id":233,"country_code":"US","country_name":"United States","latitude":"44.81088000","longitude":"-73.08319000","wikiDataId":"Q968060"},{"id":125668,"Name":"Saint Johnsbury","state_id":1409,"state_code":"VT","state_name":"Vermont","country_id":233,"country_code":"US","country_name":"United States","latitude":"44.41922000","longitude":"-72.01509000","wikiDataId":"Q1014607"},{"id":125760,"Name":"Salisbury","state_id":1409,"state_code":"VT","state_name":"Vermont","country_id":233,"country_code":"US","country_name":"United States","latitude":"43.89645000","longitude":"-73.09984000","wikiDataId":"Q1896512"},{"id":126616,"Name":"South Barre","state_id":1409,"state_code":"VT","state_name":"Vermont","country_id":233,"country_code":"US","country_name":"United States","latitude":"44.17701000","longitude":"-72.50566000","wikiDataId":"Q2416180"},{"id":126634,"Name":"South Burlington","state_id":1409,"state_code":"VT","state_name":"Vermont","country_id":233,"country_code":"US","country_name":"United States","latitude":"44.46699000","longitude":"-73.17096000","wikiDataId":"Q26065"},{"id":126904,"Name":"Springfield","state_id":1409,"state_code":"VT","state_name":"Vermont","country_id":233,"country_code":"US","country_name":"United States","latitude":"43.29841000","longitude":"-72.48231000","wikiDataId":"Q40212"},{"id":126925,"Name":"St Johnsbury","state_id":1409,"state_code":"VT","state_name":"Vermont","country_id":233,"country_code":"US","country_name":"United States","latitude":"44.42526000","longitude":"-72.01512000","wikiDataId":"Q2141628"},{"id":126988,"Name":"Starksboro","state_id":1409,"state_code":"VT","state_name":"Vermont","country_id":233,"country_code":"US","country_name":"United States","latitude":"44.22728000","longitude":"-73.05734000","wikiDataId":"Q1897250"},{"id":127114,"Name":"Stowe","state_id":1409,"state_code":"VT","state_name":"Vermont","country_id":233,"country_code":"US","country_name":"United States","latitude":"44.46533000","longitude":"-72.68456000","wikiDataId":"Q550498"},{"id":127327,"Name":"Swanton","state_id":1409,"state_code":"VT","state_name":"Vermont","country_id":233,"country_code":"US","country_name":"United States","latitude":"44.91810000","longitude":"-73.12430000","wikiDataId":"Q2047233"},{"id":127767,"Name":"Townshend","state_id":1409,"state_code":"VT","state_name":"Vermont","country_id":233,"country_code":"US","country_name":"United States","latitude":"43.04730000","longitude":"-72.66759000","wikiDataId":"Q516557"},{"id":128182,"Name":"Vergennes","state_id":1409,"state_code":"VT","state_name":"Vermont","country_id":233,"country_code":"US","country_name":"United States","latitude":"44.16728000","longitude":"-73.25401000","wikiDataId":"Q1004225"},{"id":128550,"Name":"Washington","state_id":1409,"state_code":"VT","state_name":"Vermont","country_id":233,"country_code":"US","country_name":"United States","latitude":"44.10562000","longitude":"-72.43260000","wikiDataId":"Q2349496"},{"id":128575,"Name":"Washington County","state_id":1409,"state_code":"VT","state_name":"Vermont","country_id":233,"country_code":"US","country_name":"United States","latitude":"44.27342000","longitude":"-72.61490000","wikiDataId":"Q505380"},{"id":128603,"Name":"Waterbury","state_id":1409,"state_code":"VT","state_name":"Vermont","country_id":233,"country_code":"US","country_name":"United States","latitude":"44.33783000","longitude":"-72.75623000","wikiDataId":"Q1374855"},{"id":128834,"Name":"West Brattleboro","state_id":1409,"state_code":"VT","state_name":"Vermont","country_id":233,"country_code":"US","country_name":"United States","latitude":"42.85592000","longitude":"-72.60315000","wikiDataId":"Q2885974"},{"id":128970,"Name":"West Rutland","state_id":1409,"state_code":"VT","state_name":"Vermont","country_id":233,"country_code":"US","country_name":"United States","latitude":"43.59312000","longitude":"-73.04511000","wikiDataId":"Q2747123"},{"id":129157,"Name":"White River Junction","state_id":1409,"state_code":"VT","state_name":"Vermont","country_id":233,"country_code":"US","country_name":"United States","latitude":"43.64896000","longitude":"-72.31926000","wikiDataId":"Q1898562"},{"id":129232,"Name":"Wilder","state_id":1409,"state_code":"VT","state_name":"Vermont","country_id":233,"country_code":"US","country_name":"United States","latitude":"43.67285000","longitude":"-72.30870000","wikiDataId":"Q3460039"},{"id":129289,"Name":"Williamstown","state_id":1409,"state_code":"VT","state_name":"Vermont","country_id":233,"country_code":"US","country_name":"United States","latitude":"44.12173000","longitude":"-72.54149000","wikiDataId":"Q2350079"},{"id":129298,"Name":"Williston","state_id":1409,"state_code":"VT","state_name":"Vermont","country_id":233,"country_code":"US","country_name":"United States","latitude":"44.43755000","longitude":"-73.06818000","wikiDataId":"Q1819030"},{"id":129374,"Name":"Windham County","state_id":1409,"state_code":"VT","state_name":"Vermont","country_id":233,"country_code":"US","country_name":"United States","latitude":"42.99059000","longitude":"-72.71384000","wikiDataId":"Q17174784"},{"id":129384,"Name":"Windsor","state_id":1409,"state_code":"VT","state_name":"Vermont","country_id":233,"country_code":"US","country_name":"United States","latitude":"43.48035000","longitude":"-72.38481000","wikiDataId":"Q1939361"},{"id":129388,"Name":"Windsor County","state_id":1409,"state_code":"VT","state_name":"Vermont","country_id":233,"country_code":"US","country_name":"United States","latitude":"43.58000000","longitude":"-72.58624000","wikiDataId":"Q513994"},{"id":129427,"Name":"Winooski","state_id":1409,"state_code":"VT","state_name":"Vermont","country_id":233,"country_code":"US","country_name":"United States","latitude":"44.49144000","longitude":"-73.18568000","wikiDataId":"Q993232"},{"id":129566,"Name":"Woodstock","state_id":1409,"state_code":"VT","state_name":"Vermont","country_id":233,"country_code":"US","country_name":"United States","latitude":"43.62424000","longitude":"-72.51843000","wikiDataId":"Q1012397"}]