[{"id":110883,"Name":"Bundibugyo","state_id":370,"state_code":"W","state_name":"Western Region","country_id":229,"country_code":"UG","country_name":"Uganda","latitude":"0.71117000","longitude":"30.06469000","wikiDataId":"Q2597300"},{"id":110889,"Name":"Bwizibwera","state_id":370,"state_code":"W","state_name":"Western Region","country_id":229,"country_code":"UG","country_name":"Uganda","latitude":"-0.59167000","longitude":"30.62861000","wikiDataId":"Q5003690"},{"id":110892,"Name":"Fort Portal","state_id":370,"state_code":"W","state_name":"Western Region","country_id":229,"country_code":"UG","country_name":"Uganda","latitude":"0.66174000","longitude":"30.27480000","wikiDataId":"Q500107"},{"id":110895,"Name":"Hoima","state_id":370,"state_code":"W","state_name":"Western Region","country_id":229,"country_code":"UG","country_name":"Uganda","latitude":"1.43314000","longitude":"31.35241000","wikiDataId":"Q1624192"},{"id":110896,"Name":"Ibanda","state_id":370,"state_code":"W","state_name":"Western Region","country_id":229,"country_code":"UG","country_name":"Uganda","latitude":"-0.13398000","longitude":"30.49616000","wikiDataId":"Q3459039"},{"id":110897,"Name":"Ibanda District","state_id":370,"state_code":"W","state_name":"Western Region","country_id":229,"country_code":"UG","country_name":"Uganda","latitude":"-0.08100000","longitude":"30.55600000","wikiDataId":"Q1318877"},{"id":110900,"Name":"Kabale","state_id":370,"state_code":"W","state_name":"Western Region","country_id":229,"country_code":"UG","country_name":"Uganda","latitude":"-1.24857000","longitude":"29.98993000","wikiDataId":"Q588930"},{"id":110901,"Name":"Kagadi","state_id":370,"state_code":"W","state_name":"Western Region","country_id":229,"country_code":"UG","country_name":"Uganda","latitude":"0.93778000","longitude":"30.80889000","wikiDataId":"Q6346322"},{"id":110906,"Name":"Kamwenge","state_id":370,"state_code":"W","state_name":"Western Region","country_id":229,"country_code":"UG","country_name":"Uganda","latitude":"0.18660000","longitude":"30.45393000","wikiDataId":"Q2431771"},{"id":110908,"Name":"Kanungu","state_id":370,"state_code":"W","state_name":"Western Region","country_id":229,"country_code":"UG","country_name":"Uganda","latitude":"-0.95750000","longitude":"29.78972000","wikiDataId":"Q2470025"},{"id":110910,"Name":"Kasese","state_id":370,"state_code":"W","state_name":"Western Region","country_id":229,"country_code":"UG","country_name":"Uganda","latitude":"0.18333000","longitude":"30.08333000","wikiDataId":"Q1232016"},{"id":110912,"Name":"Kibale","state_id":370,"state_code":"W","state_name":"Western Region","country_id":229,"country_code":"UG","country_name":"Uganda","latitude":"0.80000000","longitude":"31.06667000","wikiDataId":"Q995221"},{"id":110915,"Name":"Kigorobya","state_id":370,"state_code":"W","state_name":"Western Region","country_id":229,"country_code":"UG","country_name":"Uganda","latitude":"1.61620000","longitude":"31.30890000","wikiDataId":"Q1114885"},{"id":110916,"Name":"Kilembe","state_id":370,"state_code":"W","state_name":"Western Region","country_id":229,"country_code":"UG","country_name":"Uganda","latitude":"0.19835000","longitude":"30.01302000","wikiDataId":"Q1114885"},{"id":110918,"Name":"Kiruhura","state_id":370,"state_code":"W","state_name":"Western Region","country_id":229,"country_code":"UG","country_name":"Uganda","latitude":"-0.19664000","longitude":"30.84446000","wikiDataId":"Q6415051"},{"id":110919,"Name":"Kisoro","state_id":370,"state_code":"W","state_name":"Western Region","country_id":229,"country_code":"UG","country_name":"Uganda","latitude":"-1.28538000","longitude":"29.68497000","wikiDataId":"Q525954"},{"id":110923,"Name":"Kyenjojo","state_id":370,"state_code":"W","state_name":"Western Region","country_id":229,"country_code":"UG","country_name":"Uganda","latitude":"0.63278000","longitude":"30.62139000","wikiDataId":"Q5368395"},{"id":110929,"Name":"Margherita","state_id":370,"state_code":"W","state_name":"Western Region","country_id":229,"country_code":"UG","country_name":"Uganda","latitude":"0.41861000","longitude":"29.89111000","wikiDataId":"Q6699738"},{"id":110931,"Name":"Masindi","state_id":370,"state_code":"W","state_name":"Western Region","country_id":229,"country_code":"UG","country_name":"Uganda","latitude":"1.67444000","longitude":"31.71500000","wikiDataId":"Q1907120"},{"id":110932,"Name":"Masindi Port","state_id":370,"state_code":"W","state_name":"Western Region","country_id":229,"country_code":"UG","country_name":"Uganda","latitude":"1.69606000","longitude":"32.08608000","wikiDataId":"Q6783287"},{"id":110935,"Name":"Mbarara","state_id":370,"state_code":"W","state_name":"Western Region","country_id":229,"country_code":"UG","country_name":"Uganda","latitude":"-0.60467000","longitude":"30.64851000","wikiDataId":"Q731039"},{"id":110942,"Name":"Muhororo","state_id":370,"state_code":"W","state_name":"Western Region","country_id":229,"country_code":"UG","country_name":"Uganda","latitude":"0.93806000","longitude":"30.75944000","wikiDataId":"Q891962"},{"id":110948,"Name":"Ntungamo","state_id":370,"state_code":"W","state_name":"Western Region","country_id":229,"country_code":"UG","country_name":"Uganda","latitude":"-0.87944000","longitude":"30.26417000","wikiDataId":"Q938145"},{"id":110949,"Name":"Nyachera","state_id":370,"state_code":"W","state_name":"Western Region","country_id":229,"country_code":"UG","country_name":"Uganda","latitude":"-0.90000000","longitude":"30.41667000","wikiDataId":"Q938145"},{"id":110956,"Name":"Rukungiri","state_id":370,"state_code":"W","state_name":"Western Region","country_id":229,"country_code":"UG","country_name":"Uganda","latitude":"-0.84111000","longitude":"29.94194000","wikiDataId":"Q6700211"}]