[{"id":131016,"Name":"Albertina","state_id":939,"state_code":"WC","state_name":"Western Cape","country_id":204,"country_code":"ZA","country_name":"South Africa","latitude":"-34.20544000","longitude":"21.58001000","wikiDataId":"Q2549949"},{"id":131024,"Name":"Arniston","state_id":939,"state_code":"WC","state_name":"Western Cape","country_id":204,"country_code":"ZA","country_name":"South Africa","latitude":"-34.66739000","longitude":"20.23086000","wikiDataId":"Q694016"},{"id":131025,"Name":"Atlantis","state_id":939,"state_code":"WC","state_name":"Western Cape","country_id":204,"country_code":"ZA","country_name":"South Africa","latitude":"-33.56668000","longitude":"18.48335000","wikiDataId":"Q3493630"},{"id":131030,"Name":"Beaufort West","state_id":939,"state_code":"WC","state_name":"Western Cape","country_id":204,"country_code":"ZA","country_name":"South Africa","latitude":"-32.35671000","longitude":"22.58295000","wikiDataId":"Q813395"},{"id":131034,"Name":"Bergvliet","state_id":939,"state_code":"WC","state_name":"Western Cape","country_id":204,"country_code":"ZA","country_name":"South Africa","latitude":"-34.04746000","longitude":"18.45250000","wikiDataId":"Q2897143"},{"id":131048,"Name":"Bredasdorp","state_id":939,"state_code":"WC","state_name":"Western Cape","country_id":204,"country_code":"ZA","country_name":"South Africa","latitude":"-34.53215000","longitude":"20.04031000","wikiDataId":"Q1640898"},{"id":131056,"Name":"Caledon","state_id":939,"state_code":"WC","state_name":"Western Cape","country_id":204,"country_code":"ZA","country_name":"South Africa","latitude":"-34.22997000","longitude":"19.42650000","wikiDataId":"Q777884"},{"id":131057,"Name":"Calitzdorp","state_id":939,"state_code":"WC","state_name":"Western Cape","country_id":204,"country_code":"ZA","country_name":"South Africa","latitude":"-33.52755000","longitude":"21.67620000","wikiDataId":"Q1027048"},{"id":131059,"Name":"Cape Town","state_id":939,"state_code":"WC","state_name":"Western Cape","country_id":204,"country_code":"ZA","country_name":"South Africa","latitude":"-33.92584000","longitude":"18.42322000","wikiDataId":"Q5465"},{"id":131060,"Name":"Cape Winelands District Municipality","state_id":939,"state_code":"WC","state_name":"Western Cape","country_id":204,"country_code":"ZA","country_name":"South Africa","latitude":"-33.32249000","longitude":"19.68998000","wikiDataId":"Q1974486"},{"id":131065,"Name":"Central Karoo District Municipality","state_id":939,"state_code":"WC","state_name":"Western Cape","country_id":204,"country_code":"ZA","country_name":"South Africa","latitude":"-32.62812000","longitude":"22.21192000","wikiDataId":"Q1053888"},{"id":131067,"Name":"Ceres","state_id":939,"state_code":"WC","state_name":"Western Cape","country_id":204,"country_code":"ZA","country_name":"South Africa","latitude":"-33.36889000","longitude":"19.31095000","wikiDataId":"Q2038408"},{"id":131070,"Name":"City of Cape Town","state_id":939,"state_code":"WC","state_name":"Western Cape","country_id":204,"country_code":"ZA","country_name":"South Africa","latitude":"-33.91667000","longitude":"18.41667000","wikiDataId":"Q1185115"},{"id":131073,"Name":"Clanwilliam","state_id":939,"state_code":"WC","state_name":"Western Cape","country_id":204,"country_code":"ZA","country_name":"South Africa","latitude":"-32.18173000","longitude":"18.89217000","wikiDataId":"Q1025657"},{"id":131074,"Name":"Claremont","state_id":939,"state_code":"WC","state_name":"Western Cape","country_id":204,"country_code":"ZA","country_name":"South Africa","latitude":"-33.98056000","longitude":"18.46528000","wikiDataId":"Q2975541"},{"id":131077,"Name":"Constantia","state_id":939,"state_code":"WC","state_name":"Western Cape","country_id":204,"country_code":"ZA","country_name":"South Africa","latitude":"-34.03139000","longitude":"18.41833000","wikiDataId":"Q1127739"},{"id":131082,"Name":"De Rust","state_id":939,"state_code":"WC","state_name":"Western Cape","country_id":204,"country_code":"ZA","country_name":"South Africa","latitude":"-33.49035000","longitude":"22.53523000","wikiDataId":"Q1021906"},{"id":131095,"Name":"Eden District Municipality","state_id":939,"state_code":"WC","state_name":"Western Cape","country_id":204,"country_code":"ZA","country_name":"South Africa","latitude":"-33.82139000","longitude":"22.01263000","wikiDataId":"Q220249"},{"id":131115,"Name":"George","state_id":939,"state_code":"WC","state_name":"Western Cape","country_id":204,"country_code":"ZA","country_name":"South Africa","latitude":"-33.96300000","longitude":"22.46173000","wikiDataId":"Q370456"},{"id":131120,"Name":"Grabouw","state_id":939,"state_code":"WC","state_name":"Western Cape","country_id":204,"country_code":"ZA","country_name":"South Africa","latitude":"-34.15152000","longitude":"19.01509000","wikiDataId":"Q1540958"},{"id":131123,"Name":"Hardys Memories of Africa","state_id":939,"state_code":"WC","state_name":"Western Cape","country_id":204,"country_code":"ZA","country_name":"South Africa","latitude":"-33.90539000","longitude":"20.71690000","wikiDataId":"Q1021891"},{"id":131129,"Name":"Hermanus","state_id":939,"state_code":"WC","state_name":"Western Cape","country_id":204,"country_code":"ZA","country_name":"South Africa","latitude":"-34.41870000","longitude":"19.23446000","wikiDataId":"Q1613480"},{"id":131143,"Name":"Knysna","state_id":939,"state_code":"WC","state_name":"Western Cape","country_id":204,"country_code":"ZA","country_name":"South Africa","latitude":"-34.03627000","longitude":"23.04713000","wikiDataId":"Q251137"},{"id":131148,"Name":"Kraaifontein","state_id":939,"state_code":"WC","state_name":"Western Cape","country_id":204,"country_code":"ZA","country_name":"South Africa","latitude":"-33.84808000","longitude":"18.71723000","wikiDataId":"Q5200520"},{"id":131156,"Name":"Ladismith","state_id":939,"state_code":"WC","state_name":"Western Cape","country_id":204,"country_code":"ZA","country_name":"South Africa","latitude":"-33.49331000","longitude":"21.26755000","wikiDataId":"Q1800028"},{"id":131159,"Name":"Lansdowne","state_id":939,"state_code":"WC","state_name":"Western Cape","country_id":204,"country_code":"ZA","country_name":"South Africa","latitude":"-33.98735000","longitude":"18.49746000","wikiDataId":"Q6487354"},{"id":131169,"Name":"Malmesbury","state_id":939,"state_code":"WC","state_name":"Western Cape","country_id":204,"country_code":"ZA","country_name":"South Africa","latitude":"-33.46080000","longitude":"18.72714000","wikiDataId":"Q3113320"},{"id":131184,"Name":"Montagu","state_id":939,"state_code":"WC","state_name":"Western Cape","country_id":204,"country_code":"ZA","country_name":"South Africa","latitude":"-33.78664000","longitude":"20.12106000","wikiDataId":"Q1800611"},{"id":131186,"Name":"Moorreesburg","state_id":939,"state_code":"WC","state_name":"Western Cape","country_id":204,"country_code":"ZA","country_name":"South Africa","latitude":"-33.15388000","longitude":"18.66031000","wikiDataId":"Q1003332"},{"id":131188,"Name":"Mossel Bay","state_id":939,"state_code":"WC","state_name":"Western Cape","country_id":204,"country_code":"ZA","country_name":"South Africa","latitude":"-34.18307000","longitude":"22.14605000","wikiDataId":"Q995615"},{"id":131200,"Name":"Newlands","state_id":939,"state_code":"WC","state_name":"Western Cape","country_id":204,"country_code":"ZA","country_name":"South Africa","latitude":"-33.97846000","longitude":"18.44810000","wikiDataId":"Q636253"},{"id":131210,"Name":"Oudtshoorn","state_id":939,"state_code":"WC","state_name":"Western Cape","country_id":204,"country_code":"ZA","country_name":"South Africa","latitude":"-33.60047000","longitude":"22.19955000","wikiDataId":"Q951049"},{"id":131211,"Name":"Overberg District Municipality","state_id":939,"state_code":"WC","state_name":"Western Cape","country_id":204,"country_code":"ZA","country_name":"South Africa","latitude":"-34.26131000","longitude":"19.93985000","wikiDataId":"Q1899307"},{"id":131212,"Name":"Paarl","state_id":939,"state_code":"WC","state_name":"Western Cape","country_id":204,"country_code":"ZA","country_name":"South Africa","latitude":"-33.73378000","longitude":"18.97523000","wikiDataId":"Q1018144"},{"id":131219,"Name":"Piketberg","state_id":939,"state_code":"WC","state_name":"Western Cape","country_id":204,"country_code":"ZA","country_name":"South Africa","latitude":"-32.90323000","longitude":"18.75704000","wikiDataId":"Q2006534"},{"id":131221,"Name":"Plettenberg Bay","state_id":939,"state_code":"WC","state_name":"Western Cape","country_id":204,"country_code":"ZA","country_name":"South Africa","latitude":"-34.05274000","longitude":"23.37160000","wikiDataId":"Q922360"},{"id":131232,"Name":"Prince Albert","state_id":939,"state_code":"WC","state_name":"Western Cape","country_id":204,"country_code":"ZA","country_name":"South Africa","latitude":"-33.22476000","longitude":"22.02673000","wikiDataId":"Q1533623"},{"id":131238,"Name":"Retreat","state_id":939,"state_code":"WC","state_name":"Western Cape","country_id":204,"country_code":"ZA","country_name":"South Africa","latitude":"-34.05515000","longitude":"18.47617000","wikiDataId":"Q7316910"},{"id":131242,"Name":"Riversdale","state_id":939,"state_code":"WC","state_name":"Western Cape","country_id":204,"country_code":"ZA","country_name":"South Africa","latitude":"-34.09345000","longitude":"21.25725000","wikiDataId":"Q2120963"},{"id":131243,"Name":"Robertson","state_id":939,"state_code":"WC","state_name":"Western Cape","country_id":204,"country_code":"ZA","country_name":"South Africa","latitude":"-33.80342000","longitude":"19.88537000","wikiDataId":"Q2096823"},{"id":131244,"Name":"Rondebosch","state_id":939,"state_code":"WC","state_name":"Western Cape","country_id":204,"country_code":"ZA","country_name":"South Africa","latitude":"-33.96333000","longitude":"18.47639000","wikiDataId":"Q3073398"},{"id":131246,"Name":"Rosebank","state_id":939,"state_code":"WC","state_name":"Western Cape","country_id":204,"country_code":"ZA","country_name":"South Africa","latitude":"-33.95556000","longitude":"18.47417000","wikiDataId":"Q7368057"},{"id":131248,"Name":"Saldanha","state_id":939,"state_code":"WC","state_name":"Western Cape","country_id":204,"country_code":"ZA","country_name":"South Africa","latitude":"-33.01167000","longitude":"17.94420000","wikiDataId":"Q1643816"},{"id":131264,"Name":"Stellenbosch","state_id":939,"state_code":"WC","state_name":"Western Cape","country_id":204,"country_code":"ZA","country_name":"South Africa","latitude":"-33.93462000","longitude":"18.86676000","wikiDataId":"Q5460"},{"id":131268,"Name":"Sunset Beach","state_id":939,"state_code":"WC","state_name":"Western Cape","country_id":204,"country_code":"ZA","country_name":"South Africa","latitude":"-33.85395000","longitude":"18.49231000","wikiDataId":"Q32025251"},{"id":131269,"Name":"Swellendam","state_id":939,"state_code":"WC","state_name":"Western Cape","country_id":204,"country_code":"ZA","country_name":"South Africa","latitude":"-34.02262000","longitude":"20.44171000","wikiDataId":"Q1023257"},{"id":131294,"Name":"Vredenburg","state_id":939,"state_code":"WC","state_name":"Western Cape","country_id":204,"country_code":"ZA","country_name":"South Africa","latitude":"-32.90719000","longitude":"17.98997000","wikiDataId":"Q2620432"},{"id":131295,"Name":"Vredendal","state_id":939,"state_code":"WC","state_name":"Western Cape","country_id":204,"country_code":"ZA","country_name":"South Africa","latitude":"-31.66833000","longitude":"18.50119000","wikiDataId":"Q1341350"},{"id":131302,"Name":"Wellington","state_id":939,"state_code":"WC","state_name":"Western Cape","country_id":204,"country_code":"ZA","country_name":"South Africa","latitude":"-33.63981000","longitude":"19.01120000","wikiDataId":"Q1534385"},{"id":131304,"Name":"West Coast District Municipality","state_id":939,"state_code":"WC","state_name":"Western Cape","country_id":204,"country_code":"ZA","country_name":"South Africa","latitude":"-32.09506000","longitude":"18.62695000","wikiDataId":"Q2562901"},{"id":131313,"Name":"Worcester","state_id":939,"state_code":"WC","state_name":"Western Cape","country_id":204,"country_code":"ZA","country_name":"South Africa","latitude":"-33.64651000","longitude":"19.44852000","wikiDataId":"Q1025649"},{"id":131317,"Name":"Zoar","state_id":939,"state_code":"WC","state_name":"Western Cape","country_id":204,"country_code":"ZA","country_name":"South Africa","latitude":"-33.49560000","longitude":"21.44373000","wikiDataId":"Q218020"}]