[{"id":79778,"Name":"Brooklyn","state_id":4065,"state_code":"WGN","state_name":"Wellington Region","country_id":158,"country_code":"NZ","country_name":"New Zealand","latitude":"-41.30586000","longitude":"174.76257000","wikiDataId":"Q4974716"},{"id":79782,"Name":"Castlepoint","state_id":4065,"state_code":"WGN","state_name":"Wellington Region","country_id":158,"country_code":"NZ","country_name":"New Zealand","latitude":"-40.90000000","longitude":"176.21667000","wikiDataId":"Q5050567"},{"id":79808,"Name":"Kapiti Coast District","state_id":4065,"state_code":"WGN","state_name":"Wellington Region","country_id":158,"country_code":"NZ","country_name":"New Zealand","latitude":"-40.85682000","longitude":"175.14690000","wikiDataId":"Q1533839"},{"id":79812,"Name":"Kelburn","state_id":4065,"state_code":"WGN","state_name":"Wellington Region","country_id":158,"country_code":"NZ","country_name":"New Zealand","latitude":"-41.28333000","longitude":"174.76667000","wikiDataId":"Q1674085"},{"id":79814,"Name":"Khandallah","state_id":4065,"state_code":"WGN","state_name":"Wellington Region","country_id":158,"country_code":"NZ","country_name":"New Zealand","latitude":"-41.24500000","longitude":"174.79422000","wikiDataId":"Q1185949"},{"id":79819,"Name":"Lower Hutt","state_id":4065,"state_code":"WGN","state_name":"Wellington Region","country_id":158,"country_code":"NZ","country_name":"New Zealand","latitude":"-41.21667000","longitude":"174.91667000","wikiDataId":"Q1015681"},{"id":79826,"Name":"Masterton","state_id":4065,"state_code":"WGN","state_name":"Wellington Region","country_id":158,"country_code":"NZ","country_name":"New Zealand","latitude":"-40.95972000","longitude":"175.65750000","wikiDataId":"Q1223916"},{"id":79847,"Name":"Otaki","state_id":4065,"state_code":"WGN","state_name":"Wellington Region","country_id":158,"country_code":"NZ","country_name":"New Zealand","latitude":"-40.75833000","longitude":"175.15000000","wikiDataId":"Q984998"},{"id":79857,"Name":"Paraparaumu","state_id":4065,"state_code":"WGN","state_name":"Wellington Region","country_id":158,"country_code":"NZ","country_name":"New Zealand","latitude":"-40.91667000","longitude":"175.01667000","wikiDataId":"Q1115332"},{"id":79859,"Name":"Petone","state_id":4065,"state_code":"WGN","state_name":"Wellington Region","country_id":158,"country_code":"NZ","country_name":"New Zealand","latitude":"-41.22827000","longitude":"174.87019000","wikiDataId":"Q120070"},{"id":79862,"Name":"Porirua","state_id":4065,"state_code":"WGN","state_name":"Wellington Region","country_id":158,"country_code":"NZ","country_name":"New Zealand","latitude":"-41.13333000","longitude":"174.85000000","wikiDataId":"Q1015773"},{"id":79880,"Name":"South Wairarapa District","state_id":4065,"state_code":"WGN","state_name":"Wellington Region","country_id":158,"country_code":"NZ","country_name":"New Zealand","latitude":"-41.26731000","longitude":"175.38442000","wikiDataId":"Q1760817"},{"id":79899,"Name":"Upper Hutt","state_id":4065,"state_code":"WGN","state_name":"Wellington Region","country_id":158,"country_code":"NZ","country_name":"New Zealand","latitude":"-41.13827000","longitude":"175.05020000","wikiDataId":"Q166002"},{"id":79905,"Name":"Waipawa","state_id":4065,"state_code":"WGN","state_name":"Wellington Region","country_id":158,"country_code":"NZ","country_name":"New Zealand","latitude":"-41.41222000","longitude":"175.51528000","wikiDataId":"Q912379"},{"id":79915,"Name":"Wellington","state_id":4065,"state_code":"WGN","state_name":"Wellington Region","country_id":158,"country_code":"NZ","country_name":"New Zealand","latitude":"-41.28664000","longitude":"174.77557000","wikiDataId":"Q23661"},{"id":79916,"Name":"Wellington City","state_id":4065,"state_code":"WGN","state_name":"Wellington Region","country_id":158,"country_code":"NZ","country_name":"New Zealand","latitude":"-41.25300000","longitude":"174.75424000","wikiDataId":"Q47037646"}]