[{"id":85799,"Name":"Banie Mazurskie","state_id":1628,"state_code":"WN","state_name":"Warmian-Masurian Voivodeship","country_id":176,"country_code":"PL","country_name":"Poland","latitude":"54.24662000","longitude":"22.03617000","wikiDataId":"Q806576"},{"id":85807,"Name":"Barciany","state_id":1628,"state_code":"WN","state_name":"Warmian-Masurian Voivodeship","country_id":176,"country_code":"PL","country_name":"Poland","latitude":"54.21993000","longitude":"21.35347000","wikiDataId":"Q599957"},{"id":85809,"Name":"Barczewo","state_id":1628,"state_code":"WN","state_name":"Warmian-Masurian Voivodeship","country_id":176,"country_code":"PL","country_name":"Poland","latitude":"53.83055000","longitude":"20.69112000","wikiDataId":"Q807991"},{"id":85813,"Name":"Bartoszyce","state_id":1628,"state_code":"WN","state_name":"Warmian-Masurian Voivodeship","country_id":176,"country_code":"PL","country_name":"Poland","latitude":"54.25354000","longitude":"20.80819000","wikiDataId":"Q809585"},{"id":85835,"Name":"Biała Piska","state_id":1628,"state_code":"WN","state_name":"Warmian-Masurian Voivodeship","country_id":176,"country_code":"PL","country_name":"Poland","latitude":"53.61191000","longitude":"22.06321000","wikiDataId":"Q855940"},{"id":85874,"Name":"Biskupiec","state_id":1628,"state_code":"WN","state_name":"Warmian-Masurian Voivodeship","country_id":176,"country_code":"PL","country_name":"Poland","latitude":"53.86467000","longitude":"20.95692000","wikiDataId":"Q201186"},{"id":85877,"Name":"Bisztynek","state_id":1628,"state_code":"WN","state_name":"Warmian-Masurian Voivodeship","country_id":176,"country_code":"PL","country_name":"Poland","latitude":"54.08633000","longitude":"20.90192000","wikiDataId":"Q510842"},{"id":85936,"Name":"Braniewo","state_id":1628,"state_code":"WN","state_name":"Warmian-Masurian Voivodeship","country_id":176,"country_code":"PL","country_name":"Poland","latitude":"54.37971000","longitude":"19.81959000","wikiDataId":"Q160814"},{"id":86145,"Name":"Czerwonka","state_id":1628,"state_code":"WN","state_name":"Warmian-Masurian Voivodeship","country_id":176,"country_code":"PL","country_name":"Poland","latitude":"53.91627000","longitude":"20.89685000","wikiDataId":"Q137978"},{"id":86245,"Name":"Dąbrówno","state_id":1628,"state_code":"WN","state_name":"Warmian-Masurian Voivodeship","country_id":176,"country_code":"PL","country_name":"Poland","latitude":"53.43408000","longitude":"20.03529000","wikiDataId":"Q1272595"},{"id":86172,"Name":"Dobre Miasto","state_id":1628,"state_code":"WN","state_name":"Warmian-Masurian Voivodeship","country_id":176,"country_code":"PL","country_name":"Poland","latitude":"53.98668000","longitude":"20.39749000","wikiDataId":"Q1505099"},{"id":86214,"Name":"Dywity","state_id":1628,"state_code":"WN","state_name":"Warmian-Masurian Voivodeship","country_id":176,"country_code":"PL","country_name":"Poland","latitude":"53.83759000","longitude":"20.47817000","wikiDataId":"Q984354"},{"id":86216,"Name":"Działdowo","state_id":1628,"state_code":"WN","state_name":"Warmian-Masurian Voivodeship","country_id":176,"country_code":"PL","country_name":"Poland","latitude":"53.23958000","longitude":"20.17004000","wikiDataId":"Q983720"},{"id":86263,"Name":"Dźwierzuty","state_id":1628,"state_code":"WN","state_name":"Warmian-Masurian Voivodeship","country_id":176,"country_code":"PL","country_name":"Poland","latitude":"53.70494000","longitude":"20.96037000","wikiDataId":"Q946711"},{"id":86264,"Name":"Elbląg","state_id":1628,"state_code":"WN","state_name":"Warmian-Masurian Voivodeship","country_id":176,"country_code":"PL","country_name":"Poland","latitude":"54.15220000","longitude":"19.40884000","wikiDataId":"Q104712"},{"id":86265,"Name":"Ełk","state_id":1628,"state_code":"WN","state_name":"Warmian-Masurian Voivodeship","country_id":176,"country_code":"PL","country_name":"Poland","latitude":"53.82824000","longitude":"22.36469000","wikiDataId":"Q61480"},{"id":86275,"Name":"Frombork","state_id":1628,"state_code":"WN","state_name":"Warmian-Masurian Voivodeship","country_id":176,"country_code":"PL","country_name":"Poland","latitude":"54.35766000","longitude":"19.68029000","wikiDataId":"Q497115"},{"id":86301,"Name":"Gierłoż","state_id":1628,"state_code":"WN","state_name":"Warmian-Masurian Voivodeship","country_id":176,"country_code":"PL","country_name":"Poland","latitude":"54.08134000","longitude":"21.49551000","wikiDataId":"Q627409"},{"id":86300,"Name":"Gierzwałd","state_id":1628,"state_code":"WN","state_name":"Warmian-Masurian Voivodeship","country_id":176,"country_code":"PL","country_name":"Poland","latitude":"53.54128000","longitude":"20.08867000","wikiDataId":"Q1963058"},{"id":86302,"Name":"Gietrzwałd","state_id":1628,"state_code":"WN","state_name":"Warmian-Masurian Voivodeship","country_id":176,"country_code":"PL","country_name":"Poland","latitude":"53.74617000","longitude":"20.23742000","wikiDataId":"Q994681"},{"id":86305,"Name":"Giżycko","state_id":1628,"state_code":"WN","state_name":"Warmian-Masurian Voivodeship","country_id":176,"country_code":"PL","country_name":"Poland","latitude":"54.03811000","longitude":"21.76441000","wikiDataId":"Q841356"},{"id":86355,"Name":"Gołdap","state_id":1628,"state_code":"WN","state_name":"Warmian-Masurian Voivodeship","country_id":176,"country_code":"PL","country_name":"Poland","latitude":"54.30631000","longitude":"22.30362000","wikiDataId":"Q947414"},{"id":86417,"Name":"Górowo Iławeckie","state_id":1628,"state_code":"WN","state_name":"Warmian-Masurian Voivodeship","country_id":176,"country_code":"PL","country_name":"Poland","latitude":"54.28559000","longitude":"20.48886000","wikiDataId":"Q987197"},{"id":86382,"Name":"Gronowo Elbląskie","state_id":1628,"state_code":"WN","state_name":"Warmian-Masurian Voivodeship","country_id":176,"country_code":"PL","country_name":"Poland","latitude":"54.08588000","longitude":"19.30598000","wikiDataId":"Q983915"},{"id":86383,"Name":"Gronowo Górne","state_id":1628,"state_code":"WN","state_name":"Warmian-Masurian Voivodeship","country_id":176,"country_code":"PL","country_name":"Poland","latitude":"54.13863000","longitude":"19.45988000","wikiDataId":"Q2677701"},{"id":86472,"Name":"Iława","state_id":1628,"state_code":"WN","state_name":"Warmian-Masurian Voivodeship","country_id":176,"country_code":"PL","country_name":"Poland","latitude":"53.59601000","longitude":"19.56849000","wikiDataId":"Q8194"},{"id":86474,"Name":"Iłowo -Osada","state_id":1628,"state_code":"WN","state_name":"Warmian-Masurian Voivodeship","country_id":176,"country_code":"PL","country_name":"Poland","latitude":"53.16808000","longitude":"20.29295000","wikiDataId":"Q161909"},{"id":86546,"Name":"Jedwabno","state_id":1628,"state_code":"WN","state_name":"Warmian-Masurian Voivodeship","country_id":176,"country_code":"PL","country_name":"Poland","latitude":"53.52990000","longitude":"20.72657000","wikiDataId":"Q381614"},{"id":86556,"Name":"Jeziorany","state_id":1628,"state_code":"WN","state_name":"Warmian-Masurian Voivodeship","country_id":176,"country_code":"PL","country_name":"Poland","latitude":"53.97578000","longitude":"20.74639000","wikiDataId":"Q1001496"},{"id":86567,"Name":"Jonkowo","state_id":1628,"state_code":"WN","state_name":"Warmian-Masurian Voivodeship","country_id":176,"country_code":"PL","country_name":"Poland","latitude":"53.82817000","longitude":"20.31054000","wikiDataId":"Q984351"},{"id":86858,"Name":"Kętrzyn","state_id":1628,"state_code":"WN","state_name":"Warmian-Masurian Voivodeship","country_id":176,"country_code":"PL","country_name":"Poland","latitude":"54.07676000","longitude":"21.37527000","wikiDataId":"Q319397"},{"id":86640,"Name":"Kisielice","state_id":1628,"state_code":"WN","state_name":"Warmian-Masurian Voivodeship","country_id":176,"country_code":"PL","country_name":"Poland","latitude":"53.60855000","longitude":"19.26350000","wikiDataId":"Q989801"},{"id":86706,"Name":"Korsze","state_id":1628,"state_code":"WN","state_name":"Warmian-Masurian Voivodeship","country_id":176,"country_code":"PL","country_name":"Poland","latitude":"54.17002000","longitude":"21.13915000","wikiDataId":"Q1015165"},{"id":86707,"Name":"Kortowo","state_id":1628,"state_code":"WN","state_name":"Warmian-Masurian Voivodeship","country_id":176,"country_code":"PL","country_name":"Poland","latitude":"53.75731000","longitude":"20.45620000","wikiDataId":"Q1015165"},{"id":86728,"Name":"Kowale Oleckie","state_id":1628,"state_code":"WN","state_name":"Warmian-Masurian Voivodeship","country_id":176,"country_code":"PL","country_name":"Poland","latitude":"54.16354000","longitude":"22.41666000","wikiDataId":"Q994293"},{"id":86738,"Name":"Kozłowo","state_id":1628,"state_code":"WN","state_name":"Warmian-Masurian Voivodeship","country_id":176,"country_code":"PL","country_name":"Poland","latitude":"53.30652000","longitude":"20.29098000","wikiDataId":"Q159573"},{"id":86791,"Name":"Kruklanki","state_id":1628,"state_code":"WN","state_name":"Warmian-Masurian Voivodeship","country_id":176,"country_code":"PL","country_name":"Poland","latitude":"54.08855000","longitude":"21.92227000","wikiDataId":"Q999644"},{"id":86842,"Name":"Kurzętnik","state_id":1628,"state_code":"WN","state_name":"Warmian-Masurian Voivodeship","country_id":176,"country_code":"PL","country_name":"Poland","latitude":"53.39858000","longitude":"19.57858000","wikiDataId":"Q3077810"},{"id":86879,"Name":"Lelkowo","state_id":1628,"state_code":"WN","state_name":"Warmian-Masurian Voivodeship","country_id":176,"country_code":"PL","country_name":"Poland","latitude":"54.32458000","longitude":"20.22480000","wikiDataId":"Q355403"},{"id":86899,"Name":"Lidzbark","state_id":1628,"state_code":"WN","state_name":"Warmian-Masurian Voivodeship","country_id":176,"country_code":"PL","country_name":"Poland","latitude":"53.26283000","longitude":"19.82663000","wikiDataId":"Q1005464"},{"id":86900,"Name":"Lidzbark Warmiński","state_id":1628,"state_code":"WN","state_name":"Warmian-Masurian Voivodeship","country_id":176,"country_code":"PL","country_name":"Poland","latitude":"54.12588000","longitude":"20.57954000","wikiDataId":"Q751123"},{"id":86934,"Name":"Lubawa","state_id":1628,"state_code":"WN","state_name":"Warmian-Masurian Voivodeship","country_id":176,"country_code":"PL","country_name":"Poland","latitude":"53.50428000","longitude":"19.74966000","wikiDataId":"Q987188"},{"id":86954,"Name":"Lubomino","state_id":1628,"state_code":"WN","state_name":"Warmian-Masurian Voivodeship","country_id":176,"country_code":"PL","country_name":"Poland","latitude":"54.06684000","longitude":"20.23956000","wikiDataId":"Q785470"},{"id":87006,"Name":"Małdyty","state_id":1628,"state_code":"WN","state_name":"Warmian-Masurian Voivodeship","country_id":176,"country_code":"PL","country_name":"Poland","latitude":"53.91981000","longitude":"19.74398000","wikiDataId":"Q2547448"},{"id":87042,"Name":"Mikołajki","state_id":1628,"state_code":"WN","state_name":"Warmian-Masurian Voivodeship","country_id":176,"country_code":"PL","country_name":"Poland","latitude":"53.80288000","longitude":"21.57011000","wikiDataId":"Q555423"},{"id":87070,"Name":"Miłakowo","state_id":1628,"state_code":"WN","state_name":"Warmian-Masurian Voivodeship","country_id":176,"country_code":"PL","country_name":"Poland","latitude":"54.00923000","longitude":"20.07125000","wikiDataId":"Q1006813"},{"id":87072,"Name":"Miłomłyn","state_id":1628,"state_code":"WN","state_name":"Warmian-Masurian Voivodeship","country_id":176,"country_code":"PL","country_name":"Poland","latitude":"53.76449000","longitude":"19.83800000","wikiDataId":"Q995877"},{"id":87129,"Name":"Młynary","state_id":1628,"state_code":"WN","state_name":"Warmian-Masurian Voivodeship","country_id":176,"country_code":"PL","country_name":"Poland","latitude":"54.18690000","longitude":"19.72149000","wikiDataId":"Q1006788"},{"id":87093,"Name":"Morąg","state_id":1628,"state_code":"WN","state_name":"Warmian-Masurian Voivodeship","country_id":176,"country_code":"PL","country_name":"Poland","latitude":"53.91711000","longitude":"19.92602000","wikiDataId":"Q139725"},{"id":87106,"Name":"Mrągowo","state_id":1628,"state_code":"WN","state_name":"Warmian-Masurian Voivodeship","country_id":176,"country_code":"PL","country_name":"Poland","latitude":"53.86437000","longitude":"21.30507000","wikiDataId":"Q745085"},{"id":87146,"Name":"Nidzica","state_id":1628,"state_code":"WN","state_name":"Warmian-Masurian Voivodeship","country_id":176,"country_code":"PL","country_name":"Poland","latitude":"53.36052000","longitude":"20.42749000","wikiDataId":"Q527768"},{"id":87186,"Name":"Nowe Miasto Lubawskie","state_id":1628,"state_code":"WN","state_name":"Warmian-Masurian Voivodeship","country_id":176,"country_code":"PL","country_name":"Poland","latitude":"53.42079000","longitude":"19.59515000","wikiDataId":"Q176229"},{"id":87236,"Name":"Olecko","state_id":1628,"state_code":"WN","state_name":"Warmian-Masurian Voivodeship","country_id":176,"country_code":"PL","country_name":"Poland","latitude":"54.03374000","longitude":"22.50704000","wikiDataId":"Q950436"},{"id":87248,"Name":"Olsztyn","state_id":1628,"state_code":"WN","state_name":"Warmian-Masurian Voivodeship","country_id":176,"country_code":"PL","country_name":"Poland","latitude":"53.77657000","longitude":"20.46657000","wikiDataId":"Q82765"},{"id":87249,"Name":"Olsztynek","state_id":1628,"state_code":"WN","state_name":"Warmian-Masurian Voivodeship","country_id":176,"country_code":"PL","country_name":"Poland","latitude":"53.58374000","longitude":"20.28471000","wikiDataId":"Q999614"},{"id":87268,"Name":"Orneta","state_id":1628,"state_code":"WN","state_name":"Warmian-Masurian Voivodeship","country_id":176,"country_code":"PL","country_name":"Poland","latitude":"54.11483000","longitude":"20.13328000","wikiDataId":"Q1025330"},{"id":87274,"Name":"Orzysz","state_id":1628,"state_code":"WN","state_name":"Warmian-Masurian Voivodeship","country_id":176,"country_code":"PL","country_name":"Poland","latitude":"53.80967000","longitude":"21.94811000","wikiDataId":"Q989833"},{"id":87307,"Name":"Ostróda","state_id":1628,"state_code":"WN","state_name":"Warmian-Masurian Voivodeship","country_id":176,"country_code":"PL","country_name":"Poland","latitude":"53.69671000","longitude":"19.96486000","wikiDataId":"Q899751"},{"id":87353,"Name":"Pasłęk","state_id":1628,"state_code":"WN","state_name":"Warmian-Masurian Voivodeship","country_id":176,"country_code":"PL","country_name":"Poland","latitude":"54.06160000","longitude":"19.65932000","wikiDataId":"Q988651"},{"id":87351,"Name":"Pasym","state_id":1628,"state_code":"WN","state_name":"Warmian-Masurian Voivodeship","country_id":176,"country_code":"PL","country_name":"Poland","latitude":"53.65069000","longitude":"20.79188000","wikiDataId":"Q1005483"},{"id":87374,"Name":"Piecki","state_id":1628,"state_code":"WN","state_name":"Warmian-Masurian Voivodeship","country_id":176,"country_code":"PL","country_name":"Poland","latitude":"53.75759000","longitude":"21.33914000","wikiDataId":"Q556805"},{"id":87380,"Name":"Pieniężno","state_id":1628,"state_code":"WN","state_name":"Warmian-Masurian Voivodeship","country_id":176,"country_code":"PL","country_name":"Poland","latitude":"54.23649000","longitude":"20.12833000","wikiDataId":"Q768689"},{"id":87398,"Name":"Pisz","state_id":1628,"state_code":"WN","state_name":"Warmian-Masurian Voivodeship","country_id":176,"country_code":"PL","country_name":"Poland","latitude":"53.62744000","longitude":"21.81253000","wikiDataId":"Q985005"},{"id":87459,"Name":"Powiat bartoszycki","state_id":1628,"state_code":"WN","state_name":"Warmian-Masurian Voivodeship","country_id":176,"country_code":"PL","country_name":"Poland","latitude":"54.21253000","longitude":"20.74076000","wikiDataId":"Q1130338"},{"id":87472,"Name":"Powiat braniewski","state_id":1628,"state_code":"WN","state_name":"Warmian-Masurian Voivodeship","country_id":176,"country_code":"PL","country_name":"Poland","latitude":"54.27782000","longitude":"20.00630000","wikiDataId":"Q1164883"},{"id":87494,"Name":"Powiat działdowski","state_id":1628,"state_code":"WN","state_name":"Warmian-Masurian Voivodeship","country_id":176,"country_code":"PL","country_name":"Poland","latitude":"53.28883000","longitude":"20.04817000","wikiDataId":"Q1135385"},{"id":87498,"Name":"Powiat elbląski","state_id":1628,"state_code":"WN","state_name":"Warmian-Masurian Voivodeship","country_id":176,"country_code":"PL","country_name":"Poland","latitude":"54.15928000","longitude":"19.63768000","wikiDataId":"Q1140734"},{"id":87499,"Name":"Powiat ełcki","state_id":1628,"state_code":"WN","state_name":"Warmian-Masurian Voivodeship","country_id":176,"country_code":"PL","country_name":"Poland","latitude":"53.81673000","longitude":"22.40465000","wikiDataId":"Q1135368"},{"id":87502,"Name":"Powiat giżycki","state_id":1628,"state_code":"WN","state_name":"Warmian-Masurian Voivodeship","country_id":176,"country_code":"PL","country_name":"Poland","latitude":"54.01808000","longitude":"21.82191000","wikiDataId":"Q117563"},{"id":87511,"Name":"Powiat gołdapski","state_id":1628,"state_code":"WN","state_name":"Warmian-Masurian Voivodeship","country_id":176,"country_code":"PL","country_name":"Poland","latitude":"54.26090000","longitude":"22.37192000","wikiDataId":"Q780602"},{"id":87525,"Name":"Powiat iławski","state_id":1628,"state_code":"WN","state_name":"Warmian-Masurian Voivodeship","country_id":176,"country_code":"PL","country_name":"Poland","latitude":"53.67477000","longitude":"19.53792000","wikiDataId":"Q1135409"},{"id":87561,"Name":"Powiat kętrzyński","state_id":1628,"state_code":"WN","state_name":"Warmian-Masurian Voivodeship","country_id":176,"country_code":"PL","country_name":"Poland","latitude":"54.13651000","longitude":"21.31217000","wikiDataId":"Q1135341"},{"id":87569,"Name":"Powiat lidzbarski","state_id":1628,"state_code":"WN","state_name":"Warmian-Masurian Voivodeship","country_id":176,"country_code":"PL","country_name":"Poland","latitude":"54.10581000","longitude":"20.38045000","wikiDataId":"Q1147576"},{"id":87592,"Name":"Powiat mrągowski","state_id":1628,"state_code":"WN","state_name":"Warmian-Masurian Voivodeship","country_id":176,"country_code":"PL","country_name":"Poland","latitude":"53.81063000","longitude":"21.39758000","wikiDataId":"Q1130348"},{"id":87599,"Name":"Powiat nidzicki","state_id":1628,"state_code":"WN","state_name":"Warmian-Masurian Voivodeship","country_id":176,"country_code":"PL","country_name":"Poland","latitude":"53.37240000","longitude":"20.49858000","wikiDataId":"Q1135395"},{"id":87603,"Name":"Powiat nowomiejski","state_id":1628,"state_code":"WN","state_name":"Warmian-Masurian Voivodeship","country_id":176,"country_code":"PL","country_name":"Poland","latitude":"53.43572000","longitude":"19.54662000","wikiDataId":"Q138001"},{"id":87610,"Name":"Powiat olecki","state_id":1628,"state_code":"WN","state_name":"Warmian-Masurian Voivodeship","country_id":176,"country_code":"PL","country_name":"Poland","latitude":"54.05129000","longitude":"22.41695000","wikiDataId":"Q1135359"},{"id":87614,"Name":"Powiat olsztyński","state_id":1628,"state_code":"WN","state_name":"Warmian-Masurian Voivodeship","country_id":176,"country_code":"PL","country_name":"Poland","latitude":"53.72922000","longitude":"20.56641000","wikiDataId":"Q83395"},{"id":87624,"Name":"Powiat ostródzki","state_id":1628,"state_code":"WN","state_name":"Warmian-Masurian Voivodeship","country_id":176,"country_code":"PL","country_name":"Poland","latitude":"53.72906000","longitude":"19.91440000","wikiDataId":"Q556479"},{"id":87634,"Name":"Powiat piski","state_id":1628,"state_code":"WN","state_name":"Warmian-Masurian Voivodeship","country_id":176,"country_code":"PL","country_name":"Poland","latitude":"53.68076000","longitude":"21.85723000","wikiDataId":"Q555892"},{"id":87693,"Name":"Powiat szczycieński","state_id":1628,"state_code":"WN","state_name":"Warmian-Masurian Voivodeship","country_id":176,"country_code":"PL","country_name":"Poland","latitude":"53.54176000","longitude":"21.07034000","wikiDataId":"Q556474"},{"id":87731,"Name":"Powiat węgorzewski","state_id":1628,"state_code":"WN","state_name":"Warmian-Masurian Voivodeship","country_id":176,"country_code":"PL","country_name":"Poland","latitude":"54.20728000","longitude":"21.77861000","wikiDataId":"Q967087"},{"id":87773,"Name":"Pozezdrze","state_id":1628,"state_code":"WN","state_name":"Warmian-Masurian Voivodeship","country_id":176,"country_code":"PL","country_name":"Poland","latitude":"54.14147000","longitude":"21.85970000","wikiDataId":"Q1003751"},{"id":87791,"Name":"Prostki","state_id":1628,"state_code":"WN","state_name":"Warmian-Masurian Voivodeship","country_id":176,"country_code":"PL","country_name":"Poland","latitude":"53.69901000","longitude":"22.43183000","wikiDataId":"Q637708"},{"id":87848,"Name":"Purda","state_id":1628,"state_code":"WN","state_name":"Warmian-Masurian Voivodeship","country_id":176,"country_code":"PL","country_name":"Poland","latitude":"53.70844000","longitude":"20.70683000","wikiDataId":"Q554064"},{"id":87939,"Name":"Reszel","state_id":1628,"state_code":"WN","state_name":"Warmian-Masurian Voivodeship","country_id":176,"country_code":"PL","country_name":"Poland","latitude":"54.05042000","longitude":"21.14585000","wikiDataId":"Q986841"},{"id":87965,"Name":"Rozogi","state_id":1628,"state_code":"WN","state_name":"Warmian-Masurian Voivodeship","country_id":176,"country_code":"PL","country_name":"Poland","latitude":"53.48549000","longitude":"21.36223000","wikiDataId":"Q985156"},{"id":87969,"Name":"Ruciane-Nida","state_id":1628,"state_code":"WN","state_name":"Warmian-Masurian Voivodeship","country_id":176,"country_code":"PL","country_name":"Poland","latitude":"53.64161000","longitude":"21.53964000","wikiDataId":"Q557906"},{"id":87996,"Name":"Rybno","state_id":1628,"state_code":"WN","state_name":"Warmian-Masurian Voivodeship","country_id":176,"country_code":"PL","country_name":"Poland","latitude":"53.38348000","longitude":"19.93229000","wikiDataId":"Q339507"},{"id":88011,"Name":"Ryn","state_id":1628,"state_code":"WN","state_name":"Warmian-Masurian Voivodeship","country_id":176,"country_code":"PL","country_name":"Poland","latitude":"53.93770000","longitude":"21.54642000","wikiDataId":"Q616895"},{"id":88332,"Name":"Sępopol","state_id":1628,"state_code":"WN","state_name":"Warmian-Masurian Voivodeship","country_id":176,"country_code":"PL","country_name":"Poland","latitude":"54.26903000","longitude":"21.01453000","wikiDataId":"Q1010153"},{"id":88163,"Name":"Srokowo","state_id":1628,"state_code":"WN","state_name":"Warmian-Masurian Voivodeship","country_id":176,"country_code":"PL","country_name":"Poland","latitude":"54.21416000","longitude":"21.52282000","wikiDataId":"Q390746"},{"id":88184,"Name":"Stare Juchy","state_id":1628,"state_code":"WN","state_name":"Warmian-Masurian Voivodeship","country_id":176,"country_code":"PL","country_name":"Poland","latitude":"53.92198000","longitude":"22.17367000","wikiDataId":"Q984245"},{"id":88199,"Name":"Stawiguda","state_id":1628,"state_code":"WN","state_name":"Warmian-Masurian Voivodeship","country_id":176,"country_code":"PL","country_name":"Poland","latitude":"53.65720000","longitude":"20.40041000","wikiDataId":"Q998438"},{"id":88267,"Name":"Susz","state_id":1628,"state_code":"WN","state_name":"Warmian-Masurian Voivodeship","country_id":176,"country_code":"PL","country_name":"Poland","latitude":"53.71743000","longitude":"19.33645000","wikiDataId":"Q986821"},{"id":88276,"Name":"Swiętajno","state_id":1628,"state_code":"WN","state_name":"Warmian-Masurian Voivodeship","country_id":176,"country_code":"PL","country_name":"Poland","latitude":"54.00151000","longitude":"22.31830000","wikiDataId":"Q50991"},{"id":88305,"Name":"Szczytno","state_id":1628,"state_code":"WN","state_name":"Warmian-Masurian Voivodeship","country_id":176,"country_code":"PL","country_name":"Poland","latitude":"53.56259000","longitude":"20.98747000","wikiDataId":"Q953181"},{"id":88377,"Name":"Tolkmicko","state_id":1628,"state_code":"WN","state_name":"Warmian-Masurian Voivodeship","country_id":176,"country_code":"PL","country_name":"Poland","latitude":"54.32038000","longitude":"19.52695000","wikiDataId":"Q989863"},{"id":88641,"Name":"Węgorzewo","state_id":1628,"state_code":"WN","state_name":"Warmian-Masurian Voivodeship","country_id":176,"country_code":"PL","country_name":"Poland","latitude":"54.21567000","longitude":"21.73720000","wikiDataId":"Q751153"},{"id":88498,"Name":"Wielbark","state_id":1628,"state_code":"WN","state_name":"Warmian-Masurian Voivodeship","country_id":176,"country_code":"PL","country_name":"Poland","latitude":"53.39858000","longitude":"20.94629000","wikiDataId":"Q999482"},{"id":88611,"Name":"Wydminy","state_id":1628,"state_code":"WN","state_name":"Warmian-Masurian Voivodeship","country_id":176,"country_code":"PL","country_name":"Poland","latitude":"53.98194000","longitude":"22.03239000","wikiDataId":"Q1003621"},{"id":88688,"Name":"Zalewo","state_id":1628,"state_code":"WN","state_name":"Warmian-Masurian Voivodeship","country_id":176,"country_code":"PL","country_name":"Poland","latitude":"53.84534000","longitude":"19.60519000","wikiDataId":"Q1001571"}]