[{"id":85788,"Name":"Babiak","state_id":1634,"state_code":"WP","state_name":"Greater Poland Voivodeship","country_id":176,"country_code":"PL","country_name":"Poland","latitude":"52.34530000","longitude":"18.66663000","wikiDataId":"Q554897"},{"id":85805,"Name":"Baranów","state_id":1634,"state_code":"WP","state_name":"Greater Poland Voivodeship","country_id":176,"country_code":"PL","country_name":"Poland","latitude":"51.26342000","longitude":"18.00470000","wikiDataId":"Q2147121"},{"id":85803,"Name":"Baranowo","state_id":1634,"state_code":"WP","state_name":"Greater Poland Voivodeship","country_id":176,"country_code":"PL","country_name":"Poland","latitude":"52.43525000","longitude":"16.78631000","wikiDataId":"Q1986598"},{"id":85847,"Name":"Białośliwie","state_id":1634,"state_code":"WP","state_name":"Greater Poland Voivodeship","country_id":176,"country_code":"PL","country_name":"Poland","latitude":"53.10461000","longitude":"17.12533000","wikiDataId":"Q855970"},{"id":85881,"Name":"Blizanów","state_id":1634,"state_code":"WP","state_name":"Greater Poland Voivodeship","country_id":176,"country_code":"PL","country_name":"Poland","latitude":"51.90372000","longitude":"18.01003000","wikiDataId":"Q884545"},{"id":85903,"Name":"Bojanowo","state_id":1634,"state_code":"WP","state_name":"Greater Poland Voivodeship","country_id":176,"country_code":"PL","country_name":"Poland","latitude":"51.70749000","longitude":"16.74827000","wikiDataId":"Q987012"},{"id":85904,"Name":"Bojanowo Stare","state_id":1634,"state_code":"WP","state_name":"Greater Poland Voivodeship","country_id":176,"country_code":"PL","country_name":"Poland","latitude":"51.99302000","longitude":"16.58369000","wikiDataId":"Q7601625"},{"id":85919,"Name":"Borek Wielkopolski","state_id":1634,"state_code":"WP","state_name":"Greater Poland Voivodeship","country_id":176,"country_code":"PL","country_name":"Poland","latitude":"51.91674000","longitude":"17.24133000","wikiDataId":"Q1005972"},{"id":85934,"Name":"Bralin","state_id":1634,"state_code":"WP","state_name":"Greater Poland Voivodeship","country_id":176,"country_code":"PL","country_name":"Poland","latitude":"51.28581000","longitude":"17.90325000","wikiDataId":"Q556572"},{"id":85939,"Name":"Brdów","state_id":1634,"state_code":"WP","state_name":"Greater Poland Voivodeship","country_id":176,"country_code":"PL","country_name":"Poland","latitude":"52.35390000","longitude":"18.72980000","wikiDataId":"Q903461"},{"id":85941,"Name":"Brenno","state_id":1634,"state_code":"WP","state_name":"Greater Poland Voivodeship","country_id":176,"country_code":"PL","country_name":"Poland","latitude":"51.92257000","longitude":"16.21488000","wikiDataId":"Q9179208"},{"id":85944,"Name":"Brodnica","state_id":1634,"state_code":"WP","state_name":"Greater Poland Voivodeship","country_id":176,"country_code":"PL","country_name":"Poland","latitude":"52.14123000","longitude":"16.89096000","wikiDataId":"Q555765"},{"id":85952,"Name":"Broniszewice","state_id":1634,"state_code":"WP","state_name":"Greater Poland Voivodeship","country_id":176,"country_code":"PL","country_name":"Poland","latitude":"51.96696000","longitude":"17.81648000","wikiDataId":"Q4973925"},{"id":85954,"Name":"Brudzew","state_id":1634,"state_code":"WP","state_name":"Greater Poland Voivodeship","country_id":176,"country_code":"PL","country_name":"Poland","latitude":"52.09949000","longitude":"18.60432000","wikiDataId":"Q992269"},{"id":85984,"Name":"Budzyń","state_id":1634,"state_code":"WP","state_name":"Greater Poland Voivodeship","country_id":176,"country_code":"PL","country_name":"Poland","latitude":"52.88954000","longitude":"16.98812000","wikiDataId":"Q4985322"},{"id":85988,"Name":"Buk","state_id":1634,"state_code":"WP","state_name":"Greater Poland Voivodeship","country_id":176,"country_code":"PL","country_name":"Poland","latitude":"52.35532000","longitude":"16.51958000","wikiDataId":"Q667588"},{"id":86041,"Name":"Chocz","state_id":1634,"state_code":"WP","state_name":"Greater Poland Voivodeship","country_id":176,"country_code":"PL","country_name":"Poland","latitude":"51.97642000","longitude":"17.86995000","wikiDataId":"Q553976"},{"id":86047,"Name":"Chodów","state_id":1634,"state_code":"WP","state_name":"Greater Poland Voivodeship","country_id":176,"country_code":"PL","country_name":"Poland","latitude":"52.24961000","longitude":"19.01218000","wikiDataId":"Q555369"},{"id":86046,"Name":"Chodzież","state_id":1634,"state_code":"WP","state_name":"Greater Poland Voivodeship","country_id":176,"country_code":"PL","country_name":"Poland","latitude":"52.99505000","longitude":"16.91980000","wikiDataId":"Q51434"},{"id":86063,"Name":"Chrzypsko Wielkie","state_id":1634,"state_code":"WP","state_name":"Greater Poland Voivodeship","country_id":176,"country_code":"PL","country_name":"Poland","latitude":"52.62817000","longitude":"16.22852000","wikiDataId":"Q1007292"},{"id":86099,"Name":"Czajków","state_id":1634,"state_code":"WP","state_name":"Greater Poland Voivodeship","country_id":176,"country_code":"PL","country_name":"Poland","latitude":"51.49197000","longitude":"18.32726000","wikiDataId":"Q553948"},{"id":86102,"Name":"Czapury","state_id":1634,"state_code":"WP","state_name":"Greater Poland Voivodeship","country_id":176,"country_code":"PL","country_name":"Poland","latitude":"52.31719000","longitude":"16.91268000","wikiDataId":"Q5201515"},{"id":86111,"Name":"Czarnków","state_id":1634,"state_code":"WP","state_name":"Greater Poland Voivodeship","country_id":176,"country_code":"PL","country_name":"Poland","latitude":"52.90214000","longitude":"16.56413000","wikiDataId":"Q51438"},{"id":86125,"Name":"Czempiń","state_id":1634,"state_code":"WP","state_name":"Greater Poland Voivodeship","country_id":176,"country_code":"PL","country_name":"Poland","latitude":"52.14404000","longitude":"16.76408000","wikiDataId":"Q51441"},{"id":86128,"Name":"Czermin","state_id":1634,"state_code":"WP","state_name":"Greater Poland Voivodeship","country_id":176,"country_code":"PL","country_name":"Poland","latitude":"51.95008000","longitude":"17.74957000","wikiDataId":"Q555564"},{"id":86134,"Name":"Czerniejewo","state_id":1634,"state_code":"WP","state_name":"Greater Poland Voivodeship","country_id":176,"country_code":"PL","country_name":"Poland","latitude":"52.42640000","longitude":"17.48925000","wikiDataId":"Q1149495"},{"id":86143,"Name":"Czerwonak","state_id":1634,"state_code":"WP","state_name":"Greater Poland Voivodeship","country_id":176,"country_code":"PL","country_name":"Poland","latitude":"52.46459000","longitude":"16.98169000","wikiDataId":"Q554223"},{"id":86234,"Name":"Dąbie","state_id":1634,"state_code":"WP","state_name":"Greater Poland Voivodeship","country_id":176,"country_code":"PL","country_name":"Poland","latitude":"52.08668000","longitude":"18.82250000","wikiDataId":"Q554294"},{"id":86156,"Name":"Damasławek","state_id":1634,"state_code":"WP","state_name":"Greater Poland Voivodeship","country_id":176,"country_code":"PL","country_name":"Poland","latitude":"52.83979000","longitude":"17.50062000","wikiDataId":"Q1007302"},{"id":86159,"Name":"Daszewice","state_id":1634,"state_code":"WP","state_name":"Greater Poland Voivodeship","country_id":176,"country_code":"PL","country_name":"Poland","latitude":"52.30002000","longitude":"16.95723000","wikiDataId":"Q5227075"},{"id":86169,"Name":"Dobra","state_id":1634,"state_code":"WP","state_name":"Greater Poland Voivodeship","country_id":176,"country_code":"PL","country_name":"Poland","latitude":"51.91664000","longitude":"18.61556000","wikiDataId":"Q555150"},{"id":86178,"Name":"Dobrzyca","state_id":1634,"state_code":"WP","state_name":"Greater Poland Voivodeship","country_id":176,"country_code":"PL","country_name":"Poland","latitude":"51.86663000","longitude":"17.60336000","wikiDataId":"Q476436"},{"id":86182,"Name":"Dolsk","state_id":1634,"state_code":"WP","state_name":"Greater Poland Voivodeship","country_id":176,"country_code":"PL","country_name":"Poland","latitude":"51.98180000","longitude":"17.06273000","wikiDataId":"Q990785"},{"id":86188,"Name":"Dominowo","state_id":1634,"state_code":"WP","state_name":"Greater Poland Voivodeship","country_id":176,"country_code":"PL","country_name":"Poland","latitude":"52.29158000","longitude":"17.35754000","wikiDataId":"Q1006846"},{"id":86189,"Name":"Dopiewo","state_id":1634,"state_code":"WP","state_name":"Greater Poland Voivodeship","country_id":176,"country_code":"PL","country_name":"Poland","latitude":"52.35726000","longitude":"16.67562000","wikiDataId":"Q1006846"},{"id":86191,"Name":"Doruchów","state_id":1634,"state_code":"WP","state_name":"Greater Poland Voivodeship","country_id":176,"country_code":"PL","country_name":"Poland","latitude":"51.41719000","longitude":"18.07697000","wikiDataId":"Q594248"},{"id":86194,"Name":"Drawsko","state_id":1634,"state_code":"WP","state_name":"Greater Poland Voivodeship","country_id":176,"country_code":"PL","country_name":"Poland","latitude":"52.85421000","longitude":"16.03125000","wikiDataId":"Q555317"},{"id":86208,"Name":"Duszniki","state_id":1634,"state_code":"WP","state_name":"Greater Poland Voivodeship","country_id":176,"country_code":"PL","country_name":"Poland","latitude":"52.44691000","longitude":"16.40602000","wikiDataId":"Q553986"},{"id":86304,"Name":"Gizałki","state_id":1634,"state_code":"WP","state_name":"Greater Poland Voivodeship","country_id":176,"country_code":"PL","country_name":"Poland","latitude":"52.04267000","longitude":"17.76936000","wikiDataId":"Q5562572"},{"id":86313,"Name":"Gniezno","state_id":1634,"state_code":"WP","state_name":"Greater Poland Voivodeship","country_id":176,"country_code":"PL","country_name":"Poland","latitude":"52.53481000","longitude":"17.58259000","wikiDataId":"Q51432"},{"id":86328,"Name":"Golina","state_id":1634,"state_code":"WP","state_name":"Greater Poland Voivodeship","country_id":176,"country_code":"PL","country_name":"Poland","latitude":"52.24315000","longitude":"18.09268000","wikiDataId":"Q1192513"},{"id":86354,"Name":"Gołańcz","state_id":1634,"state_code":"WP","state_name":"Greater Poland Voivodeship","country_id":176,"country_code":"PL","country_name":"Poland","latitude":"52.94326000","longitude":"17.29995000","wikiDataId":"Q52828"},{"id":86357,"Name":"Gołuchów","state_id":1634,"state_code":"WP","state_name":"Greater Poland Voivodeship","country_id":176,"country_code":"PL","country_name":"Poland","latitude":"51.85036000","longitude":"17.93140000","wikiDataId":"Q555310"},{"id":86340,"Name":"Gorzyce Wielkie","state_id":1634,"state_code":"WP","state_name":"Greater Poland Voivodeship","country_id":176,"country_code":"PL","country_name":"Poland","latitude":"51.63725000","longitude":"17.72953000","wikiDataId":"Q2238913"},{"id":86347,"Name":"Gostyń","state_id":1634,"state_code":"WP","state_name":"Greater Poland Voivodeship","country_id":176,"country_code":"PL","country_name":"Poland","latitude":"51.88247000","longitude":"17.01225000","wikiDataId":"Q422286"},{"id":86369,"Name":"Grabów nad Prosną","state_id":1634,"state_code":"WP","state_name":"Greater Poland Voivodeship","country_id":176,"country_code":"PL","country_name":"Poland","latitude":"51.50596000","longitude":"18.11929000","wikiDataId":"Q206125"},{"id":86372,"Name":"Granowo","state_id":1634,"state_code":"WP","state_name":"Greater Poland Voivodeship","country_id":176,"country_code":"PL","country_name":"Poland","latitude":"52.22244000","longitude":"16.52859000","wikiDataId":"Q556768"},{"id":86374,"Name":"Grodziec","state_id":1634,"state_code":"WP","state_name":"Greater Poland Voivodeship","country_id":176,"country_code":"PL","country_name":"Poland","latitude":"52.03855000","longitude":"18.05972000","wikiDataId":"Q554007"},{"id":86376,"Name":"Grodzisk Wielkopolski","state_id":1634,"state_code":"WP","state_name":"Greater Poland Voivodeship","country_id":176,"country_code":"PL","country_name":"Poland","latitude":"52.22762000","longitude":"16.36534000","wikiDataId":"Q52829"},{"id":86394,"Name":"Grzegorzew","state_id":1634,"state_code":"WP","state_name":"Greater Poland Voivodeship","country_id":176,"country_code":"PL","country_name":"Poland","latitude":"52.20177000","longitude":"18.73409000","wikiDataId":"Q557417"},{"id":86483,"Name":"Jabłonna","state_id":1634,"state_code":"WP","state_name":"Greater Poland Voivodeship","country_id":176,"country_code":"PL","country_name":"Poland","latitude":"52.20598000","longitude":"16.20741000","wikiDataId":"Q2913526"},{"id":86496,"Name":"Janków Przygodzki","state_id":1634,"state_code":"WP","state_name":"Greater Poland Voivodeship","country_id":176,"country_code":"PL","country_name":"Poland","latitude":"51.59808000","longitude":"17.78824000","wikiDataId":"Q596711"},{"id":86505,"Name":"Jaraczewo","state_id":1634,"state_code":"WP","state_name":"Greater Poland Voivodeship","country_id":176,"country_code":"PL","country_name":"Poland","latitude":"51.96854000","longitude":"17.29707000","wikiDataId":"Q667845"},{"id":86509,"Name":"Jarocin","state_id":1634,"state_code":"WP","state_name":"Greater Poland Voivodeship","country_id":176,"country_code":"PL","country_name":"Poland","latitude":"51.97266000","longitude":"17.50256000","wikiDataId":"Q52840"},{"id":86522,"Name":"Jastrowie","state_id":1634,"state_code":"WP","state_name":"Greater Poland Voivodeship","country_id":176,"country_code":"PL","country_name":"Poland","latitude":"53.42048000","longitude":"16.81756000","wikiDataId":"Q199970"},{"id":86573,"Name":"Jutrosin","state_id":1634,"state_code":"WP","state_name":"Greater Poland Voivodeship","country_id":176,"country_code":"PL","country_name":"Poland","latitude":"51.65009000","longitude":"17.16957000","wikiDataId":"Q1005837"},{"id":86580,"Name":"Kaczory","state_id":1634,"state_code":"WP","state_name":"Greater Poland Voivodeship","country_id":176,"country_code":"PL","country_name":"Poland","latitude":"53.10348000","longitude":"16.88169000","wikiDataId":"Q554398"},{"id":86586,"Name":"Kalisz","state_id":1634,"state_code":"WP","state_name":"Greater Poland Voivodeship","country_id":176,"country_code":"PL","country_name":"Poland","latitude":"51.76109000","longitude":"18.09102000","wikiDataId":"Q52842"},{"id":86593,"Name":"Kamieniec","state_id":1634,"state_code":"WP","state_name":"Greater Poland Voivodeship","country_id":176,"country_code":"PL","country_name":"Poland","latitude":"52.16614000","longitude":"16.46164000","wikiDataId":"Q554759"},{"id":86622,"Name":"Kawęczyn","state_id":1634,"state_code":"WP","state_name":"Greater Poland Voivodeship","country_id":176,"country_code":"PL","country_name":"Poland","latitude":"51.90923000","longitude":"18.53102000","wikiDataId":"Q556597"},{"id":86625,"Name":"Kazimierz Biskupi","state_id":1634,"state_code":"WP","state_name":"Greater Poland Voivodeship","country_id":176,"country_code":"PL","country_name":"Poland","latitude":"52.31100000","longitude":"18.16581000","wikiDataId":"Q1006039"},{"id":86630,"Name":"Kaźmierz","state_id":1634,"state_code":"WP","state_name":"Greater Poland Voivodeship","country_id":176,"country_code":"PL","country_name":"Poland","latitude":"52.51309000","longitude":"16.58403000","wikiDataId":"Q1007321"},{"id":86856,"Name":"Kępno","state_id":1634,"state_code":"WP","state_name":"Greater Poland Voivodeship","country_id":176,"country_code":"PL","country_name":"Poland","latitude":"51.27840000","longitude":"17.98908000","wikiDataId":"Q640493"},{"id":86641,"Name":"Kiszkowo","state_id":1634,"state_code":"WP","state_name":"Greater Poland Voivodeship","country_id":176,"country_code":"PL","country_name":"Poland","latitude":"52.58871000","longitude":"17.26630000","wikiDataId":"Q555206"},{"id":86643,"Name":"Kleczew","state_id":1634,"state_code":"WP","state_name":"Greater Poland Voivodeship","country_id":176,"country_code":"PL","country_name":"Poland","latitude":"52.37057000","longitude":"18.17714000","wikiDataId":"Q1355994"},{"id":86647,"Name":"Kleszczewo","state_id":1634,"state_code":"WP","state_name":"Greater Poland Voivodeship","country_id":176,"country_code":"PL","country_name":"Poland","latitude":"52.33377000","longitude":"17.17163000","wikiDataId":"Q555582"},{"id":86861,"Name":"Kłecko","state_id":1634,"state_code":"WP","state_name":"Greater Poland Voivodeship","country_id":176,"country_code":"PL","country_name":"Poland","latitude":"52.63181000","longitude":"17.43075000","wikiDataId":"Q994061"},{"id":86865,"Name":"Kłodawa","state_id":1634,"state_code":"WP","state_name":"Greater Poland Voivodeship","country_id":176,"country_code":"PL","country_name":"Poland","latitude":"52.25447000","longitude":"18.91352000","wikiDataId":"Q988663"},{"id":86663,"Name":"Kobyla Góra","state_id":1634,"state_code":"WP","state_name":"Greater Poland Voivodeship","country_id":176,"country_code":"PL","country_name":"Poland","latitude":"51.37923000","longitude":"17.83811000","wikiDataId":"Q556548"},{"id":86666,"Name":"Kobylin","state_id":1634,"state_code":"WP","state_name":"Greater Poland Voivodeship","country_id":176,"country_code":"PL","country_name":"Poland","latitude":"51.71645000","longitude":"17.22682000","wikiDataId":"Q990816"},{"id":86667,"Name":"Kobylnica","state_id":1634,"state_code":"WP","state_name":"Greater Poland Voivodeship","country_id":176,"country_code":"PL","country_name":"Poland","latitude":"52.44597000","longitude":"17.07644000","wikiDataId":"Q303417"},{"id":86740,"Name":"Kołaczkowo","state_id":1634,"state_code":"WP","state_name":"Greater Poland Voivodeship","country_id":176,"country_code":"PL","country_name":"Poland","latitude":"52.21739000","longitude":"17.62413000","wikiDataId":"Q2847280"},{"id":86745,"Name":"Koło","state_id":1634,"state_code":"WP","state_name":"Greater Poland Voivodeship","country_id":176,"country_code":"PL","country_name":"Poland","latitude":"52.20024000","longitude":"18.63865000","wikiDataId":"Q52853"},{"id":86686,"Name":"Komorniki","state_id":1634,"state_code":"WP","state_name":"Greater Poland Voivodeship","country_id":176,"country_code":"PL","country_name":"Poland","latitude":"52.33870000","longitude":"16.81063000","wikiDataId":"Q1025253"},{"id":86689,"Name":"Konary","state_id":1634,"state_code":"WP","state_name":"Greater Poland Voivodeship","country_id":176,"country_code":"PL","country_name":"Poland","latitude":"51.65690000","longitude":"17.04185000","wikiDataId":"Q6428853"},{"id":86693,"Name":"Konin","state_id":1634,"state_code":"WP","state_name":"Greater Poland Voivodeship","country_id":176,"country_code":"PL","country_name":"Poland","latitude":"52.22338000","longitude":"18.25121000","wikiDataId":"Q6429346"},{"id":86851,"Name":"Kórnik","state_id":1634,"state_code":"WP","state_name":"Greater Poland Voivodeship","country_id":176,"country_code":"PL","country_name":"Poland","latitude":"52.24772000","longitude":"17.08949000","wikiDataId":"Q51408"},{"id":86752,"Name":"Kościan","state_id":1634,"state_code":"WP","state_name":"Greater Poland Voivodeship","country_id":176,"country_code":"PL","country_name":"Poland","latitude":"52.08829000","longitude":"16.64866000","wikiDataId":"Q52889"},{"id":86754,"Name":"Kościelec","state_id":1634,"state_code":"WP","state_name":"Greater Poland Voivodeship","country_id":176,"country_code":"PL","country_name":"Poland","latitude":"52.17425000","longitude":"18.57067000","wikiDataId":"Q554594"},{"id":86714,"Name":"Kostrzyn","state_id":1634,"state_code":"WP","state_name":"Greater Poland Voivodeship","country_id":176,"country_code":"PL","country_name":"Poland","latitude":"52.39847000","longitude":"17.22811000","wikiDataId":"Q52850"},{"id":86723,"Name":"Kotlin","state_id":1634,"state_code":"WP","state_name":"Greater Poland Voivodeship","country_id":176,"country_code":"PL","country_name":"Poland","latitude":"51.91913000","longitude":"17.64825000","wikiDataId":"Q985098"},{"id":86758,"Name":"Koźmin Wielkopolski","state_id":1634,"state_code":"WP","state_name":"Greater Poland Voivodeship","country_id":176,"country_code":"PL","country_name":"Poland","latitude":"51.82712000","longitude":"17.45391000","wikiDataId":"Q679745"},{"id":86759,"Name":"Koźminek","state_id":1634,"state_code":"WP","state_name":"Greater Poland Voivodeship","country_id":176,"country_code":"PL","country_name":"Poland","latitude":"51.79874000","longitude":"18.33893000","wikiDataId":"Q555103"},{"id":86762,"Name":"Krajenka","state_id":1634,"state_code":"WP","state_name":"Greater Poland Voivodeship","country_id":176,"country_code":"PL","country_name":"Poland","latitude":"53.29759000","longitude":"16.99079000","wikiDataId":"Q741667"},{"id":86765,"Name":"Kramsk","state_id":1634,"state_code":"WP","state_name":"Greater Poland Voivodeship","country_id":176,"country_code":"PL","country_name":"Poland","latitude":"52.26469000","longitude":"18.42407000","wikiDataId":"Q985369"},{"id":86775,"Name":"Kraszewice","state_id":1634,"state_code":"WP","state_name":"Greater Poland Voivodeship","country_id":176,"country_code":"PL","country_name":"Poland","latitude":"51.51868000","longitude":"18.21997000","wikiDataId":"Q554929"},{"id":86779,"Name":"Krobia","state_id":1634,"state_code":"WP","state_name":"Greater Poland Voivodeship","country_id":176,"country_code":"PL","country_name":"Poland","latitude":"51.77405000","longitude":"16.98237000","wikiDataId":"Q556944"},{"id":86783,"Name":"Krosno","state_id":1634,"state_code":"WP","state_name":"Greater Poland Voivodeship","country_id":176,"country_code":"PL","country_name":"Poland","latitude":"52.22357000","longitude":"16.83251000","wikiDataId":"Q11748364"},{"id":86785,"Name":"Krotoszyn","state_id":1634,"state_code":"WP","state_name":"Greater Poland Voivodeship","country_id":176,"country_code":"PL","country_name":"Poland","latitude":"51.69868000","longitude":"17.43738000","wikiDataId":"Q984538"},{"id":86806,"Name":"Krzemieniewo","state_id":1634,"state_code":"WP","state_name":"Greater Poland Voivodeship","country_id":176,"country_code":"PL","country_name":"Poland","latitude":"51.85905000","longitude":"16.83354000","wikiDataId":"Q554625"},{"id":86814,"Name":"Krzykosy","state_id":1634,"state_code":"WP","state_name":"Greater Poland Voivodeship","country_id":176,"country_code":"PL","country_name":"Poland","latitude":"52.11041000","longitude":"17.37411000","wikiDataId":"Q6440009"},{"id":86820,"Name":"Krzywiń","state_id":1634,"state_code":"WP","state_name":"Greater Poland Voivodeship","country_id":176,"country_code":"PL","country_name":"Poland","latitude":"51.96296000","longitude":"16.81985000","wikiDataId":"Q1323393"},{"id":86821,"Name":"Krzyż Wielkopolski","state_id":1634,"state_code":"WP","state_name":"Greater Poland Voivodeship","country_id":176,"country_code":"PL","country_name":"Poland","latitude":"52.88097000","longitude":"16.01116000","wikiDataId":"Q1323393"},{"id":86829,"Name":"Książ Wielkopolski","state_id":1634,"state_code":"WP","state_name":"Greater Poland Voivodeship","country_id":176,"country_code":"PL","country_name":"Poland","latitude":"52.06167000","longitude":"17.23952000","wikiDataId":"Q1007342"},{"id":86845,"Name":"Kuślin","state_id":1634,"state_code":"WP","state_name":"Greater Poland Voivodeship","country_id":176,"country_code":"PL","country_name":"Poland","latitude":"52.36386000","longitude":"16.31538000","wikiDataId":"Q1007362"},{"id":86850,"Name":"Kwilcz","state_id":1634,"state_code":"WP","state_name":"Greater Poland Voivodeship","country_id":176,"country_code":"PL","country_name":"Poland","latitude":"52.55506000","longitude":"16.08562000","wikiDataId":"Q1005252"},{"id":86976,"Name":"Lądek","state_id":1634,"state_code":"WP","state_name":"Greater Poland Voivodeship","country_id":176,"country_code":"PL","country_name":"Poland","latitude":"52.20929000","longitude":"17.92994000","wikiDataId":"Q985209"},{"id":86883,"Name":"Leszno","state_id":1634,"state_code":"WP","state_name":"Greater Poland Voivodeship","country_id":176,"country_code":"PL","country_name":"Poland","latitude":"51.84034000","longitude":"16.57494000","wikiDataId":"Q52892"},{"id":86898,"Name":"Licheń Stary","state_id":1634,"state_code":"WP","state_name":"Greater Poland Voivodeship","country_id":176,"country_code":"PL","country_name":"Poland","latitude":"52.31226000","longitude":"18.35515000","wikiDataId":"Q521548"},{"id":86910,"Name":"Lipka","state_id":1634,"state_code":"WP","state_name":"Greater Poland Voivodeship","country_id":176,"country_code":"PL","country_name":"Poland","latitude":"53.49601000","longitude":"17.25085000","wikiDataId":"Q18180404"},{"id":86918,"Name":"Lipno","state_id":1634,"state_code":"WP","state_name":"Greater Poland Voivodeship","country_id":176,"country_code":"PL","country_name":"Poland","latitude":"51.91722000","longitude":"16.56708000","wikiDataId":"Q555095"},{"id":86927,"Name":"Lisków","state_id":1634,"state_code":"WP","state_name":"Greater Poland Voivodeship","country_id":176,"country_code":"PL","country_name":"Poland","latitude":"51.83313000","longitude":"18.39789000","wikiDataId":"Q985694"},{"id":86933,"Name":"Lubasz","state_id":1634,"state_code":"WP","state_name":"Greater Poland Voivodeship","country_id":176,"country_code":"PL","country_name":"Poland","latitude":"52.85213000","longitude":"16.52344000","wikiDataId":"Q554893"},{"id":86956,"Name":"Luboń","state_id":1634,"state_code":"WP","state_name":"Greater Poland Voivodeship","country_id":176,"country_code":"PL","country_name":"Poland","latitude":"52.34705000","longitude":"16.89267000","wikiDataId":"Q50973"},{"id":86973,"Name":"Lwówek","state_id":1634,"state_code":"WP","state_name":"Greater Poland Voivodeship","country_id":176,"country_code":"PL","country_name":"Poland","latitude":"52.44798000","longitude":"16.18106000","wikiDataId":"Q1005905"},{"id":88820,"Name":"Łęka Opatowska","state_id":1634,"state_code":"WP","state_name":"Greater Poland Voivodeship","country_id":176,"country_code":"PL","country_name":"Poland","latitude":"51.21231000","longitude":"18.10710000","wikiDataId":"Q384519"},{"id":88781,"Name":"Łobżenica","state_id":1634,"state_code":"WP","state_name":"Greater Poland Voivodeship","country_id":176,"country_code":"PL","country_name":"Poland","latitude":"53.26244000","longitude":"17.25574000","wikiDataId":"Q345386"},{"id":88801,"Name":"Łubowo","state_id":1634,"state_code":"WP","state_name":"Greater Poland Voivodeship","country_id":176,"country_code":"PL","country_name":"Poland","latitude":"52.51168000","longitude":"17.45333000","wikiDataId":"Q556545"},{"id":86985,"Name":"Malanów","state_id":1634,"state_code":"WP","state_name":"Greater Poland Voivodeship","country_id":176,"country_code":"PL","country_name":"Poland","latitude":"51.95358000","longitude":"18.39128000","wikiDataId":"Q556230"},{"id":86992,"Name":"Margonin","state_id":1634,"state_code":"WP","state_name":"Greater Poland Voivodeship","country_id":176,"country_code":"PL","country_name":"Poland","latitude":"52.97335000","longitude":"17.09464000","wikiDataId":"Q990186"},{"id":87015,"Name":"Miasteczko Krajeńskie","state_id":1634,"state_code":"WP","state_name":"Greater Poland Voivodeship","country_id":176,"country_code":"PL","country_name":"Poland","latitude":"53.09784000","longitude":"17.00478000","wikiDataId":"Q2856331"},{"id":87029,"Name":"Miedzichowo","state_id":1634,"state_code":"WP","state_name":"Greater Poland Voivodeship","country_id":176,"country_code":"PL","country_name":"Poland","latitude":"52.37581000","longitude":"15.95876000","wikiDataId":"Q2673917"},{"id":87061,"Name":"Międzychód","state_id":1634,"state_code":"WP","state_name":"Greater Poland Voivodeship","country_id":176,"country_code":"PL","country_name":"Poland","latitude":"52.59882000","longitude":"15.89696000","wikiDataId":"Q556484"},{"id":87034,"Name":"Miejska Górka","state_id":1634,"state_code":"WP","state_name":"Greater Poland Voivodeship","country_id":176,"country_code":"PL","country_name":"Poland","latitude":"51.65573000","longitude":"16.95826000","wikiDataId":"Q1421485"},{"id":87036,"Name":"Mieleszyn","state_id":1634,"state_code":"WP","state_name":"Greater Poland Voivodeship","country_id":176,"country_code":"PL","country_name":"Poland","latitude":"52.66868000","longitude":"17.49779000","wikiDataId":"Q555046"},{"id":87041,"Name":"Mieścisko","state_id":1634,"state_code":"WP","state_name":"Greater Poland Voivodeship","country_id":176,"country_code":"PL","country_name":"Poland","latitude":"52.74357000","longitude":"17.33213000","wikiDataId":"Q254054"},{"id":87045,"Name":"Mikstat","state_id":1634,"state_code":"WP","state_name":"Greater Poland Voivodeship","country_id":176,"country_code":"PL","country_name":"Poland","latitude":"51.53236000","longitude":"17.97378000","wikiDataId":"Q1551924"},{"id":87074,"Name":"Miłosław","state_id":1634,"state_code":"WP","state_name":"Greater Poland Voivodeship","country_id":176,"country_code":"PL","country_name":"Poland","latitude":"52.20318000","longitude":"17.48955000","wikiDataId":"Q1025299"},{"id":87094,"Name":"Mosina","state_id":1634,"state_code":"WP","state_name":"Greater Poland Voivodeship","country_id":176,"country_code":"PL","country_name":"Poland","latitude":"52.24543000","longitude":"16.84709000","wikiDataId":"Q50968"},{"id":87113,"Name":"Murowana Goślina","state_id":1634,"state_code":"WP","state_name":"Greater Poland Voivodeship","country_id":176,"country_code":"PL","country_name":"Poland","latitude":"52.57463000","longitude":"17.00933000","wikiDataId":"Q51003"},{"id":87144,"Name":"Nekla","state_id":1634,"state_code":"WP","state_name":"Greater Poland Voivodeship","country_id":176,"country_code":"PL","country_name":"Poland","latitude":"52.36496000","longitude":"17.41329000","wikiDataId":"Q1005827"},{"id":87151,"Name":"Niechanowo","state_id":1634,"state_code":"WP","state_name":"Greater Poland Voivodeship","country_id":176,"country_code":"PL","country_name":"Poland","latitude":"52.46527000","longitude":"17.67812000","wikiDataId":"Q910066"},{"id":87188,"Name":"Nowe Miasto nad Wartą","state_id":1634,"state_code":"WP","state_name":"Greater Poland Voivodeship","country_id":176,"country_code":"PL","country_name":"Poland","latitude":"52.09007000","longitude":"17.41114000","wikiDataId":"Q1019505"},{"id":87191,"Name":"Nowe Skalmierzyce","state_id":1634,"state_code":"WP","state_name":"Greater Poland Voivodeship","country_id":176,"country_code":"PL","country_name":"Poland","latitude":"51.71038000","longitude":"17.99337000","wikiDataId":"Q557257"},{"id":87208,"Name":"Nowy Tomyśl","state_id":1634,"state_code":"WP","state_name":"Greater Poland Voivodeship","country_id":176,"country_code":"PL","country_name":"Poland","latitude":"52.31950000","longitude":"16.12844000","wikiDataId":"Q554752"},{"id":87216,"Name":"Oborniki","state_id":1634,"state_code":"WP","state_name":"Greater Poland Voivodeship","country_id":176,"country_code":"PL","country_name":"Poland","latitude":"52.64739000","longitude":"16.81406000","wikiDataId":"Q639212"},{"id":87221,"Name":"Obrzycko","state_id":1634,"state_code":"WP","state_name":"Greater Poland Voivodeship","country_id":176,"country_code":"PL","country_name":"Poland","latitude":"52.70338000","longitude":"16.52807000","wikiDataId":"Q52894"},{"id":87228,"Name":"Odolanów","state_id":1634,"state_code":"WP","state_name":"Greater Poland Voivodeship","country_id":176,"country_code":"PL","country_name":"Poland","latitude":"51.57419000","longitude":"17.67434000","wikiDataId":"Q745567"},{"id":87234,"Name":"Okonek","state_id":1634,"state_code":"WP","state_name":"Greater Poland Voivodeship","country_id":176,"country_code":"PL","country_name":"Poland","latitude":"53.53618000","longitude":"16.85158000","wikiDataId":"Q1021272"},{"id":87252,"Name":"Olszówka","state_id":1634,"state_code":"WP","state_name":"Greater Poland Voivodeship","country_id":176,"country_code":"PL","country_name":"Poland","latitude":"52.19030000","longitude":"18.86258000","wikiDataId":"Q555435"},{"id":87254,"Name":"Opalenica","state_id":1634,"state_code":"WP","state_name":"Greater Poland Voivodeship","country_id":176,"country_code":"PL","country_name":"Poland","latitude":"52.30887000","longitude":"16.41278000","wikiDataId":"Q202889"},{"id":87257,"Name":"Opatów","state_id":1634,"state_code":"WP","state_name":"Greater Poland Voivodeship","country_id":176,"country_code":"PL","country_name":"Poland","latitude":"51.21463000","longitude":"18.14615000","wikiDataId":"Q2025014"},{"id":87259,"Name":"Opatówek","state_id":1634,"state_code":"WP","state_name":"Greater Poland Voivodeship","country_id":176,"country_code":"PL","country_name":"Poland","latitude":"51.73989000","longitude":"18.21653000","wikiDataId":"Q737790"},{"id":87265,"Name":"Orchowo","state_id":1634,"state_code":"WP","state_name":"Greater Poland Voivodeship","country_id":176,"country_code":"PL","country_name":"Poland","latitude":"52.50938000","longitude":"18.01578000","wikiDataId":"Q1006856"},{"id":87279,"Name":"Osieczna","state_id":1634,"state_code":"WP","state_name":"Greater Poland Voivodeship","country_id":176,"country_code":"PL","country_name":"Poland","latitude":"51.90420000","longitude":"16.67862000","wikiDataId":"Q382587"},{"id":87289,"Name":"Osiek Mały","state_id":1634,"state_code":"WP","state_name":"Greater Poland Voivodeship","country_id":176,"country_code":"PL","country_name":"Poland","latitude":"52.27630000","longitude":"18.60234000","wikiDataId":"Q554041"},{"id":87290,"Name":"Osiek nad Notecią","state_id":1634,"state_code":"WP","state_name":"Greater Poland Voivodeship","country_id":176,"country_code":"PL","country_name":"Poland","latitude":"53.12030000","longitude":"17.29102000","wikiDataId":"Q7106782"},{"id":87297,"Name":"Ostroróg","state_id":1634,"state_code":"WP","state_name":"Greater Poland Voivodeship","country_id":176,"country_code":"PL","country_name":"Poland","latitude":"52.62650000","longitude":"16.44988000","wikiDataId":"Q1005885"},{"id":87311,"Name":"Ostrów Wielkopolski","state_id":1634,"state_code":"WP","state_name":"Greater Poland Voivodeship","country_id":176,"country_code":"PL","country_name":"Poland","latitude":"51.65501000","longitude":"17.80686000","wikiDataId":"Q52895"},{"id":87301,"Name":"Ostrowite","state_id":1634,"state_code":"WP","state_name":"Greater Poland Voivodeship","country_id":176,"country_code":"PL","country_name":"Poland","latitude":"52.38199000","longitude":"18.04470000","wikiDataId":"Q555278"},{"id":87306,"Name":"Ostrzeszów","state_id":1634,"state_code":"WP","state_name":"Greater Poland Voivodeship","country_id":176,"country_code":"PL","country_name":"Poland","latitude":"51.42640000","longitude":"17.93355000","wikiDataId":"Q642192"},{"id":87336,"Name":"Pakosław","state_id":1634,"state_code":"WP","state_name":"Greater Poland Voivodeship","country_id":176,"country_code":"PL","country_name":"Poland","latitude":"51.61438000","longitude":"17.05793000","wikiDataId":"Q555390"},{"id":87340,"Name":"Pamiątkowo","state_id":1634,"state_code":"WP","state_name":"Greater Poland Voivodeship","country_id":176,"country_code":"PL","country_name":"Poland","latitude":"52.55334000","longitude":"16.68094000","wikiDataId":"Q7129332"},{"id":87362,"Name":"Pecna","state_id":1634,"state_code":"WP","state_name":"Greater Poland Voivodeship","country_id":176,"country_code":"PL","country_name":"Poland","latitude":"52.18333000","longitude":"16.80000000","wikiDataId":"Q747632"},{"id":87861,"Name":"Pępowo","state_id":1634,"state_code":"WP","state_name":"Greater Poland Voivodeship","country_id":176,"country_code":"PL","country_name":"Poland","latitude":"51.76569000","longitude":"17.12661000","wikiDataId":"Q555557"},{"id":87364,"Name":"Perzów","state_id":1634,"state_code":"WP","state_name":"Greater Poland Voivodeship","country_id":176,"country_code":"PL","country_name":"Poland","latitude":"51.27625000","longitude":"17.80970000","wikiDataId":"Q920289"},{"id":87371,"Name":"Piaski","state_id":1634,"state_code":"WP","state_name":"Greater Poland Voivodeship","country_id":176,"country_code":"PL","country_name":"Poland","latitude":"51.88497000","longitude":"17.07293000","wikiDataId":"Q559827"},{"id":87403,"Name":"Piła","state_id":1634,"state_code":"WP","state_name":"Greater Poland Voivodeship","country_id":176,"country_code":"PL","country_name":"Poland","latitude":"53.15145000","longitude":"16.73782000","wikiDataId":"Q556200"},{"id":87406,"Name":"Pleszew","state_id":1634,"state_code":"WP","state_name":"Greater Poland Voivodeship","country_id":176,"country_code":"PL","country_name":"Poland","latitude":"51.89636000","longitude":"17.78549000","wikiDataId":"Q555876"},{"id":87407,"Name":"Plewiska","state_id":1634,"state_code":"WP","state_name":"Greater Poland Voivodeship","country_id":176,"country_code":"PL","country_name":"Poland","latitude":"52.36706000","longitude":"16.80985000","wikiDataId":"Q2017869"},{"id":87409,"Name":"Pniewy","state_id":1634,"state_code":"WP","state_name":"Greater Poland Voivodeship","country_id":176,"country_code":"PL","country_name":"Poland","latitude":"52.50943000","longitude":"16.25668000","wikiDataId":"Q52896"},{"id":87410,"Name":"Pobiedziska","state_id":1634,"state_code":"WP","state_name":"Greater Poland Voivodeship","country_id":176,"country_code":"PL","country_name":"Poland","latitude":"52.47753000","longitude":"17.28767000","wikiDataId":"Q50992"},{"id":87420,"Name":"Pogorzela","state_id":1634,"state_code":"WP","state_name":"Greater Poland Voivodeship","country_id":176,"country_code":"PL","country_name":"Poland","latitude":"51.82220000","longitude":"17.23017000","wikiDataId":"Q990791"},{"id":87775,"Name":"Połajewo","state_id":1634,"state_code":"WP","state_name":"Greater Poland Voivodeship","country_id":176,"country_code":"PL","country_name":"Poland","latitude":"52.79923000","longitude":"16.73347000","wikiDataId":"Q557060"},{"id":87440,"Name":"Poniec","state_id":1634,"state_code":"WP","state_name":"Greater Poland Voivodeship","country_id":176,"country_code":"PL","country_name":"Poland","latitude":"51.76343000","longitude":"16.80867000","wikiDataId":"Q1002670"},{"id":87484,"Name":"Powiat chodzieski","state_id":1634,"state_code":"WP","state_name":"Greater Poland Voivodeship","country_id":176,"country_code":"PL","country_name":"Poland","latitude":"52.95289000","longitude":"17.01545000","wikiDataId":"Q133161"},{"id":87490,"Name":"Powiat czarnkowsko-trzcianecki","state_id":1634,"state_code":"WP","state_name":"Greater Poland Voivodeship","country_id":176,"country_code":"PL","country_name":"Poland","latitude":"52.92885000","longitude":"16.34673000","wikiDataId":"Q133164"},{"id":87504,"Name":"Powiat gnieźnieński","state_id":1634,"state_code":"WP","state_name":"Greater Poland Voivodeship","country_id":176,"country_code":"PL","country_name":"Poland","latitude":"52.55359000","longitude":"17.57140000","wikiDataId":"Q133166"},{"id":87510,"Name":"Powiat gostyński","state_id":1634,"state_code":"WP","state_name":"Greater Poland Voivodeship","country_id":176,"country_code":"PL","country_name":"Poland","latitude":"51.83680000","longitude":"17.03471000","wikiDataId":"Q133170"},{"id":87514,"Name":"Powiat grodziski","state_id":1634,"state_code":"WP","state_name":"Greater Poland Voivodeship","country_id":176,"country_code":"PL","country_name":"Poland","latitude":"52.16038000","longitude":"16.33566000","wikiDataId":"Q133172"},{"id":87527,"Name":"Powiat jarociński","state_id":1634,"state_code":"WP","state_name":"Greater Poland Voivodeship","country_id":176,"country_code":"PL","country_name":"Poland","latitude":"52.00901000","longitude":"17.45497000","wikiDataId":"Q133176"},{"id":87533,"Name":"Powiat kaliski","state_id":1634,"state_code":"WP","state_name":"Greater Poland Voivodeship","country_id":176,"country_code":"PL","country_name":"Poland","latitude":"51.78921000","longitude":"18.20809000","wikiDataId":"Q133178"},{"id":87560,"Name":"Powiat kępiński","state_id":1634,"state_code":"WP","state_name":"Greater Poland Voivodeship","country_id":176,"country_code":"PL","country_name":"Poland","latitude":"51.24852000","longitude":"17.95934000","wikiDataId":"Q133195"},{"id":87542,"Name":"Powiat kolski","state_id":1634,"state_code":"WP","state_name":"Greater Poland Voivodeship","country_id":176,"country_code":"PL","country_name":"Poland","latitude":"52.24446000","longitude":"18.78096000","wikiDataId":"Q133180"},{"id":87544,"Name":"Powiat koniński","state_id":1634,"state_code":"WP","state_name":"Greater Poland Voivodeship","country_id":176,"country_code":"PL","country_name":"Poland","latitude":"52.25965000","longitude":"18.29616000","wikiDataId":"Q133185"},{"id":87548,"Name":"Powiat kościański","state_id":1634,"state_code":"WP","state_name":"Greater Poland Voivodeship","country_id":176,"country_code":"PL","country_name":"Poland","latitude":"52.06616000","longitude":"16.71514000","wikiDataId":"Q133188"},{"id":87554,"Name":"Powiat krotoszyński","state_id":1634,"state_code":"WP","state_name":"Greater Poland Voivodeship","country_id":176,"country_code":"PL","country_name":"Poland","latitude":"51.74174000","longitude":"17.42125000","wikiDataId":"Q133191"},{"id":87567,"Name":"Powiat leszczyński","state_id":1634,"state_code":"WP","state_name":"Greater Poland Voivodeship","country_id":176,"country_code":"PL","country_name":"Poland","latitude":"51.85010000","longitude":"16.50120000","wikiDataId":"Q133202"},{"id":87587,"Name":"Powiat międzychodzki","state_id":1634,"state_code":"WP","state_name":"Greater Poland Voivodeship","country_id":176,"country_code":"PL","country_name":"Poland","latitude":"52.60187000","longitude":"16.05741000","wikiDataId":"Q133209"},{"id":87607,"Name":"Powiat nowotomyski","state_id":1634,"state_code":"WP","state_name":"Greater Poland Voivodeship","country_id":176,"country_code":"PL","country_name":"Poland","latitude":"52.34837000","longitude":"16.15849000","wikiDataId":"Q133241"},{"id":87609,"Name":"Powiat obornicki","state_id":1634,"state_code":"WP","state_name":"Greater Poland Voivodeship","country_id":176,"country_code":"PL","country_name":"Poland","latitude":"52.71705000","longitude":"16.85437000","wikiDataId":"Q133213"},{"id":87621,"Name":"Powiat ostrowski","state_id":1634,"state_code":"WP","state_name":"Greater Poland Voivodeship","country_id":176,"country_code":"PL","country_name":"Poland","latitude":"51.60798000","longitude":"17.85030000","wikiDataId":"Q133216"},{"id":87623,"Name":"Powiat ostrzeszowski","state_id":1634,"state_code":"WP","state_name":"Greater Poland Voivodeship","country_id":176,"country_code":"PL","country_name":"Poland","latitude":"51.43768000","longitude":"18.04334000","wikiDataId":"Q133218"},{"id":87632,"Name":"Powiat pilski","state_id":1634,"state_code":"WP","state_name":"Greater Poland Voivodeship","country_id":176,"country_code":"PL","country_name":"Poland","latitude":"53.15753000","longitude":"16.91465000","wikiDataId":"Q133230"},{"id":87636,"Name":"Powiat pleszewski","state_id":1634,"state_code":"WP","state_name":"Greater Poland Voivodeship","country_id":176,"country_code":"PL","country_name":"Poland","latitude":"51.92526000","longitude":"17.77850000","wikiDataId":"Q133236"},{"id":87640,"Name":"Powiat poznański","state_id":1634,"state_code":"WP","state_name":"Greater Poland Voivodeship","country_id":176,"country_code":"PL","country_name":"Poland","latitude":"52.32443000","longitude":"16.86539000","wikiDataId":"Q101575"},{"id":87660,"Name":"Powiat rawicki","state_id":1634,"state_code":"WP","state_name":"Greater Poland Voivodeship","country_id":176,"country_code":"PL","country_name":"Poland","latitude":"51.64507000","longitude":"16.94944000","wikiDataId":"Q133248"},{"id":87699,"Name":"Powiat słupecki","state_id":1634,"state_code":"WP","state_name":"Greater Poland Voivodeship","country_id":176,"country_code":"PL","country_name":"Poland","latitude":"52.31422000","longitude":"17.90822000","wikiDataId":"Q133257"},{"id":87757,"Name":"Powiat średzki","state_id":1634,"state_code":"WP","state_name":"Greater Poland Voivodeship","country_id":176,"country_code":"PL","country_name":"Poland","latitude":"52.18010000","longitude":"17.30686000","wikiDataId":"Q133280"},{"id":87758,"Name":"Powiat śremski","state_id":1634,"state_code":"WP","state_name":"Greater Poland Voivodeship","country_id":176,"country_code":"PL","country_name":"Poland","latitude":"52.06149000","longitude":"17.05853000","wikiDataId":"Q133282"},{"id":87691,"Name":"Powiat szamotulski","state_id":1634,"state_code":"WP","state_name":"Greater Poland Voivodeship","country_id":176,"country_code":"PL","country_name":"Poland","latitude":"52.58391000","longitude":"16.37726000","wikiDataId":"Q133252"},{"id":87711,"Name":"Powiat turecki","state_id":1634,"state_code":"WP","state_name":"Greater Poland Voivodeship","country_id":176,"country_code":"PL","country_name":"Poland","latitude":"51.99581000","longitude":"18.49301000","wikiDataId":"Q133260"},{"id":87730,"Name":"Powiat wągrowiecki","state_id":1634,"state_code":"WP","state_name":"Greater Poland Voivodeship","country_id":176,"country_code":"PL","country_name":"Poland","latitude":"52.80805000","longitude":"17.21077000","wikiDataId":"Q133265"},{"id":87721,"Name":"Powiat wolsztyński","state_id":1634,"state_code":"WP","state_name":"Greater Poland Voivodeship","country_id":176,"country_code":"PL","country_name":"Poland","latitude":"52.08791000","longitude":"16.14983000","wikiDataId":"Q133262"},{"id":87725,"Name":"Powiat wrzesiński","state_id":1634,"state_code":"WP","state_name":"Greater Poland Voivodeship","country_id":176,"country_code":"PL","country_name":"Poland","latitude":"52.24091000","longitude":"17.59019000","wikiDataId":"Q133268"},{"id":87746,"Name":"Powiat złotowski","state_id":1634,"state_code":"WP","state_name":"Greater Poland Voivodeship","country_id":176,"country_code":"PL","country_name":"Poland","latitude":"53.41261000","longitude":"16.91516000","wikiDataId":"Q133272"},{"id":87770,"Name":"Powidz","state_id":1634,"state_code":"WP","state_name":"Greater Poland Voivodeship","country_id":176,"country_code":"PL","country_name":"Poland","latitude":"52.41362000","longitude":"17.91926000","wikiDataId":"Q554047"},{"id":87774,"Name":"Poznań","state_id":1634,"state_code":"WP","state_name":"Greater Poland Voivodeship","country_id":176,"country_code":"PL","country_name":"Poland","latitude":"52.40692000","longitude":"16.92993000","wikiDataId":"Q268"},{"id":87807,"Name":"Przedecz","state_id":1634,"state_code":"WP","state_name":"Greater Poland Voivodeship","country_id":176,"country_code":"PL","country_name":"Poland","latitude":"52.33440000","longitude":"18.89915000","wikiDataId":"Q986966"},{"id":87813,"Name":"Przemęt","state_id":1634,"state_code":"WP","state_name":"Greater Poland Voivodeship","country_id":176,"country_code":"PL","country_name":"Poland","latitude":"52.00808000","longitude":"16.30114000","wikiDataId":"Q555352"},{"id":87824,"Name":"Przygodzice","state_id":1634,"state_code":"WP","state_name":"Greater Poland Voivodeship","country_id":176,"country_code":"PL","country_name":"Poland","latitude":"51.59195000","longitude":"17.82412000","wikiDataId":"Q285128"},{"id":87825,"Name":"Przykona","state_id":1634,"state_code":"WP","state_name":"Greater Poland Voivodeship","country_id":176,"country_code":"PL","country_name":"Poland","latitude":"51.98171000","longitude":"18.61247000","wikiDataId":"Q285128"},{"id":87850,"Name":"Puszczykowo","state_id":1634,"state_code":"WP","state_name":"Greater Poland Voivodeship","country_id":176,"country_code":"PL","country_name":"Poland","latitude":"52.28570000","longitude":"16.84925000","wikiDataId":"Q50978"},{"id":87858,"Name":"Pyzdry","state_id":1634,"state_code":"WP","state_name":"Greater Poland Voivodeship","country_id":176,"country_code":"PL","country_name":"Poland","latitude":"52.17056000","longitude":"17.69005000","wikiDataId":"Q990779"},{"id":87909,"Name":"Rakoniewice","state_id":1634,"state_code":"WP","state_name":"Greater Poland Voivodeship","country_id":176,"country_code":"PL","country_name":"Poland","latitude":"52.13906000","longitude":"16.27346000","wikiDataId":"Q1587810"},{"id":87914,"Name":"Raszków","state_id":1634,"state_code":"WP","state_name":"Greater Poland Voivodeship","country_id":176,"country_code":"PL","country_name":"Poland","latitude":"51.71828000","longitude":"17.72571000","wikiDataId":"Q990795"},{"id":87919,"Name":"Rawicz","state_id":1634,"state_code":"WP","state_name":"Greater Poland Voivodeship","country_id":176,"country_code":"PL","country_name":"Poland","latitude":"51.60946000","longitude":"16.85852000","wikiDataId":"Q52898"},{"id":87943,"Name":"Rogalinek","state_id":1634,"state_code":"WP","state_name":"Greater Poland Voivodeship","country_id":176,"country_code":"PL","country_name":"Poland","latitude":"52.24945000","longitude":"16.89989000","wikiDataId":"Q7357674"},{"id":87946,"Name":"Rogoźno","state_id":1634,"state_code":"WP","state_name":"Greater Poland Voivodeship","country_id":176,"country_code":"PL","country_name":"Poland","latitude":"52.75226000","longitude":"16.99049000","wikiDataId":"Q987193"},{"id":87957,"Name":"Rokietnica","state_id":1634,"state_code":"WP","state_name":"Greater Poland Voivodeship","country_id":176,"country_code":"PL","country_name":"Poland","latitude":"52.51245000","longitude":"16.74570000","wikiDataId":"Q554945"},{"id":87964,"Name":"Rozdrażew","state_id":1634,"state_code":"WP","state_name":"Greater Poland Voivodeship","country_id":176,"country_code":"PL","country_name":"Poland","latitude":"51.78218000","longitude":"17.50491000","wikiDataId":"Q985156"},{"id":87999,"Name":"Rychtal","state_id":1634,"state_code":"WP","state_name":"Greater Poland Voivodeship","country_id":176,"country_code":"PL","country_name":"Poland","latitude":"51.14533000","longitude":"17.85132000","wikiDataId":"Q2178152"},{"id":88000,"Name":"Rychwał","state_id":1634,"state_code":"WP","state_name":"Greater Poland Voivodeship","country_id":176,"country_code":"PL","country_name":"Poland","latitude":"52.07149000","longitude":"18.16510000","wikiDataId":"Q259489"},{"id":88002,"Name":"Ryczywół","state_id":1634,"state_code":"WP","state_name":"Greater Poland Voivodeship","country_id":176,"country_code":"PL","country_name":"Poland","latitude":"52.81324000","longitude":"16.83114000","wikiDataId":"Q555297"},{"id":88005,"Name":"Rydzyna","state_id":1634,"state_code":"WP","state_name":"Greater Poland Voivodeship","country_id":176,"country_code":"PL","country_name":"Poland","latitude":"51.78651000","longitude":"16.66761000","wikiDataId":"Q995872"},{"id":88028,"Name":"Rzgów Pierwszy","state_id":1634,"state_code":"WP","state_name":"Greater Poland Voivodeship","country_id":176,"country_code":"PL","country_name":"Poland","latitude":"52.15134000","longitude":"18.04976000","wikiDataId":"Q2178460"},{"id":88065,"Name":"Siedlec","state_id":1634,"state_code":"WP","state_name":"Greater Poland Voivodeship","country_id":176,"country_code":"PL","country_name":"Poland","latitude":"52.13781000","longitude":"16.00279000","wikiDataId":"Q554727"},{"id":88088,"Name":"Sieraków","state_id":1634,"state_code":"WP","state_name":"Greater Poland Voivodeship","country_id":176,"country_code":"PL","country_name":"Poland","latitude":"52.65134000","longitude":"16.08047000","wikiDataId":"Q987997"},{"id":88090,"Name":"Sieroszewice","state_id":1634,"state_code":"WP","state_name":"Greater Poland Voivodeship","country_id":176,"country_code":"PL","country_name":"Poland","latitude":"51.63347000","longitude":"17.97200000","wikiDataId":"Q7511237"},{"id":88096,"Name":"Skalmierzyce","state_id":1634,"state_code":"WP","state_name":"Greater Poland Voivodeship","country_id":176,"country_code":"PL","country_name":"Poland","latitude":"51.70097000","longitude":"17.96333000","wikiDataId":"Q2381397"},{"id":88109,"Name":"Skoki","state_id":1634,"state_code":"WP","state_name":"Greater Poland Voivodeship","country_id":176,"country_code":"PL","country_name":"Poland","latitude":"52.67222000","longitude":"17.16107000","wikiDataId":"Q557306"},{"id":88119,"Name":"Skulsk","state_id":1634,"state_code":"WP","state_name":"Greater Poland Voivodeship","country_id":176,"country_code":"PL","country_name":"Poland","latitude":"52.48200000","longitude":"18.33112000","wikiDataId":"Q985057"},{"id":88832,"Name":"Ślesin","state_id":1634,"state_code":"WP","state_name":"Greater Poland Voivodeship","country_id":176,"country_code":"PL","country_name":"Poland","latitude":"52.37039000","longitude":"18.30644000","wikiDataId":"Q387117"},{"id":88347,"Name":"Słupca","state_id":1634,"state_code":"WP","state_name":"Greater Poland Voivodeship","country_id":176,"country_code":"PL","country_name":"Poland","latitude":"52.28733000","longitude":"17.87192000","wikiDataId":"Q639224"},{"id":88350,"Name":"Słupia pod Kępnem","state_id":1634,"state_code":"WP","state_name":"Greater Poland Voivodeship","country_id":176,"country_code":"PL","country_name":"Poland","latitude":"51.23924000","longitude":"18.04255000","wikiDataId":"Q7667491"},{"id":88834,"Name":"Śmigiel","state_id":1634,"state_code":"WP","state_name":"Greater Poland Voivodeship","country_id":176,"country_code":"PL","country_name":"Poland","latitude":"52.01339000","longitude":"16.52704000","wikiDataId":"Q387194"},{"id":88835,"Name":"Śmiłowo","state_id":1634,"state_code":"WP","state_name":"Greater Poland Voivodeship","country_id":176,"country_code":"PL","country_name":"Poland","latitude":"53.13647000","longitude":"16.92075000","wikiDataId":"Q8081981"},{"id":88146,"Name":"Sompolno","state_id":1634,"state_code":"WP","state_name":"Greater Poland Voivodeship","country_id":176,"country_code":"PL","country_name":"Poland","latitude":"52.38832000","longitude":"18.50282000","wikiDataId":"Q1001517"},{"id":88159,"Name":"Sośnie","state_id":1634,"state_code":"WP","state_name":"Greater Poland Voivodeship","country_id":176,"country_code":"PL","country_name":"Poland","latitude":"51.47315000","longitude":"17.63383000","wikiDataId":"Q553969"},{"id":88837,"Name":"Śrem","state_id":1634,"state_code":"WP","state_name":"Greater Poland Voivodeship","country_id":176,"country_code":"PL","country_name":"Poland","latitude":"52.08868000","longitude":"17.01508000","wikiDataId":"Q387260"},{"id":88838,"Name":"Środa Wielkopolska","state_id":1634,"state_code":"WP","state_name":"Greater Poland Voivodeship","country_id":176,"country_code":"PL","country_name":"Poland","latitude":"52.22843000","longitude":"17.27617000","wikiDataId":"Q52903"},{"id":88187,"Name":"Stare Miasto","state_id":1634,"state_code":"WP","state_name":"Greater Poland Voivodeship","country_id":176,"country_code":"PL","country_name":"Poland","latitude":"52.17972000","longitude":"18.21499000","wikiDataId":"Q7601719"},{"id":88201,"Name":"Stawiszyn","state_id":1634,"state_code":"WP","state_name":"Greater Poland Voivodeship","country_id":176,"country_code":"PL","country_name":"Poland","latitude":"51.91786000","longitude":"18.11171000","wikiDataId":"Q1002685"},{"id":88243,"Name":"Stęszew","state_id":1634,"state_code":"WP","state_name":"Greater Poland Voivodeship","country_id":176,"country_code":"PL","country_name":"Poland","latitude":"52.28370000","longitude":"16.70085000","wikiDataId":"Q638725"},{"id":88222,"Name":"Strzałkowo","state_id":1634,"state_code":"WP","state_name":"Greater Poland Voivodeship","country_id":176,"country_code":"PL","country_name":"Poland","latitude":"52.30701000","longitude":"17.81811000","wikiDataId":"Q554693"},{"id":88254,"Name":"Suchy Las","state_id":1634,"state_code":"WP","state_name":"Greater Poland Voivodeship","country_id":176,"country_code":"PL","country_name":"Poland","latitude":"52.47308000","longitude":"16.87745000","wikiDataId":"Q51021"},{"id":88260,"Name":"Sulmierzyce","state_id":1634,"state_code":"WP","state_name":"Greater Poland Voivodeship","country_id":176,"country_code":"PL","country_name":"Poland","latitude":"51.60594000","longitude":"17.53053000","wikiDataId":"Q991856"},{"id":88275,"Name":"Swarzędz","state_id":1634,"state_code":"WP","state_name":"Greater Poland Voivodeship","country_id":176,"country_code":"PL","country_name":"Poland","latitude":"52.41289000","longitude":"17.08503000","wikiDataId":"Q50991"},{"id":88864,"Name":"Święciechowa","state_id":1634,"state_code":"WP","state_name":"Greater Poland Voivodeship","country_id":176,"country_code":"PL","country_name":"Poland","latitude":"51.85503000","longitude":"16.49805000","wikiDataId":"Q387686"},{"id":88281,"Name":"Sypniewo","state_id":1634,"state_code":"WP","state_name":"Greater Poland Voivodeship","country_id":176,"country_code":"PL","country_name":"Poland","latitude":"53.46823000","longitude":"16.60583000","wikiDataId":"Q7662990"},{"id":88285,"Name":"Szamocin","state_id":1634,"state_code":"WP","state_name":"Greater Poland Voivodeship","country_id":176,"country_code":"PL","country_name":"Poland","latitude":"53.02795000","longitude":"17.12653000","wikiDataId":"Q995859"},{"id":88286,"Name":"Szamotuły","state_id":1634,"state_code":"WP","state_name":"Greater Poland Voivodeship","country_id":176,"country_code":"PL","country_name":"Poland","latitude":"52.61201000","longitude":"16.57794000","wikiDataId":"Q51427"},{"id":88321,"Name":"Szydłowo","state_id":1634,"state_code":"WP","state_name":"Greater Poland Voivodeship","country_id":176,"country_code":"PL","country_name":"Poland","latitude":"53.16212000","longitude":"16.61171000","wikiDataId":"Q2293189"},{"id":88367,"Name":"Tarnówka","state_id":1634,"state_code":"WP","state_name":"Greater Poland Voivodeship","country_id":176,"country_code":"PL","country_name":"Poland","latitude":"53.34174000","longitude":"16.85273000","wikiDataId":"Q544845"},{"id":88363,"Name":"Tarnowo Podgórne","state_id":1634,"state_code":"WP","state_name":"Greater Poland Voivodeship","country_id":176,"country_code":"PL","country_name":"Poland","latitude":"52.46642000","longitude":"16.66326000","wikiDataId":"Q51807"},{"id":88396,"Name":"Trzcianka","state_id":1634,"state_code":"WP","state_name":"Greater Poland Voivodeship","country_id":176,"country_code":"PL","country_name":"Poland","latitude":"53.04063000","longitude":"16.45629000","wikiDataId":"Q934785"},{"id":88399,"Name":"Trzcinica","state_id":1634,"state_code":"WP","state_name":"Greater Poland Voivodeship","country_id":176,"country_code":"PL","country_name":"Poland","latitude":"51.16707000","longitude":"18.00453000","wikiDataId":"Q555446"},{"id":88411,"Name":"Trzemeszno","state_id":1634,"state_code":"WP","state_name":"Greater Poland Voivodeship","country_id":176,"country_code":"PL","country_name":"Poland","latitude":"52.56139000","longitude":"17.82311000","wikiDataId":"Q1002696"},{"id":88422,"Name":"Tuliszków","state_id":1634,"state_code":"WP","state_name":"Greater Poland Voivodeship","country_id":176,"country_code":"PL","country_name":"Poland","latitude":"52.07658000","longitude":"18.29549000","wikiDataId":"Q1421516"},{"id":88424,"Name":"Turek","state_id":1634,"state_code":"WP","state_name":"Greater Poland Voivodeship","country_id":176,"country_code":"PL","country_name":"Poland","latitude":"52.01548000","longitude":"18.50055000","wikiDataId":"Q149853"},{"id":88452,"Name":"Ujście","state_id":1634,"state_code":"WP","state_name":"Greater Poland Voivodeship","country_id":176,"country_code":"PL","country_name":"Poland","latitude":"53.05339000","longitude":"16.73201000","wikiDataId":"Q556193"},{"id":88633,"Name":"Wągrowiec","state_id":1634,"state_code":"WP","state_name":"Greater Poland Voivodeship","country_id":176,"country_code":"PL","country_name":"Poland","latitude":"52.80842000","longitude":"17.19961000","wikiDataId":"Q645022"},{"id":88476,"Name":"Wapno","state_id":1634,"state_code":"WP","state_name":"Greater Poland Voivodeship","country_id":176,"country_code":"PL","country_name":"Poland","latitude":"52.90804000","longitude":"17.47504000","wikiDataId":"Q361987"},{"id":88499,"Name":"Wieleń","state_id":1634,"state_code":"WP","state_name":"Greater Poland Voivodeship","country_id":176,"country_code":"PL","country_name":"Poland","latitude":"52.89461000","longitude":"16.17136000","wikiDataId":"Q988612"},{"id":88501,"Name":"Wielichowo","state_id":1634,"state_code":"WP","state_name":"Greater Poland Voivodeship","country_id":176,"country_code":"PL","country_name":"Poland","latitude":"52.11573000","longitude":"16.35180000","wikiDataId":"Q1002658"},{"id":88518,"Name":"Wierzbinek","state_id":1634,"state_code":"WP","state_name":"Greater Poland Voivodeship","country_id":176,"country_code":"PL","country_name":"Poland","latitude":"52.44026000","longitude":"18.51085000","wikiDataId":"Q7999197"},{"id":88529,"Name":"Wijewo","state_id":1634,"state_code":"WP","state_name":"Greater Poland Voivodeship","country_id":176,"country_code":"PL","country_name":"Poland","latitude":"51.91627000","longitude":"16.18552000","wikiDataId":"Q2150881"},{"id":88533,"Name":"Wilczogóra","state_id":1634,"state_code":"WP","state_name":"Greater Poland Voivodeship","country_id":176,"country_code":"PL","country_name":"Poland","latitude":"52.47348000","longitude":"18.16744000","wikiDataId":"Q1570938"},{"id":88536,"Name":"Wilczyn","state_id":1634,"state_code":"WP","state_name":"Greater Poland Voivodeship","country_id":176,"country_code":"PL","country_name":"Poland","latitude":"52.48816000","longitude":"18.16126000","wikiDataId":"Q553957"},{"id":88539,"Name":"Wilkowice","state_id":1634,"state_code":"WP","state_name":"Greater Poland Voivodeship","country_id":176,"country_code":"PL","country_name":"Poland","latitude":"51.88513000","longitude":"16.53417000","wikiDataId":"Q8002577"},{"id":88549,"Name":"Witaszyce","state_id":1634,"state_code":"WP","state_name":"Greater Poland Voivodeship","country_id":176,"country_code":"PL","country_name":"Poland","latitude":"51.94151000","longitude":"17.56182000","wikiDataId":"Q8027815"},{"id":88551,"Name":"Witkowo","state_id":1634,"state_code":"WP","state_name":"Greater Poland Voivodeship","country_id":176,"country_code":"PL","country_name":"Poland","latitude":"52.43964000","longitude":"17.77264000","wikiDataId":"Q1122800"},{"id":88647,"Name":"Władysławów","state_id":1634,"state_code":"WP","state_name":"Greater Poland Voivodeship","country_id":176,"country_code":"PL","country_name":"Poland","latitude":"52.10313000","longitude":"18.47626000","wikiDataId":"Q556581"},{"id":88653,"Name":"Włoszakowice","state_id":1634,"state_code":"WP","state_name":"Greater Poland Voivodeship","country_id":176,"country_code":"PL","country_name":"Poland","latitude":"51.92754000","longitude":"16.36456000","wikiDataId":"Q985092"},{"id":88597,"Name":"Wolsztyn","state_id":1634,"state_code":"WP","state_name":"Greater Poland Voivodeship","country_id":176,"country_code":"PL","country_name":"Poland","latitude":"52.11552000","longitude":"16.11712000","wikiDataId":"Q852363"},{"id":88605,"Name":"Wronki","state_id":1634,"state_code":"WP","state_name":"Greater Poland Voivodeship","country_id":176,"country_code":"PL","country_name":"Poland","latitude":"52.71051000","longitude":"16.38044000","wikiDataId":"Q52900"},{"id":88606,"Name":"Września","state_id":1634,"state_code":"WP","state_name":"Greater Poland Voivodeship","country_id":176,"country_code":"PL","country_name":"Poland","latitude":"52.32512000","longitude":"17.56519000","wikiDataId":"Q52902"},{"id":88614,"Name":"Wyrzysk","state_id":1634,"state_code":"WP","state_name":"Greater Poland Voivodeship","country_id":176,"country_code":"PL","country_name":"Poland","latitude":"53.15300000","longitude":"17.26802000","wikiDataId":"Q988588"},{"id":88617,"Name":"Wysoka","state_id":1634,"state_code":"WP","state_name":"Greater Poland Voivodeship","country_id":176,"country_code":"PL","country_name":"Poland","latitude":"53.18091000","longitude":"17.08353000","wikiDataId":"Q556344"},{"id":88672,"Name":"Zagórów","state_id":1634,"state_code":"WP","state_name":"Greater Poland Voivodeship","country_id":176,"country_code":"PL","country_name":"Poland","latitude":"52.16835000","longitude":"17.89561000","wikiDataId":"Q140476"},{"id":88679,"Name":"Zakrzewo","state_id":1634,"state_code":"WP","state_name":"Greater Poland Voivodeship","country_id":176,"country_code":"PL","country_name":"Poland","latitude":"53.41186000","longitude":"17.15472000","wikiDataId":"Q2534290"},{"id":88693,"Name":"Zaniemyśl","state_id":1634,"state_code":"WP","state_name":"Greater Poland Voivodeship","country_id":176,"country_code":"PL","country_name":"Poland","latitude":"52.15561000","longitude":"17.16228000","wikiDataId":"Q146933"},{"id":88715,"Name":"Zbąszyń","state_id":1634,"state_code":"WP","state_name":"Greater Poland Voivodeship","country_id":176,"country_code":"PL","country_name":"Poland","latitude":"52.25090000","longitude":"15.92520000","wikiDataId":"Q168905"},{"id":88716,"Name":"Zduny","state_id":1634,"state_code":"WP","state_name":"Greater Poland Voivodeship","country_id":176,"country_code":"PL","country_name":"Poland","latitude":"51.64580000","longitude":"17.37694000","wikiDataId":"Q169224"},{"id":88880,"Name":"Żelazków","state_id":1634,"state_code":"WP","state_name":"Greater Poland Voivodeship","country_id":176,"country_code":"PL","country_name":"Poland","latitude":"51.85418000","longitude":"18.17430000","wikiDataId":"Q555064"},{"id":88884,"Name":"Żerków","state_id":1634,"state_code":"WP","state_name":"Greater Poland Voivodeship","country_id":176,"country_code":"PL","country_name":"Poland","latitude":"52.06877000","longitude":"17.56349000","wikiDataId":"Q393119"},{"id":88746,"Name":"Złotniki","state_id":1634,"state_code":"WP","state_name":"Greater Poland Voivodeship","country_id":176,"country_code":"PL","country_name":"Poland","latitude":"52.49407000","longitude":"16.84496000","wikiDataId":"Q8076202"},{"id":88751,"Name":"Złotów","state_id":1634,"state_code":"WP","state_name":"Greater Poland Voivodeship","country_id":176,"country_code":"PL","country_name":"Poland","latitude":"53.36346000","longitude":"17.04082000","wikiDataId":"Q249166"}]