[{"id":53838,"Name":"Agua Blanca Sur","state_id":4057,"state_code":"YO","state_name":"Yoro Department","country_id":97,"country_code":"HN","country_name":"Honduras","latitude":"15.25000000","longitude":"-87.88333000","wikiDataId":"Q1018877"},{"id":53855,"Name":"Arenal","state_id":4057,"state_code":"YO","state_name":"Yoro Department","country_id":97,"country_code":"HN","country_name":"Honduras","latitude":"15.35000000","longitude":"-86.83333000","wikiDataId":"Q1647488"},{"id":53858,"Name":"Armenia","state_id":4057,"state_code":"YO","state_name":"Yoro Department","country_id":97,"country_code":"HN","country_name":"Honduras","latitude":"15.46667000","longitude":"-86.36667000","wikiDataId":"Q2254748"},{"id":53864,"Name":"Ayapa","state_id":4057,"state_code":"YO","state_name":"Yoro Department","country_id":97,"country_code":"HN","country_name":"Honduras","latitude":"15.11174000","longitude":"-87.17557000","wikiDataId":"Q601725"},{"id":53877,"Name":"Bálsamo Oriental","state_id":4057,"state_code":"YO","state_name":"Yoro Department","country_id":97,"country_code":"HN","country_name":"Honduras","latitude":"15.48333000","longitude":"-86.33333000","wikiDataId":"Q2102693"},{"id":53886,"Name":"Carbajales","state_id":4057,"state_code":"YO","state_name":"Yoro Department","country_id":97,"country_code":"HN","country_name":"Honduras","latitude":"15.51667000","longitude":"-86.35000000","wikiDataId":"Q773081"},{"id":53926,"Name":"Coyoles Central","state_id":4057,"state_code":"YO","state_name":"Yoro Department","country_id":97,"country_code":"HN","country_name":"Honduras","latitude":"15.40000000","longitude":"-86.66667000","wikiDataId":"Q25280533"},{"id":53943,"Name":"El Bálsamo","state_id":4057,"state_code":"YO","state_name":"Yoro Department","country_id":97,"country_code":"HN","country_name":"Honduras","latitude":"15.06667000","longitude":"-87.46667000","wikiDataId":"Q2090091"},{"id":53957,"Name":"El Juncal","state_id":4057,"state_code":"YO","state_name":"Yoro Department","country_id":97,"country_code":"HN","country_name":"Honduras","latitude":"15.45000000","longitude":"-86.43333000","wikiDataId":"Q2090091"},{"id":53963,"Name":"El Negrito","state_id":4057,"state_code":"YO","state_name":"Yoro Department","country_id":97,"country_code":"HN","country_name":"Honduras","latitude":"15.31667000","longitude":"-87.70000000","wikiDataId":"Q2302837"},{"id":53967,"Name":"El Ocote","state_id":4057,"state_code":"YO","state_name":"Yoro Department","country_id":97,"country_code":"HN","country_name":"Honduras","latitude":"15.41667000","longitude":"-86.56667000","wikiDataId":"Q2302837"},{"id":53980,"Name":"El Progreso","state_id":4057,"state_code":"YO","state_name":"Yoro Department","country_id":97,"country_code":"HN","country_name":"Honduras","latitude":"15.42762000","longitude":"-87.77396000","wikiDataId":"Q1643252"},{"id":54013,"Name":"Guaimitas","state_id":4057,"state_code":"YO","state_name":"Yoro Department","country_id":97,"country_code":"HN","country_name":"Honduras","latitude":"15.50000000","longitude":"-87.71667000","wikiDataId":"Q1928232"},{"id":54037,"Name":"Jocón","state_id":4057,"state_code":"YO","state_name":"Yoro Department","country_id":97,"country_code":"HN","country_name":"Honduras","latitude":"15.28333000","longitude":"-86.96667000","wikiDataId":"Q2308179"},{"id":54056,"Name":"La Estancia","state_id":4057,"state_code":"YO","state_name":"Yoro Department","country_id":97,"country_code":"HN","country_name":"Honduras","latitude":"15.28333000","longitude":"-87.55000000","wikiDataId":"Q2561304"},{"id":54059,"Name":"La Guacamaya","state_id":4057,"state_code":"YO","state_name":"Yoro Department","country_id":97,"country_code":"HN","country_name":"Honduras","latitude":"15.25000000","longitude":"-87.80000000","wikiDataId":"Q2561304"},{"id":54072,"Name":"La Mina","state_id":4057,"state_code":"YO","state_name":"Yoro Department","country_id":97,"country_code":"HN","country_name":"Honduras","latitude":"15.31667000","longitude":"-87.83333000","wikiDataId":"Q2279521"},{"id":54075,"Name":"La Rosa","state_id":4057,"state_code":"YO","state_name":"Yoro Department","country_id":97,"country_code":"HN","country_name":"Honduras","latitude":"15.35000000","longitude":"-87.06667000","wikiDataId":"Q2283725"},{"id":54077,"Name":"La Sarrosa","state_id":4057,"state_code":"YO","state_name":"Yoro Department","country_id":97,"country_code":"HN","country_name":"Honduras","latitude":"15.23333000","longitude":"-87.83333000","wikiDataId":"Q2283725"},{"id":54078,"Name":"La Trinidad","state_id":4057,"state_code":"YO","state_name":"Yoro Department","country_id":97,"country_code":"HN","country_name":"Honduras","latitude":"15.10000000","longitude":"-87.20000000","wikiDataId":"Q2283725"},{"id":54095,"Name":"Las Vegas","state_id":4057,"state_code":"YO","state_name":"Yoro Department","country_id":97,"country_code":"HN","country_name":"Honduras","latitude":"15.01667000","longitude":"-87.45000000","wikiDataId":"Q2395542"},{"id":54106,"Name":"Lomitas","state_id":4057,"state_code":"YO","state_name":"Yoro Department","country_id":97,"country_code":"HN","country_name":"Honduras","latitude":"15.10000000","longitude":"-87.21667000","wikiDataId":"Q1948279"},{"id":54130,"Name":"Mojimán","state_id":4057,"state_code":"YO","state_name":"Yoro Department","country_id":97,"country_code":"HN","country_name":"Honduras","latitude":"15.26667000","longitude":"-87.60000000","wikiDataId":"Q2116913"},{"id":54133,"Name":"Morazán","state_id":4057,"state_code":"YO","state_name":"Yoro Department","country_id":97,"country_code":"HN","country_name":"Honduras","latitude":"15.31667000","longitude":"-87.60000000","wikiDataId":"Q2394916"},{"id":54143,"Name":"Nombre de Jesús","state_id":4057,"state_code":"YO","state_name":"Yoro Department","country_id":97,"country_code":"HN","country_name":"Honduras","latitude":"15.35000000","longitude":"-86.68333000","wikiDataId":"Q2394850"},{"id":54147,"Name":"Nueva Esperanza","state_id":4057,"state_code":"YO","state_name":"Yoro Department","country_id":97,"country_code":"HN","country_name":"Honduras","latitude":"15.26667000","longitude":"-87.60000000","wikiDataId":"Q2394850"},{"id":54153,"Name":"Ocote Paulino","state_id":4057,"state_code":"YO","state_name":"Yoro Department","country_id":97,"country_code":"HN","country_name":"Honduras","latitude":"15.41667000","longitude":"-87.60000000","wikiDataId":"Q3307235"},{"id":54158,"Name":"Olanchito","state_id":4057,"state_code":"YO","state_name":"Yoro Department","country_id":97,"country_code":"HN","country_name":"Honduras","latitude":"15.48131000","longitude":"-86.57415000","wikiDataId":"Q2720977"},{"id":54167,"Name":"Paujiles","state_id":4057,"state_code":"YO","state_name":"Yoro Department","country_id":97,"country_code":"HN","country_name":"Honduras","latitude":"15.10000000","longitude":"-87.35000000","wikiDataId":"Q2481144"},{"id":54187,"Name":"Punta Ocote","state_id":4057,"state_code":"YO","state_name":"Yoro Department","country_id":97,"country_code":"HN","country_name":"Honduras","latitude":"15.20000000","longitude":"-87.28333000","wikiDataId":"Q2075665"},{"id":54211,"Name":"San Antonio","state_id":4057,"state_code":"YO","state_name":"Yoro Department","country_id":97,"country_code":"HN","country_name":"Honduras","latitude":"15.33333000","longitude":"-87.15000000","wikiDataId":"Q7409064"},{"id":54244,"Name":"San José","state_id":4057,"state_code":"YO","state_name":"Yoro Department","country_id":97,"country_code":"HN","country_name":"Honduras","latitude":"15.31667000","longitude":"-87.16667000","wikiDataId":"Q925890"},{"id":54308,"Name":"Santa Rita","state_id":4057,"state_code":"YO","state_name":"Yoro Department","country_id":97,"country_code":"HN","country_name":"Honduras","latitude":"15.18000000","longitude":"-87.81000000","wikiDataId":"Q305214"},{"id":54322,"Name":"Subirana","state_id":4057,"state_code":"YO","state_name":"Yoro Department","country_id":97,"country_code":"HN","country_name":"Honduras","latitude":"15.20000000","longitude":"-87.45000000","wikiDataId":"Q2394150"},{"id":54324,"Name":"Sulaco","state_id":4057,"state_code":"YO","state_name":"Yoro Department","country_id":97,"country_code":"HN","country_name":"Honduras","latitude":"14.91667000","longitude":"-87.26667000","wikiDataId":"Q727616"},{"id":54332,"Name":"Teguajinal","state_id":4057,"state_code":"YO","state_name":"Yoro Department","country_id":97,"country_code":"HN","country_name":"Honduras","latitude":"15.36667000","longitude":"-86.60000000","wikiDataId":"Q727616"},{"id":54336,"Name":"Tepusteca","state_id":4057,"state_code":"YO","state_name":"Yoro Department","country_id":97,"country_code":"HN","country_name":"Honduras","latitude":"15.41667000","longitude":"-86.31667000","wikiDataId":"Q1027018"},{"id":54342,"Name":"Toyós","state_id":4057,"state_code":"YO","state_name":"Yoro Department","country_id":97,"country_code":"HN","country_name":"Honduras","latitude":"15.55000000","longitude":"-87.65000000","wikiDataId":"Q2226585"},{"id":54347,"Name":"Trojas","state_id":4057,"state_code":"YO","state_name":"Yoro Department","country_id":97,"country_code":"HN","country_name":"Honduras","latitude":"15.35000000","longitude":"-86.70000000","wikiDataId":"Q666523"},{"id":54358,"Name":"Victoria","state_id":4057,"state_code":"YO","state_name":"Yoro Department","country_id":97,"country_code":"HN","country_name":"Honduras","latitude":"15.10012000","longitude":"-87.53020000","wikiDataId":"Q2344760"},{"id":54374,"Name":"Yorito","state_id":4057,"state_code":"YO","state_name":"Yoro Department","country_id":97,"country_code":"HN","country_name":"Honduras","latitude":"15.06667000","longitude":"-87.28333000","wikiDataId":"Q1647584"},{"id":54375,"Name":"Yoro","state_id":4057,"state_code":"YO","state_name":"Yoro Department","country_id":97,"country_code":"HN","country_name":"Honduras","latitude":"15.13750000","longitude":"-87.12778000","wikiDataId":"Q2561180"}]