[{"id":68113,"Name":"Agua Gorda","state_id":3462,"state_code":"ZAC","state_name":"Zacatecas","country_id":142,"country_code":"MX","country_name":"Mexico","latitude":"22.10669000","longitude":"-101.92182000","wikiDataId":"Q20131591"},{"id":68222,"Name":"Altamira","state_id":3462,"state_code":"ZAC","state_name":"Zacatecas","country_id":142,"country_code":"MX","country_name":"Mexico","latitude":"23.38173000","longitude":"-102.98674000","wikiDataId":"Q434225"},{"id":68313,"Name":"Apozol","state_id":3462,"state_code":"ZAC","state_name":"Zacatecas","country_id":142,"country_code":"MX","country_name":"Mexico","latitude":"21.46952000","longitude":"-103.09076000","wikiDataId":"Q3139265"},{"id":68425,"Name":"Atolinga","state_id":3462,"state_code":"ZAC","state_name":"Zacatecas","country_id":142,"country_code":"MX","country_name":"Mexico","latitude":"21.80659000","longitude":"-103.46496000","wikiDataId":"Q2652068"},{"id":68506,"Name":"Bajío de San Nicolás","state_id":3462,"state_code":"ZAC","state_name":"Zacatecas","country_id":142,"country_code":"MX","country_name":"Mexico","latitude":"22.56499000","longitude":"-102.00784000","wikiDataId":"Q20140376"},{"id":68684,"Name":"Buenavista de Trujillo","state_id":3462,"state_code":"ZAC","state_name":"Zacatecas","country_id":142,"country_code":"MX","country_name":"Mexico","latitude":"23.15200000","longitude":"-103.18767000","wikiDataId":"Q20229054"},{"id":68882,"Name":"Cañas","state_id":3462,"state_code":"ZAC","state_name":"Zacatecas","country_id":142,"country_code":"MX","country_name":"Mexico","latitude":"23.74366000","longitude":"-103.24400000","wikiDataId":"Q20220453"},{"id":68883,"Name":"Cañitas de Felipe Pescador","state_id":3462,"state_code":"ZAC","state_name":"Zacatecas","country_id":142,"country_code":"MX","country_name":"Mexico","latitude":"23.60371000","longitude":"-102.72704000","wikiDataId":"Q20220456"},{"id":68798,"Name":"Cantuna","state_id":3462,"state_code":"ZAC","state_name":"Zacatecas","country_id":142,"country_code":"MX","country_name":"Mexico","latitude":"23.62460000","longitude":"-103.34630000","wikiDataId":"Q20211129"},{"id":68836,"Name":"Carrillo","state_id":3462,"state_code":"ZAC","state_name":"Zacatecas","country_id":142,"country_code":"MX","country_name":"Mexico","latitude":"23.20400000","longitude":"-102.98676000","wikiDataId":"Q5095723"},{"id":68850,"Name":"Casa de Cerros","state_id":3462,"state_code":"ZAC","state_name":"Zacatecas","country_id":142,"country_code":"MX","country_name":"Mexico","latitude":"22.88499000","longitude":"-102.52124000","wikiDataId":"Q20237329"},{"id":68888,"Name":"Cedros","state_id":3462,"state_code":"ZAC","state_name":"Zacatecas","country_id":142,"country_code":"MX","country_name":"Mexico","latitude":"24.67919000","longitude":"-101.77387000","wikiDataId":"Q20218036"},{"id":68913,"Name":"Cerrito de la Cruz","state_id":3462,"state_code":"ZAC","state_name":"Zacatecas","country_id":142,"country_code":"MX","country_name":"Mexico","latitude":"22.65781000","longitude":"-102.27263000","wikiDataId":"Q20257423"},{"id":68959,"Name":"Chalchihuites","state_id":3462,"state_code":"ZAC","state_name":"Zacatecas","country_id":142,"country_code":"MX","country_name":"Mexico","latitude":"23.47498000","longitude":"-103.88293000","wikiDataId":"Q2652043"},{"id":68983,"Name":"Chaparrosa","state_id":3462,"state_code":"ZAC","state_name":"Zacatecas","country_id":142,"country_code":"MX","country_name":"Mexico","latitude":"23.08339000","longitude":"-102.27728000","wikiDataId":"Q3844596"},{"id":68996,"Name":"Charco Blanco","state_id":3462,"state_code":"ZAC","state_name":"Zacatecas","country_id":142,"country_code":"MX","country_name":"Mexico","latitude":"23.86306000","longitude":"-103.65750000","wikiDataId":"Q20220502"},{"id":69027,"Name":"Chichimequillas","state_id":3462,"state_code":"ZAC","state_name":"Zacatecas","country_id":142,"country_code":"MX","country_name":"Mexico","latitude":"23.23894000","longitude":"-102.57850000","wikiDataId":"Q2889052"},{"id":69121,"Name":"Chupaderos","state_id":3462,"state_code":"ZAC","state_name":"Zacatecas","country_id":142,"country_code":"MX","country_name":"Mexico","latitude":"23.15883000","longitude":"-102.32535000","wikiDataId":"Q368220"},{"id":69127,"Name":"Cicacalco","state_id":3462,"state_code":"ZAC","state_name":"Zacatecas","country_id":142,"country_code":"MX","country_name":"Mexico","latitude":"21.71575000","longitude":"-103.31286000","wikiDataId":"Q2447804"},{"id":69130,"Name":"Cieneguillas","state_id":3462,"state_code":"ZAC","state_name":"Zacatecas","country_id":142,"country_code":"MX","country_name":"Mexico","latitude":"22.75698000","longitude":"-102.66267000","wikiDataId":"Q20205838"},{"id":69132,"Name":"Cieneguitas","state_id":3462,"state_code":"ZAC","state_name":"Zacatecas","country_id":142,"country_code":"MX","country_name":"Mexico","latitude":"22.71363000","longitude":"-102.49317000","wikiDataId":"Q20205838"},{"id":69299,"Name":"Colonia Felipe Ángeles","state_id":3462,"state_code":"ZAC","state_name":"Zacatecas","country_id":142,"country_code":"MX","country_name":"Mexico","latitude":"22.54872000","longitude":"-102.79243000","wikiDataId":"Q20276325"},{"id":69303,"Name":"Colonia Francisco García Salinas","state_id":3462,"state_code":"ZAC","state_name":"Zacatecas","country_id":142,"country_code":"MX","country_name":"Mexico","latitude":"23.81084000","longitude":"-103.18180000","wikiDataId":"Q20129124"},{"id":69311,"Name":"Colonia Hidalgo (El Tecolote)","state_id":3462,"state_code":"ZAC","state_name":"Zacatecas","country_id":142,"country_code":"MX","country_name":"Mexico","latitude":"22.32972000","longitude":"-102.03583000","wikiDataId":"Q20220558"},{"id":69316,"Name":"Colonia José María Morelos","state_id":3462,"state_code":"ZAC","state_name":"Zacatecas","country_id":142,"country_code":"MX","country_name":"Mexico","latitude":"22.36794000","longitude":"-101.79449000","wikiDataId":"Q20276362"},{"id":69331,"Name":"Colonia Montemariana (Colonia Mariana)","state_id":3462,"state_code":"ZAC","state_name":"Zacatecas","country_id":142,"country_code":"MX","country_name":"Mexico","latitude":"23.32639000","longitude":"-103.11222000","wikiDataId":"Q20130901"},{"id":69351,"Name":"Colonia Plenitud","state_id":3462,"state_code":"ZAC","state_name":"Zacatecas","country_id":142,"country_code":"MX","country_name":"Mexico","latitude":"23.23250000","longitude":"-103.07500000","wikiDataId":"Q20276461"},{"id":69362,"Name":"Colonia San Francisco (San Francisco)","state_id":3462,"state_code":"ZAC","state_name":"Zacatecas","country_id":142,"country_code":"MX","country_name":"Mexico","latitude":"22.30361000","longitude":"-101.82056000","wikiDataId":"Q20131850"},{"id":69441,"Name":"Concepción del Oro","state_id":3462,"state_code":"ZAC","state_name":"Zacatecas","country_id":142,"country_code":"MX","country_name":"Mexico","latitude":"24.61326000","longitude":"-101.41844000","wikiDataId":"Q1919318"},{"id":69537,"Name":"Crisóstomos","state_id":3462,"state_code":"ZAC","state_name":"Zacatecas","country_id":142,"country_code":"MX","country_name":"Mexico","latitude":"22.22961000","longitude":"-101.99615000","wikiDataId":"Q20211782"},{"id":69767,"Name":"Ejido Hidalgo","state_id":3462,"state_code":"ZAC","state_name":"Zacatecas","country_id":142,"country_code":"MX","country_name":"Mexico","latitude":"22.30083000","longitude":"-102.03861000","wikiDataId":"Q20264352"},{"id":69801,"Name":"Ejido Zaragoza","state_id":3462,"state_code":"ZAC","state_name":"Zacatecas","country_id":142,"country_code":"MX","country_name":"Mexico","latitude":"23.94786000","longitude":"-103.66322000","wikiDataId":"Q20247359"},{"id":69890,"Name":"El Cazadero","state_id":3462,"state_code":"ZAC","state_name":"Zacatecas","country_id":142,"country_code":"MX","country_name":"Mexico","latitude":"23.67250000","longitude":"-103.12220000","wikiDataId":"Q20246220"},{"id":69926,"Name":"El Copetillo","state_id":3462,"state_code":"ZAC","state_name":"Zacatecas","country_id":142,"country_code":"MX","country_name":"Mexico","latitude":"22.14333000","longitude":"-102.00139000","wikiDataId":"Q20220716"},{"id":69971,"Name":"El Fuerte","state_id":3462,"state_code":"ZAC","state_name":"Zacatecas","country_id":142,"country_code":"MX","country_name":"Mexico","latitude":"23.85414000","longitude":"-103.12207000","wikiDataId":"Q1324181"},{"id":70009,"Name":"El Lampotal","state_id":3462,"state_code":"ZAC","state_name":"Zacatecas","country_id":142,"country_code":"MX","country_name":"Mexico","latitude":"22.89583000","longitude":"-102.41944000","wikiDataId":"Q20220807"},{"id":70061,"Name":"El Nigromante","state_id":3462,"state_code":"ZAC","state_name":"Zacatecas","country_id":142,"country_code":"MX","country_name":"Mexico","latitude":"22.15373000","longitude":"-101.71056000","wikiDataId":"Q20220862"},{"id":70068,"Name":"El Obraje","state_id":3462,"state_code":"ZAC","state_name":"Zacatecas","country_id":142,"country_code":"MX","country_name":"Mexico","latitude":"22.18059000","longitude":"-101.59057000","wikiDataId":"Q20213306"},{"id":70111,"Name":"El Plateado de Joaquín Amaro","state_id":3462,"state_code":"ZAC","state_name":"Zacatecas","country_id":142,"country_code":"MX","country_name":"Mexico","latitude":"21.93622000","longitude":"-103.09267000","wikiDataId":"Q3847453"},{"id":70152,"Name":"El Refugio","state_id":3462,"state_code":"ZAC","state_name":"Zacatecas","country_id":142,"country_code":"MX","country_name":"Mexico","latitude":"22.37028000","longitude":"-101.76083000","wikiDataId":"Q20220975"},{"id":70179,"Name":"El Rucio","state_id":3462,"state_code":"ZAC","state_name":"Zacatecas","country_id":142,"country_code":"MX","country_name":"Mexico","latitude":"23.40743000","longitude":"-102.08194000","wikiDataId":"Q1858643"},{"id":70191,"Name":"El Salto","state_id":3462,"state_code":"ZAC","state_name":"Zacatecas","country_id":142,"country_code":"MX","country_name":"Mexico","latitude":"23.19556000","longitude":"-103.06750000","wikiDataId":"Q20264539"},{"id":70194,"Name":"El Salvador","state_id":3462,"state_code":"ZAC","state_name":"Zacatecas","country_id":142,"country_code":"MX","country_name":"Mexico","latitude":"24.52093000","longitude":"-100.86631000","wikiDataId":"Q20206883"},{"id":70199,"Name":"El Saucito (El Horno)","state_id":3462,"state_code":"ZAC","state_name":"Zacatecas","country_id":142,"country_code":"MX","country_name":"Mexico","latitude":"22.73111000","longitude":"-102.09528000","wikiDataId":"Q20221037"},{"id":70207,"Name":"El Sitio","state_id":3462,"state_code":"ZAC","state_name":"Zacatecas","country_id":142,"country_code":"MX","country_name":"Mexico","latitude":"21.96418000","longitude":"-101.58832000","wikiDataId":"Q20245268"},{"id":70241,"Name":"El Tule","state_id":3462,"state_code":"ZAC","state_name":"Zacatecas","country_id":142,"country_code":"MX","country_name":"Mexico","latitude":"22.64128000","longitude":"-102.03830000","wikiDataId":"Q20130313"},{"id":70282,"Name":"Emiliano Zapata","state_id":3462,"state_code":"ZAC","state_name":"Zacatecas","country_id":142,"country_code":"MX","country_name":"Mexico","latitude":"23.71873000","longitude":"-103.19220000","wikiDataId":"Q27777391"},{"id":70294,"Name":"Emilio Carranza","state_id":3462,"state_code":"ZAC","state_name":"Zacatecas","country_id":142,"country_code":"MX","country_name":"Mexico","latitude":"24.10390000","longitude":"-103.66746000","wikiDataId":"Q20134305"},{"id":70313,"Name":"Ermita de Guadalupe","state_id":3462,"state_code":"ZAC","state_name":"Zacatecas","country_id":142,"country_code":"MX","country_name":"Mexico","latitude":"22.58579000","longitude":"-103.03133000","wikiDataId":"Q3845429"},{"id":70334,"Name":"Estación Camacho","state_id":3462,"state_code":"ZAC","state_name":"Zacatecas","country_id":142,"country_code":"MX","country_name":"Mexico","latitude":"24.44038000","longitude":"-102.37283000","wikiDataId":"Q20228584"},{"id":70353,"Name":"Estación San José","state_id":3462,"state_code":"ZAC","state_name":"Zacatecas","country_id":142,"country_code":"MX","country_name":"Mexico","latitude":"23.18972000","longitude":"-102.78472000","wikiDataId":"Q20135993"},{"id":70363,"Name":"Estancia de Ánimas","state_id":3462,"state_code":"ZAC","state_name":"Zacatecas","country_id":142,"country_code":"MX","country_name":"Mexico","latitude":"22.48795000","longitude":"-101.99526000","wikiDataId":"Q20207085"},{"id":70362,"Name":"Estancia de Guadalupe","state_id":3462,"state_code":"ZAC","state_name":"Zacatecas","country_id":142,"country_code":"MX","country_name":"Mexico","latitude":"22.28063000","longitude":"-101.65745000","wikiDataId":"Q20207085"},{"id":70406,"Name":"Florencia","state_id":3462,"state_code":"ZAC","state_name":"Zacatecas","country_id":142,"country_code":"MX","country_name":"Mexico","latitude":"21.50392000","longitude":"-103.55353000","wikiDataId":"Q20214552"},{"id":70488,"Name":"Fresnillo","state_id":3462,"state_code":"ZAC","state_name":"Zacatecas","country_id":142,"country_code":"MX","country_name":"Mexico","latitude":"23.18126000","longitude":"-102.87136000","wikiDataId":"Q1816543"},{"id":70530,"Name":"General Enrique Estrada","state_id":3462,"state_code":"ZAC","state_name":"Zacatecas","country_id":142,"country_code":"MX","country_name":"Mexico","latitude":"22.99747000","longitude":"-102.74255000","wikiDataId":"Q3847464"},{"id":70537,"Name":"General Juan José Ríos","state_id":3462,"state_code":"ZAC","state_name":"Zacatecas","country_id":142,"country_code":"MX","country_name":"Mexico","latitude":"24.32549000","longitude":"-103.40575000","wikiDataId":"Q20140902"},{"id":70538,"Name":"General Lauro G. Caloca (El Rascón)","state_id":3462,"state_code":"ZAC","state_name":"Zacatecas","country_id":142,"country_code":"MX","country_name":"Mexico","latitude":"22.37806000","longitude":"-102.05750000","wikiDataId":"Q20140906"},{"id":70545,"Name":"General Pánfilo Natera","state_id":3462,"state_code":"ZAC","state_name":"Zacatecas","country_id":142,"country_code":"MX","country_name":"Mexico","latitude":"22.66461000","longitude":"-102.11007000","wikiDataId":"Q20221152"},{"id":70554,"Name":"Gonzales Ortega","state_id":3462,"state_code":"ZAC","state_name":"Zacatecas","country_id":142,"country_code":"MX","country_name":"Mexico","latitude":"23.18056000","longitude":"-102.47589000","wikiDataId":"Q20221153"},{"id":70562,"Name":"Granadas","state_id":3462,"state_code":"ZAC","state_name":"Zacatecas","country_id":142,"country_code":"MX","country_name":"Mexico","latitude":"22.10083000","longitude":"-101.86332000","wikiDataId":"Q2606306"},{"id":70572,"Name":"Guadalupe","state_id":3462,"state_code":"ZAC","state_name":"Zacatecas","country_id":142,"country_code":"MX","country_name":"Mexico","latitude":"22.74753000","longitude":"-102.51874000","wikiDataId":"Q1961298"},{"id":70617,"Name":"Guanajuatillo","state_id":3462,"state_code":"ZAC","state_name":"Zacatecas","country_id":142,"country_code":"MX","country_name":"Mexico","latitude":"22.71649000","longitude":"-102.14330000","wikiDataId":"Q5613554"},{"id":70652,"Name":"Hacienda Nueva","state_id":3462,"state_code":"ZAC","state_name":"Zacatecas","country_id":142,"country_code":"MX","country_name":"Mexico","latitude":"22.82461000","longitude":"-102.60836000","wikiDataId":"Q20227981"},{"id":70656,"Name":"Hacienda Toribio","state_id":3462,"state_code":"ZAC","state_name":"Zacatecas","country_id":142,"country_code":"MX","country_name":"Mexico","latitude":"23.08333000","longitude":"-102.68333000","wikiDataId":"Q20144372"},{"id":70685,"Name":"Hidalgo","state_id":3462,"state_code":"ZAC","state_name":"Zacatecas","country_id":142,"country_code":"MX","country_name":"Mexico","latitude":"23.97833000","longitude":"-103.66034000","wikiDataId":"Q20144912"},{"id":70850,"Name":"Ignacio Zaragoza","state_id":3462,"state_code":"ZAC","state_name":"Zacatecas","country_id":142,"country_code":"MX","country_name":"Mexico","latitude":"23.94342000","longitude":"-103.41693000","wikiDataId":"Q20269318"},{"id":70955,"Name":"J. Jesús González Ortega (San Mateo)","state_id":3462,"state_code":"ZAC","state_name":"Zacatecas","country_id":142,"country_code":"MX","country_name":"Mexico","latitude":"22.88722000","longitude":"-103.48528000","wikiDataId":"Q20221185"},{"id":70976,"Name":"Jalpa","state_id":3462,"state_code":"ZAC","state_name":"Zacatecas","country_id":142,"country_code":"MX","country_name":"Mexico","latitude":"21.63448000","longitude":"-102.97919000","wikiDataId":"Q2996852"},{"id":71011,"Name":"Jaula de Abajo","state_id":3462,"state_code":"ZAC","state_name":"Zacatecas","country_id":142,"country_code":"MX","country_name":"Mexico","latitude":"22.02824000","longitude":"-101.59193000","wikiDataId":"Q20148625"},{"id":71018,"Name":"Jerez de García Salinas","state_id":3462,"state_code":"ZAC","state_name":"Zacatecas","country_id":142,"country_code":"MX","country_name":"Mexico","latitude":"22.64971000","longitude":"-102.99032000","wikiDataId":"Q2225397"},{"id":71053,"Name":"Jiménez del Teul","state_id":3462,"state_code":"ZAC","state_name":"Zacatecas","country_id":142,"country_code":"MX","country_name":"Mexico","latitude":"23.25378000","longitude":"-103.79855000","wikiDataId":"Q3850556"},{"id":71101,"Name":"José María Morelos","state_id":3462,"state_code":"ZAC","state_name":"Zacatecas","country_id":142,"country_code":"MX","country_name":"Mexico","latitude":"23.32278000","longitude":"-103.01444000","wikiDataId":"Q20221206"},{"id":71104,"Name":"José María Morelos (Santa Mónica)","state_id":3462,"state_code":"ZAC","state_name":"Zacatecas","country_id":142,"country_code":"MX","country_name":"Mexico","latitude":"23.60556000","longitude":"-103.11028000","wikiDataId":"Q20221207"},{"id":71106,"Name":"José María Morelos y Pavón","state_id":3462,"state_code":"ZAC","state_name":"Zacatecas","country_id":142,"country_code":"MX","country_name":"Mexico","latitude":"23.86288000","longitude":"-103.14193000","wikiDataId":"Q20284570"},{"id":71113,"Name":"Juan Aldama","state_id":3462,"state_code":"ZAC","state_name":"Zacatecas","country_id":142,"country_code":"MX","country_name":"Mexico","latitude":"24.29188000","longitude":"-103.39272000","wikiDataId":"Q6298792"},{"id":71130,"Name":"Juchipila","state_id":3462,"state_code":"ZAC","state_name":"Zacatecas","country_id":142,"country_code":"MX","country_name":"Mexico","latitude":"21.40862000","longitude":"-103.11663000","wikiDataId":"Q20221212"},{"id":71180,"Name":"La Ballena","state_id":3462,"state_code":"ZAC","state_name":"Zacatecas","country_id":142,"country_code":"MX","country_name":"Mexico","latitude":"22.45572000","longitude":"-101.70809000","wikiDataId":"Q20286020"},{"id":71202,"Name":"La Capilla","state_id":3462,"state_code":"ZAC","state_name":"Zacatecas","country_id":142,"country_code":"MX","country_name":"Mexico","latitude":"22.68642000","longitude":"-102.23750000","wikiDataId":"Q20264226"},{"id":71231,"Name":"La Concepción","state_id":3462,"state_code":"ZAC","state_name":"Zacatecas","country_id":142,"country_code":"MX","country_name":"Mexico","latitude":"22.51574000","longitude":"-102.26604000","wikiDataId":"Q20287965"},{"id":71294,"Name":"La Florida","state_id":3462,"state_code":"ZAC","state_name":"Zacatecas","country_id":142,"country_code":"MX","country_name":"Mexico","latitude":"23.80474000","longitude":"-103.07648000","wikiDataId":"Q20219531"},{"id":71345,"Name":"La Laguna","state_id":3462,"state_code":"ZAC","state_name":"Zacatecas","country_id":142,"country_code":"MX","country_name":"Mexico","latitude":"24.21351000","longitude":"-103.18280000","wikiDataId":"Q56527491"},{"id":71372,"Name":"La Luz","state_id":3462,"state_code":"ZAC","state_name":"Zacatecas","country_id":142,"country_code":"MX","country_name":"Mexico","latitude":"22.88000000","longitude":"-102.31028000","wikiDataId":"Q20221430"},{"id":71439,"Name":"La Pendencia","state_id":3462,"state_code":"ZAC","state_name":"Zacatecas","country_id":142,"country_code":"MX","country_name":"Mexico","latitude":"22.43780000","longitude":"-101.57606000","wikiDataId":"Q20130895"},{"id":71501,"Name":"La Tesorera","state_id":3462,"state_code":"ZAC","state_name":"Zacatecas","country_id":142,"country_code":"MX","country_name":"Mexico","latitude":"22.69707000","longitude":"-102.11670000","wikiDataId":"Q20293791"},{"id":71533,"Name":"La Victoria","state_id":3462,"state_code":"ZAC","state_name":"Zacatecas","country_id":142,"country_code":"MX","country_name":"Mexico","latitude":"22.25701000","longitude":"-101.62957000","wikiDataId":"Q20239873"},{"id":71538,"Name":"La Zacatecana","state_id":3462,"state_code":"ZAC","state_name":"Zacatecas","country_id":142,"country_code":"MX","country_name":"Mexico","latitude":"22.73053000","longitude":"-102.47462000","wikiDataId":"Q20139688"},{"id":71550,"Name":"Laguna Seca","state_id":3462,"state_code":"ZAC","state_name":"Zacatecas","country_id":142,"country_code":"MX","country_name":"Mexico","latitude":"23.06180000","longitude":"-102.49558000","wikiDataId":"Q20227219"},{"id":71582,"Name":"Las Catarinas","state_id":3462,"state_code":"ZAC","state_name":"Zacatecas","country_id":142,"country_code":"MX","country_name":"Mexico","latitude":"23.09115000","longitude":"-102.61597000","wikiDataId":"Q20221569"},{"id":71598,"Name":"Las Esperanzas (El Ranchito)","state_id":3462,"state_code":"ZAC","state_name":"Zacatecas","country_id":142,"country_code":"MX","country_name":"Mexico","latitude":"23.84972000","longitude":"-103.13111000","wikiDataId":"Q20221586"},{"id":71632,"Name":"Las Pilas","state_id":3462,"state_code":"ZAC","state_name":"Zacatecas","country_id":142,"country_code":"MX","country_name":"Mexico","latitude":"22.84000000","longitude":"-102.61278000","wikiDataId":"Q20296495"},{"id":71899,"Name":"Lázaro Cárdenas (Rancho Grande)","state_id":3462,"state_code":"ZAC","state_name":"Zacatecas","country_id":142,"country_code":"MX","country_name":"Mexico","latitude":"23.45056000","longitude":"-102.96250000","wikiDataId":"Q20264788"},{"id":71704,"Name":"Lobatos","state_id":3462,"state_code":"ZAC","state_name":"Zacatecas","country_id":142,"country_code":"MX","country_name":"Mexico","latitude":"22.82280000","longitude":"-103.40580000","wikiDataId":"Q20282632"},{"id":71763,"Name":"Loreto","state_id":3462,"state_code":"ZAC","state_name":"Zacatecas","country_id":142,"country_code":"MX","country_name":"Mexico","latitude":"22.27248000","longitude":"-101.98898000","wikiDataId":"Q1020758"},{"id":71791,"Name":"Los Condes","state_id":3462,"state_code":"ZAC","state_name":"Zacatecas","country_id":142,"country_code":"MX","country_name":"Mexico","latitude":"23.83889000","longitude":"-103.07861000","wikiDataId":"Q20133857"},{"id":71840,"Name":"Los Ramírez","state_id":3462,"state_code":"ZAC","state_name":"Zacatecas","country_id":142,"country_code":"MX","country_name":"Mexico","latitude":"23.84505000","longitude":"-103.03447000","wikiDataId":"Q3311869"},{"id":71882,"Name":"Luis Moya","state_id":3462,"state_code":"ZAC","state_name":"Zacatecas","country_id":142,"country_code":"MX","country_name":"Mexico","latitude":"22.43237000","longitude":"-102.24864000","wikiDataId":"Q20143446"},{"id":71947,"Name":"Malpaso","state_id":3462,"state_code":"ZAC","state_name":"Zacatecas","country_id":142,"country_code":"MX","country_name":"Mexico","latitude":"22.62627000","longitude":"-102.76194000","wikiDataId":"Q6743721"},{"id":71983,"Name":"Maravillas","state_id":3462,"state_code":"ZAC","state_name":"Zacatecas","country_id":142,"country_code":"MX","country_name":"Mexico","latitude":"22.39988000","longitude":"-102.01676000","wikiDataId":"Q1477420"},{"id":72003,"Name":"Martínez Domínguez","state_id":3462,"state_code":"ZAC","state_name":"Zacatecas","country_id":142,"country_code":"MX","country_name":"Mexico","latitude":"22.74806000","longitude":"-102.48111000","wikiDataId":"Q20221798"},{"id":72039,"Name":"Mazapil","state_id":3462,"state_code":"ZAC","state_name":"Zacatecas","country_id":142,"country_code":"MX","country_name":"Mexico","latitude":"24.63867000","longitude":"-101.55455000","wikiDataId":"Q1953050"},{"id":72108,"Name":"Mezquital del Oro","state_id":3462,"state_code":"ZAC","state_name":"Zacatecas","country_id":142,"country_code":"MX","country_name":"Mexico","latitude":"21.21667000","longitude":"-103.36278000","wikiDataId":"Q20148222"},{"id":72125,"Name":"Miguel Auza","state_id":3462,"state_code":"ZAC","state_name":"Zacatecas","country_id":142,"country_code":"MX","country_name":"Mexico","latitude":"24.29421000","longitude":"-103.45090000","wikiDataId":"Q20148565"},{"id":72137,"Name":"Milagros","state_id":3462,"state_code":"ZAC","state_name":"Zacatecas","country_id":142,"country_code":"MX","country_name":"Mexico","latitude":"22.49986000","longitude":"-102.18365000","wikiDataId":"Q20148813"},{"id":72189,"Name":"Momax","state_id":3462,"state_code":"ZAC","state_name":"Zacatecas","country_id":142,"country_code":"MX","country_name":"Mexico","latitude":"21.92260000","longitude":"-103.31307000","wikiDataId":"Q3846826"},{"id":72199,"Name":"Monte Escobedo","state_id":3462,"state_code":"ZAC","state_name":"Zacatecas","country_id":142,"country_code":"MX","country_name":"Mexico","latitude":"22.30362000","longitude":"-103.56751000","wikiDataId":"Q10296229"},{"id":72230,"Name":"Morelos","state_id":3462,"state_code":"ZAC","state_name":"Zacatecas","country_id":142,"country_code":"MX","country_name":"Mexico","latitude":"22.86215000","longitude":"-102.61061000","wikiDataId":"Q20221840"},{"id":72244,"Name":"Moyahua de Estrada","state_id":3462,"state_code":"ZAC","state_name":"Zacatecas","country_id":142,"country_code":"MX","country_name":"Mexico","latitude":"21.26658000","longitude":"-103.16610000","wikiDataId":"Q6024852"},{"id":72330,"Name":"Nieves","state_id":3462,"state_code":"ZAC","state_name":"Zacatecas","country_id":142,"country_code":"MX","country_name":"Mexico","latitude":"23.99609000","longitude":"-103.02013000","wikiDataId":"Q20221845"},{"id":72337,"Name":"Nochistlán de Mejía","state_id":3462,"state_code":"ZAC","state_name":"Zacatecas","country_id":142,"country_code":"MX","country_name":"Mexico","latitude":"21.36435000","longitude":"-102.84590000","wikiDataId":"Q10977548"},{"id":72352,"Name":"Noria de Ángeles","state_id":3462,"state_code":"ZAC","state_name":"Zacatecas","country_id":142,"country_code":"MX","country_name":"Mexico","latitude":"22.44321000","longitude":"-101.90846000","wikiDataId":"Q20231076"},{"id":72481,"Name":"Ojitos","state_id":3462,"state_code":"ZAC","state_name":"Zacatecas","country_id":142,"country_code":"MX","country_name":"Mexico","latitude":"24.30969000","longitude":"-103.34610000","wikiDataId":"Q4340378"},{"id":72689,"Name":"Paso de Méndez","state_id":3462,"state_code":"ZAC","state_name":"Zacatecas","country_id":142,"country_code":"MX","country_name":"Mexico","latitude":"22.51588000","longitude":"-102.46956000","wikiDataId":"Q20240128"},{"id":72699,"Name":"Pastelera","state_id":3462,"state_code":"ZAC","state_name":"Zacatecas","country_id":142,"country_code":"MX","country_name":"Mexico","latitude":"23.74420000","longitude":"-103.09700000","wikiDataId":"Q20271245"},{"id":72703,"Name":"Pastoría","state_id":3462,"state_code":"ZAC","state_name":"Zacatecas","country_id":142,"country_code":"MX","country_name":"Mexico","latitude":"22.48615000","longitude":"-102.08184000","wikiDataId":"Q20221950"},{"id":72722,"Name":"Pedregoso","state_id":3462,"state_code":"ZAC","state_name":"Zacatecas","country_id":142,"country_code":"MX","country_name":"Mexico","latitude":"22.25274000","longitude":"-101.75757000","wikiDataId":"Q20293805"},{"id":72765,"Name":"Piedra Gorda","state_id":3462,"state_code":"ZAC","state_name":"Zacatecas","country_id":142,"country_code":"MX","country_name":"Mexico","latitude":"22.50759000","longitude":"-102.33187000","wikiDataId":"Q20264891"},{"id":72780,"Name":"Pinos","state_id":3462,"state_code":"ZAC","state_name":"Zacatecas","country_id":142,"country_code":"MX","country_name":"Mexico","latitude":"22.29571000","longitude":"-101.57579000","wikiDataId":"Q6076294"},{"id":72807,"Name":"Plateros","state_id":3462,"state_code":"ZAC","state_name":"Zacatecas","country_id":142,"country_code":"MX","country_name":"Mexico","latitude":"23.22922000","longitude":"-102.84290000","wikiDataId":"Q20221969"},{"id":72873,"Name":"Pozo de Jarillas","state_id":3462,"state_code":"ZAC","state_name":"Zacatecas","country_id":142,"country_code":"MX","country_name":"Mexico","latitude":"22.65279000","longitude":"-102.19782000","wikiDataId":"Q20221982"},{"id":72875,"Name":"Pozos de Gamboa","state_id":3462,"state_code":"ZAC","state_name":"Zacatecas","country_id":142,"country_code":"MX","country_name":"Mexico","latitude":"22.94861000","longitude":"-102.57010000","wikiDataId":"Q20264912"},{"id":73048,"Name":"Rafael Yáñez Sosa (El Mezquite)","state_id":3462,"state_code":"ZAC","state_name":"Zacatecas","country_id":142,"country_code":"MX","country_name":"Mexico","latitude":"23.32833000","longitude":"-102.61028000","wikiDataId":"Q20222034"},{"id":73063,"Name":"Rancho Nuevo","state_id":3462,"state_code":"ZAC","state_name":"Zacatecas","country_id":142,"country_code":"MX","country_name":"Mexico","latitude":"22.40783000","longitude":"-102.34863000","wikiDataId":"Q20281961"},{"id":73067,"Name":"Rancho Nuevo de Morelos (De Guadalupe)","state_id":3462,"state_code":"ZAC","state_name":"Zacatecas","country_id":142,"country_code":"MX","country_name":"Mexico","latitude":"22.34056000","longitude":"-101.78528000","wikiDataId":"Q20222184"},{"id":73139,"Name":"Rio de Medina","state_id":3462,"state_code":"ZAC","state_name":"Zacatecas","country_id":142,"country_code":"MX","country_name":"Mexico","latitude":"23.50260000","longitude":"-103.01791000","wikiDataId":"Q20128857"},{"id":73173,"Name":"Río Florido","state_id":3462,"state_code":"ZAC","state_name":"Zacatecas","country_id":142,"country_code":"MX","country_name":"Mexico","latitude":"23.34464000","longitude":"-102.99039000","wikiDataId":"Q13422660"},{"id":73176,"Name":"Río Grande","state_id":3462,"state_code":"ZAC","state_name":"Zacatecas","country_id":142,"country_code":"MX","country_name":"Mexico","latitude":"23.82647000","longitude":"-103.03034000","wikiDataId":"Q20129713"},{"id":73205,"Name":"Sain Alto","state_id":3462,"state_code":"ZAC","state_name":"Zacatecas","country_id":142,"country_code":"MX","country_name":"Mexico","latitude":"23.58086000","longitude":"-103.24807000","wikiDataId":"Q20131804"},{"id":73206,"Name":"Sain Bajo","state_id":3462,"state_code":"ZAC","state_name":"Zacatecas","country_id":142,"country_code":"MX","country_name":"Mexico","latitude":"23.61627000","longitude":"-103.17447000","wikiDataId":"Q20131804"},{"id":73378,"Name":"San Antonio del Cipres","state_id":3462,"state_code":"ZAC","state_name":"Zacatecas","country_id":142,"country_code":"MX","country_name":"Mexico","latitude":"22.93857000","longitude":"-102.48710000","wikiDataId":"Q20209988"},{"id":73446,"Name":"San Blas","state_id":3462,"state_code":"ZAC","state_name":"Zacatecas","country_id":142,"country_code":"MX","country_name":"Mexico","latitude":"22.29899000","longitude":"-101.95497000","wikiDataId":"Q5482273"},{"id":73473,"Name":"San Cristóbal","state_id":3462,"state_code":"ZAC","state_name":"Zacatecas","country_id":142,"country_code":"MX","country_name":"Mexico","latitude":"22.59085000","longitude":"-102.23390000","wikiDataId":"Q20288570"},{"id":73699,"Name":"San Jerónimo","state_id":3462,"state_code":"ZAC","state_name":"Zacatecas","country_id":142,"country_code":"MX","country_name":"Mexico","latitude":"22.65402000","longitude":"-102.49182000","wikiDataId":"Q20140693"},{"id":73812,"Name":"San José de Castellanos","state_id":3462,"state_code":"ZAC","state_name":"Zacatecas","country_id":142,"country_code":"MX","country_name":"Mexico","latitude":"22.10930000","longitude":"-101.55091000","wikiDataId":"Q20210141"},{"id":73829,"Name":"San José de la Era","state_id":3462,"state_code":"ZAC","state_name":"Zacatecas","country_id":142,"country_code":"MX","country_name":"Mexico","latitude":"22.85073000","longitude":"-102.42239000","wikiDataId":"Q20265047"},{"id":73735,"Name":"San Jose de Lourdes","state_id":3462,"state_code":"ZAC","state_name":"Zacatecas","country_id":142,"country_code":"MX","country_name":"Mexico","latitude":"23.27645000","longitude":"-103.00973000","wikiDataId":"Q20141028"},{"id":73851,"Name":"San José el Saladillo (El Saladillo)","state_id":3462,"state_code":"ZAC","state_name":"Zacatecas","country_id":142,"country_code":"MX","country_name":"Mexico","latitude":"22.68500000","longitude":"-102.03778000","wikiDataId":"Q20222360"},{"id":74066,"Name":"San Marcos","state_id":3462,"state_code":"ZAC","state_name":"Zacatecas","country_id":142,"country_code":"MX","country_name":"Mexico","latitude":"22.27744000","longitude":"-101.95196000","wikiDataId":"Q20293271"},{"id":74082,"Name":"San Martin","state_id":3462,"state_code":"ZAC","state_name":"Zacatecas","country_id":142,"country_code":"MX","country_name":"Mexico","latitude":"23.67117000","longitude":"-103.75007000","wikiDataId":"Q6119293"},{"id":74279,"Name":"San Pablo","state_id":3462,"state_code":"ZAC","state_name":"Zacatecas","country_id":142,"country_code":"MX","country_name":"Mexico","latitude":"22.55937000","longitude":"-102.09990000","wikiDataId":"Q549962"},{"id":74367,"Name":"San Pedro Piedra Gorda","state_id":3462,"state_code":"ZAC","state_name":"Zacatecas","country_id":142,"country_code":"MX","country_name":"Mexico","latitude":"22.44753000","longitude":"-102.34875000","wikiDataId":"Q2447816"},{"id":74520,"Name":"Santa Ana","state_id":3462,"state_code":"ZAC","state_name":"Zacatecas","country_id":142,"country_code":"MX","country_name":"Mexico","latitude":"22.39194000","longitude":"-101.47401000","wikiDataId":"Q20235444"},{"id":74654,"Name":"Santa Elena","state_id":3462,"state_code":"ZAC","state_name":"Zacatecas","country_id":142,"country_code":"MX","country_name":"Mexico","latitude":"22.59240000","longitude":"-102.07141000","wikiDataId":"Q20245452"},{"id":74808,"Name":"Santa María de los Ángeles","state_id":3462,"state_code":"ZAC","state_name":"Zacatecas","country_id":142,"country_code":"MX","country_name":"Mexico","latitude":"22.28383000","longitude":"-101.86508000","wikiDataId":"Q35908600"},{"id":74826,"Name":"Santa Mónica","state_id":3462,"state_code":"ZAC","state_name":"Zacatecas","country_id":142,"country_code":"MX","country_name":"Mexico","latitude":"22.75480000","longitude":"-102.42220000","wikiDataId":"Q50011709"},{"id":74832,"Name":"Santa Rita","state_id":3462,"state_code":"ZAC","state_name":"Zacatecas","country_id":142,"country_code":"MX","country_name":"Mexico","latitude":"22.91194000","longitude":"-102.41833000","wikiDataId":"Q20222489"},{"id":74867,"Name":"Santiago","state_id":3462,"state_code":"ZAC","state_name":"Zacatecas","country_id":142,"country_code":"MX","country_name":"Mexico","latitude":"22.45477000","longitude":"-101.45898000","wikiDataId":"Q20265125"},{"id":74990,"Name":"Santiaguillo","state_id":3462,"state_code":"ZAC","state_name":"Zacatecas","country_id":142,"country_code":"MX","country_name":"Mexico","latitude":"23.14718000","longitude":"-102.65240000","wikiDataId":"Q3287586"},{"id":75043,"Name":"Sauceda de La Borda","state_id":3462,"state_code":"ZAC","state_name":"Zacatecas","country_id":142,"country_code":"MX","country_name":"Mexico","latitude":"22.83035000","longitude":"-102.50264000","wikiDataId":"Q20261918"},{"id":75055,"Name":"Seis de Enero","state_id":3462,"state_code":"ZAC","state_name":"Zacatecas","country_id":142,"country_code":"MX","country_name":"Mexico","latitude":"23.36856000","longitude":"-103.07468000","wikiDataId":"Q20235876"},{"id":75151,"Name":"Susticacán","state_id":3462,"state_code":"ZAC","state_name":"Zacatecas","country_id":142,"country_code":"MX","country_name":"Mexico","latitude":"22.60937000","longitude":"-103.09671000","wikiDataId":"Q6135440"},{"id":75156,"Name":"Tabasco","state_id":3462,"state_code":"ZAC","state_name":"Zacatecas","country_id":142,"country_code":"MX","country_name":"Mexico","latitude":"21.86286000","longitude":"-102.91105000","wikiDataId":"Q3889100"},{"id":75158,"Name":"Tacoaleche","state_id":3462,"state_code":"ZAC","state_name":"Zacatecas","country_id":142,"country_code":"MX","country_name":"Mexico","latitude":"22.82010000","longitude":"-102.40476000","wikiDataId":"Q2834711"},{"id":75225,"Name":"Tapias de Santa Cruz (Pedro Ruiz González)","state_id":3462,"state_code":"ZAC","state_name":"Zacatecas","country_id":142,"country_code":"MX","country_name":"Mexico","latitude":"23.18889000","longitude":"-103.13111000","wikiDataId":"Q20222549"},{"id":75248,"Name":"Tayahua","state_id":3462,"state_code":"ZAC","state_name":"Zacatecas","country_id":142,"country_code":"MX","country_name":"Mexico","latitude":"22.09355000","longitude":"-102.87195000","wikiDataId":"Q20228486"},{"id":75406,"Name":"Tepechitlán","state_id":3462,"state_code":"ZAC","state_name":"Zacatecas","country_id":142,"country_code":"MX","country_name":"Mexico","latitude":"21.67063000","longitude":"-103.32640000","wikiDataId":"Q2001650"},{"id":75430,"Name":"Tepetongo","state_id":3462,"state_code":"ZAC","state_name":"Zacatecas","country_id":142,"country_code":"MX","country_name":"Mexico","latitude":"22.45847000","longitude":"-103.15120000","wikiDataId":"Q3845944"},{"id":75468,"Name":"Terminal de Providencia","state_id":3462,"state_code":"ZAC","state_name":"Zacatecas","country_id":142,"country_code":"MX","country_name":"Mexico","latitude":"24.69254000","longitude":"-101.46575000","wikiDataId":"Q20287669"},{"id":75486,"Name":"Tetillas","state_id":3462,"state_code":"ZAC","state_name":"Zacatecas","country_id":142,"country_code":"MX","country_name":"Mexico","latitude":"23.71464000","longitude":"-102.90844000","wikiDataId":"Q27796588"},{"id":75534,"Name":"Teúl de González Ortega","state_id":3462,"state_code":"ZAC","state_name":"Zacatecas","country_id":142,"country_code":"MX","country_name":"Mexico","latitude":"21.46340000","longitude":"-103.46131000","wikiDataId":"Q2449130"},{"id":75545,"Name":"Tierra Blanca","state_id":3462,"state_code":"ZAC","state_name":"Zacatecas","country_id":142,"country_code":"MX","country_name":"Mexico","latitude":"22.34796000","longitude":"-102.06536000","wikiDataId":"Q7801104"},{"id":75599,"Name":"Tlachichila","state_id":3462,"state_code":"ZAC","state_name":"Zacatecas","country_id":142,"country_code":"MX","country_name":"Mexico","latitude":"21.55745000","longitude":"-102.78613000","wikiDataId":"Q2085590"},{"id":75654,"Name":"Tlaltenango de Sánchez Román","state_id":3462,"state_code":"ZAC","state_name":"Zacatecas","country_id":142,"country_code":"MX","country_name":"Mexico","latitude":"21.78221000","longitude":"-103.30298000","wikiDataId":"Q20222576"},{"id":75764,"Name":"Trancoso","state_id":3462,"state_code":"ZAC","state_name":"Zacatecas","country_id":142,"country_code":"MX","country_name":"Mexico","latitude":"22.73542000","longitude":"-102.36697000","wikiDataId":"Q20222585"},{"id":75781,"Name":"Trinidad García de la Cadena","state_id":3462,"state_code":"ZAC","state_name":"Zacatecas","country_id":142,"country_code":"MX","country_name":"Mexico","latitude":"21.21035000","longitude":"-103.46532000","wikiDataId":"Q20289956"},{"id":75933,"Name":"Valparaíso","state_id":3462,"state_code":"ZAC","state_name":"Zacatecas","country_id":142,"country_code":"MX","country_name":"Mexico","latitude":"22.77104000","longitude":"-103.56991000","wikiDataId":"Q2651632"},{"id":76104,"Name":"Víctor Rosales","state_id":3462,"state_code":"ZAC","state_name":"Zacatecas","country_id":142,"country_code":"MX","country_name":"Mexico","latitude":"22.94889000","longitude":"-102.70222000","wikiDataId":"Q1997547"},{"id":76061,"Name":"Villa de Cos","state_id":3462,"state_code":"ZAC","state_name":"Zacatecas","country_id":142,"country_code":"MX","country_name":"Mexico","latitude":"23.29329000","longitude":"-102.35020000","wikiDataId":"Q20222612"},{"id":76002,"Name":"Villa García","state_id":3462,"state_code":"ZAC","state_name":"Zacatecas","country_id":142,"country_code":"MX","country_name":"Mexico","latitude":"22.16169000","longitude":"-101.95556000","wikiDataId":"Q20222613"},{"id":76003,"Name":"Villa González Ortega","state_id":3462,"state_code":"ZAC","state_name":"Zacatecas","country_id":142,"country_code":"MX","country_name":"Mexico","latitude":"22.51222000","longitude":"-101.91616000","wikiDataId":"Q20265166"},{"id":76012,"Name":"Villa Hidalgo","state_id":3462,"state_code":"ZAC","state_name":"Zacatecas","country_id":142,"country_code":"MX","country_name":"Mexico","latitude":"22.35682000","longitude":"-101.71259000","wikiDataId":"Q7930360"},{"id":76018,"Name":"Villa Insurgentes (El Calabazal)","state_id":3462,"state_code":"ZAC","state_name":"Zacatecas","country_id":142,"country_code":"MX","country_name":"Mexico","latitude":"23.74306000","longitude":"-103.84250000","wikiDataId":"Q20292663"},{"id":76085,"Name":"Villanueva","state_id":3462,"state_code":"ZAC","state_name":"Zacatecas","country_id":142,"country_code":"MX","country_name":"Mexico","latitude":"22.35527000","longitude":"-102.88264000","wikiDataId":"Q2991562"},{"id":76272,"Name":"Zacatecas","state_id":3462,"state_code":"ZAC","state_name":"Zacatecas","country_id":142,"country_code":"MX","country_name":"Mexico","latitude":"22.76843000","longitude":"-102.58141000","wikiDataId":"Q139242"},{"id":76370,"Name":"Zoquite","state_id":3462,"state_code":"ZAC","state_name":"Zacatecas","country_id":142,"country_code":"MX","country_name":"Mexico","latitude":"22.78533000","longitude":"-102.42248000","wikiDataId":"Q10838571"}]