[{"id":65611,"Name":"Aqsay","state_id":148,"state_code":"ZAP","state_name":"West Kazakhstan Province","country_id":112,"country_code":"KZ","country_name":"Kazakhstan","latitude":"51.16810000","longitude":"52.99782000","wikiDataId":"Q622760"},{"id":65655,"Name":"Burlin","state_id":148,"state_code":"ZAP","state_name":"West Kazakhstan Province","country_id":112,"country_code":"KZ","country_name":"Kazakhstan","latitude":"51.42724000","longitude":"52.71392000","wikiDataId":"Q27357540"},{"id":65658,"Name":"Chapaev","state_id":148,"state_code":"ZAP","state_name":"West Kazakhstan Province","country_id":112,"country_code":"KZ","country_name":"Kazakhstan","latitude":"50.20000000","longitude":"51.16667000","wikiDataId":"Q4507143"},{"id":65662,"Name":"Chingirlau","state_id":148,"state_code":"ZAP","state_name":"West Kazakhstan Province","country_id":112,"country_code":"KZ","country_name":"Kazakhstan","latitude":"51.09878000","longitude":"54.08426000","wikiDataId":"Q4516058"},{"id":65670,"Name":"Dzhambeyty","state_id":148,"state_code":"ZAP","state_name":"West Kazakhstan Province","country_id":112,"country_code":"KZ","country_name":"Kazakhstan","latitude":"50.25676000","longitude":"52.59895000","wikiDataId":"Q4737934"},{"id":65677,"Name":"Fedorovka","state_id":148,"state_code":"ZAP","state_name":"West Kazakhstan Province","country_id":112,"country_code":"KZ","country_name":"Kazakhstan","latitude":"51.22102000","longitude":"51.95723000","wikiDataId":"Q1238323"},{"id":65693,"Name":"Kaztalovka","state_id":148,"state_code":"ZAP","state_name":"West Kazakhstan Province","country_id":112,"country_code":"KZ","country_name":"Kazakhstan","latitude":"49.76612000","longitude":"48.68903000","wikiDataId":"Q1047754"},{"id":65704,"Name":"Krūgloozernoe","state_id":148,"state_code":"ZAP","state_name":"West Kazakhstan Province","country_id":112,"country_code":"KZ","country_name":"Kazakhstan","latitude":"51.07854000","longitude":"51.28992000","wikiDataId":"Q488990"},{"id":65739,"Name":"Oral","state_id":148,"state_code":"ZAP","state_name":"West Kazakhstan Province","country_id":112,"country_code":"KZ","country_name":"Kazakhstan","latitude":"51.23333000","longitude":"51.36667000","wikiDataId":"Q487439"},{"id":65745,"Name":"Peremetnoe","state_id":148,"state_code":"ZAP","state_name":"West Kazakhstan Province","country_id":112,"country_code":"KZ","country_name":"Kazakhstan","latitude":"51.19925000","longitude":"50.85544000","wikiDataId":"Q4350661"},{"id":65771,"Name":"Saykhin","state_id":148,"state_code":"ZAP","state_name":"West Kazakhstan Province","country_id":112,"country_code":"KZ","country_name":"Kazakhstan","latitude":"48.85611000","longitude":"46.83361000","wikiDataId":"Q12561247"},{"id":65805,"Name":"Tasqala","state_id":148,"state_code":"ZAP","state_name":"West Kazakhstan Province","country_id":112,"country_code":"KZ","country_name":"Kazakhstan","latitude":"51.11073000","longitude":"50.29454000","wikiDataId":"Q4452304"},{"id":65849,"Name":"Zhänibek","state_id":148,"state_code":"ZAP","state_name":"West Kazakhstan Province","country_id":112,"country_code":"KZ","country_name":"Kazakhstan","latitude":"49.42207000","longitude":"46.84705000","wikiDataId":"Q141468"}]